Price,Fees,Listing ID,Layout,Avaliable from,Floor space,Fully furnished,Floor,Lift,public_transport,post,shop,bank,restaurant,pharmacy,school,kindergarten,sports_field,playground,District,Latitude,Longitude,Balcony,Terrace,Garage,Refundable security deposit,EPC,Condition,Building type,Reconstruction,Balkón 2 m²,Parking,Sklep 2 m²,Domácí mazlíčci vítáni,Heating,Designe,Age,Balkón 13 m²,Sklep 7 m²,Ownership,Balkón 3 m²,Sklep 1 m²,Lodžie 6 m²,Terasa 5 m²,Administrative fee,Balkón 33 m²,Cellar,Sklep 3 m²,Sklep 4 m²,Balkón 15 m²,Balkón 4 m²,Sklep 6 m²,Terasa 29 m²,Balkón 5 m²,Terasa 50 m²,Balkón 10 m²,Terasa 8 m²,New-build,Enclosed balcony,Balkón 6 m²,Lodžie 4 m²,Lodžie 5 m²,Balkón 9 m²,Lodžie 3 m²,Balkón 8 m²,Terasa 20 m²,Sklep 10 m²,Lodžie 8 m²,Sklep 1.5 m²,Lodžie 7 m²,Terasa 30 m²,Terasa 10 m²,Sklep 5 m²,Terasa 7 m²,Terasa 45 m²,Balkón 7 m²,Terasa 6 m²,Sklep 12 m²,Terasa 15 m²,Balkón 6.1 m²,Sklep 4.1 m²,Terasa 10.1 m²,Terasa 83 m²,Terasa 12 m²,Balkón 11 m²,Balkón 28 m²,Balkón 32 m²,Terasa 32 m²,Sklep 6.4 m²,Balkón 96 m²,Terasa 27.6 m²,Balkón 2.29 m²,Balkón 12 m²,Lodžie 12 m²,Terasa 16.1 m²,Sklep 3.1 m²,Balkón 1 m²,Lodžie 9 m²,Sklep 8 m²,Sklep 1.2 m²,Lodžie 2.7 m²,Lodžie 13 m²,Terasa 19 m²,Sklep 20 m²,Lodžie 10 m²,Terasa 14 m²,Terasa 14.1 m²,Terasa 40 m²,Balkón 35 m²,Balkón 70 m²,Plot space,Sklep 44 m²,Sklep 15 m²
"CZK 31,500","CZK 10,500",746228,2 bedroom,12/17/2022,75 m²,Fully furnished,3,1.0,286.21,293.35,195.84,193.77,92.11,378.02,243.35,1039.65,522.33,334.73,"Čechova, Prague - Bubeneč",50.1016621,14.4210737,,,,,,,,,,,,,,,,,,,,,,,,,,,,,,,,,,,,,,,,,,,,,,,,,,,,,,,,,,,,,,,,,,,,,,,,,,,,,,,,,,,,,,,,,,,
"CZK 46,530","CZK 15,510",746227,2 bedroom,12/17/2022,48 m²,Fully furnished,2,,158.42,248.82,154.82,246.13,112.68,264.3,390.21,408.3,154.53,114.55,"Řásnovka, Prague - Staré Město",50.0918754,14.4250902,,,,,,,,,,,,,,,,,,,,,,,,,,,,,,,,,,,,,,,,,,,,,,,,,,,,,,,,,,,,,,,,,,,,,,,,,,,,,,,,,,,,,,,,,,,
"CZK 63,413","CZK 21,137",746226,3+kk,12/17/2022,62 m²,Fully furnished,3,1.0,2.22,191.43,20.53,48.07,1.19,48.35,128.16,305.9,208.92,259.31,"Dlouhá, Prague - Staré Město",50.0907943,14.427063,,,,,,,,,,,,,,,,,,,,,,,,,,,,,,,,,,,,,,,,,,,,,,,,,,,,,,,,,,,,,,,,,,,,,,,,,,,,,,,,,,,,,,,,,,,
"CZK 33,750","CZK 11,250",746225,2+kk,12/17/2022,75 m²,Fully furnished,6,1.0,163.79,319.88,110.55,226.38,103.86,407.78,227.16,243.22,785.75,360.1,"Na Zbořenci, Prague - Nové Město",50.0769346,14.4169603,1.0,1.0,,,,,,,,,,,,,,,,,,,,,,,,,,,,,,,,,,,,,,,,,,,,,,,,,,,,,,,,,,,,,,,,,,,,,,,,,,,,,,,,,,,,,,,,,
"CZK 32,400","CZK 10,800",746224,2 bedroom,12/17/2022,65 m²,Fully furnished,5,1.0,163.79,319.88,110.55,226.38,103.86,407.78,227.16,243.22,785.75,360.1,"Na Zbořenci, Prague - Nové Město",50.0769346,14.4169603,,,,,,,,,,,,,,,,,,,,,,,,,,,,,,,,,,,,,,,,,,,,,,,,,,,,,,,,,,,,,,,,,,,,,,,,,,,,,,,,,,,,,,,,,,,
"CZK 30,000","CZK 10,000",746223,2+kk,12/17/2022,67 m²,Fully furnished,2,1.0,190.62,1447.15,484.7,1260.45,182.11,737.34,559.67,596.72,660.13,404.95,"V Zahradách, Prague - Libeň",50.1148427,14.4750191,1.0,1.0,1.0,,,,,,,,,,,,,,,,,,,,,,,,,,,,,,,,,,,,,,,,,,,,,,,,,,,,,,,,,,,,,,,,,,,,,,,,,,,,,,,,,,,,,,,,
"CZK 16,000","CZK 3,000",746221,1 bedroom,10/17/2022,45 m²,Partly,2,1.0,201.57,585.57,47.99,684.45,193.71,421.51,363.76,267.7,337.41,532.05,"Novgorodská, Prague - Vršovice",50.06472,14.45098,,,,"CZK 50,000",G,Very good,Brick,Complete,1.0,1.0,1.0,1.0,,,,,,,,,,,,,,,,,,,,,,,,,,,,,,,,,,,,,,,,,,,,,,,,,,,,,,,,,,,,,,,,,,,,,,,,,,,,,,,
"CZK 32,000","CZK 6,000",744995,4+1,11/1/2022,100 m²,Unfurnished,1,,332.92,496.76,464.44,2244.27,482.91,368.22,126.22,1304.29,1307.45,476.97,"Navigátorů, Prague - Liboc",50.09243,14.31163,,,1.0,"CZK 50,000",G,Very good,Prefab concrete,Complete,,1.0,,,Central,Luxurious,Up to 10 years,1.0,1.0,,,,,,,,,,,,,,,,,,,,,,,,,,,,,,,,,,,,,,,,,,,,,,,,,,,,,,,,,,,,,,,,,,,,,,,,,,
"CZK 10,000","CZK 3,200",746183,1 bedroom,11/1/2022,40 m²,Partly,1,,406.87,1096.33,927.51,1352.1,312.3,1006.5,912.44,825.68,1362.83,482.14,"Pod Zemankou, Prague - Braník",50.03659,14.42348,,,,"CZK 22,000",G,Very good,Brick,,,,,,,,,,,,,,,,,,,,,,,,,,,,,,,,,,,,,,,,,,,,,,,,,,,,,,,,,,,,,,,,,,,,,,,,,,,,,,,,,,,,
"CZK 22,000",CZK 775,705074,2 bedroom,2/3/2022,84 m²,Partly,3,1.0,248.79,693.52,178.58,597.23,44.85,525.88,53.92,488.2,477.59,359.3,"Žateckých, Prague - Nusle",50.06199,14.43511,,,,"CZK 40,000",G,Very good,Brick,,,,,,,Standard,Over 50 years,,,Personal,1.0,,,,,,,,,,,,,,,,,,,,,,,,,,,,,,,,,,,,,,,,,,,,,,,,,,,,,,,,,,,,,,,,,,,,,,,,
"CZK 14,000","CZK 3,976",746156,1 bedroom,11/1/2022,47 m²,Fully furnished,4,1.0,110.03,88.69,318.49,1131.55,141.9,552.18,182.19,199.43,668.77,264.87,"Květnového vítězství, Prague - Chodov",50.03299,14.50354,,,,"CZK 28,000",G,Very good,Prefab concrete,Complete,,1.0,,1.0,Central,,,,,,,1.0,1.0,,,,,,,,,,,,,,,,,,,,,,,,,,,,,,,,,,,,,,,,,,,,,,,,,,,,,,,,,,,,,,,,,,,,,,
"CZK 13,600","CZK 6,900",746161,2 bedroom,11/14/2022,55 m²,Fully furnished,3,,166.79,356.9,9.17,99.93,77.53,187.58,193.16,303.32,290.35,421.51,Prague - Břevnov,50.08417,14.3687,,,,"CZK 40,000",E,Very good,Brick,,,,,,,,,,,,1.0,,,,,,,,,,,,,,,,,,,,,,,,,,,,,,,,,,,,,,,,,,,,,,,,,,,,,,,,,,,,,,,,,,,,,,,,
"CZK 19,000","CZK 3,000",746158,2+kk,10/17/2022,42 m²,Fully furnished,6,1.0,387.66,1161.08,368.36,1479.67,607.87,589.53,635.66,1274.38,419.38,636.25,"Ginzova, Prague - Záběhlice",50.05613,14.48895,,,1.0,"CZK 38,000",G,Very good,Brick,,,,,,,,,,,,1.0,,,,,,,,,,,,,,,,,,,,,,,,,,,,,,,,,,,,,,,,,,,,,,,,,,,,,,,,,,,,,,,,,,,,,,,,
"CZK 17,000","CZK 3,700",746149,2 bedroom,10/17/2022,56 m²,Fully furnished,2,,48.07,1392.6,13.55,1318.41,71.63,1492.74,349.48,275.79,515.7,616.65,Prague - Podolí,50.04694,14.41511,,,,"CZK 34,000",G,Very good,Brick,,,1.0,,,,,,,,,,,,,,,,,,,,,,,,,,,,,,,,,,,,,,,,,,,,,,,,,,,,,,,,,,,,,,,,,,,,,,,,,,,,,,,,,
"CZK 19,000","CZK 2,100",744982,2+kk,12/1/2022,56 m²,Fully furnished,5,,137.07,126.64,8.03,93.34,22.38,67.09,242.0,396.84,354.99,434.46,Prague - Žižkov,50.08438,14.45175,,,,"CZK 19,000",G,Very good,Brick,,,,1.0,,,,,,,,,,,,,,,,,,,,,,,,,,,,,,,,,,,,,,,,,,,,,,,,,,,,,,,,,,,,,,,,,,,,,,,,,,,,,,,,
"CZK 30,000","CZK 3,000",648470,4+1,11/1/2022,120 m²,Fully furnished,3,,249.63,641.92,222.88,284.81,115.39,374.62,669.49,474.73,460.19,340.99,"Vltavská, Prague - Smíchov",50.069819,14.407961,,,,"CZK 30,000",F,Very good,Other,Complete,,,,,Gas boiler,Standard,,,,Personal,,,,,,,,,,,,,,,,,,,,,,,,,,,,,,,,,,,,,,,,,,,,,,,,,,,,,,,,,,,,,,,,,,,,,,,,,
"CZK 18,750","CZK 6,250",742817,3+1,11/24/2022,90 m²,Fully furnished,2,1.0,82.8,397.93,96.94,404.98,135.48,353.78,131.46,217.55,654.74,661.34,"Blanická, Prague - Vinohrady",50.0746503,14.439294,,,,,,,,,,,,,,,,,,,,,,,,,,,,,,,,,,,,,,,,,,,,,,,,,,,,,,,,,,,,,,,,,,,,,,,,,,,,,,,,,,,,,,,,,,,
"CZK 11,453","CZK 3,817",745100,4+kk,11/21/2022,60 m²,Fully furnished,-1,,128.07,590.39,54.39,441.02,27.54,567.88,151.31,255.51,710.79,142.74,"Masarykovo nábřeží, Prague - Nové Město",50.0778219,14.4145055,,,,,,,,,,,,,,,,,,,,,,,,,,,,,,,,,,,,,,,,,,,,,,,,,,,,,,,,,,,,,,,,,,,,,,,,,,,,,,,,,,,,,,,,,,,
"CZK 12,500","CZK 3,000",746118,Studio,10/17/2022,35 m²,Fully furnished,2,,201.93,691.02,142.92,614.07,135.65,655.7,425.06,202.6,531.27,193.61,"Vondroušova, Prague - Řepy",50.06449,14.30157,,,,"CZK 25,000",G,Very good,Prefab concrete,,,1.0,1.0,,,,,,,,,,,,,,,,,,,,,,,,,,,,,,,,,,,,,,,,,,,,,,,,,,,,,,,,,,,,,,,,,,,,,,,,,,,,,,,,
"CZK 12,000","CZK 6,000",441084,2+kk,10/17/2022,40 m²,Partly,13,1.0,290.5,1478.11,6.35,1675.83,6.35,764.19,1025.9,1352.52,742.75,563.81,"Štúrova, Prague - Krč",50.0297479,14.4497107,,,,"CZK 20,000",C,Good,Prefab concrete,Complete,,,,,Central,Standard,30 - 50 years,,,Personal,,,,,,,,,,,,,,,,,,,,,,,,,,,,,,,,,,,,,,,,,,,,,,,,,,,,,,,,,,,,,,,,,,,,,,,,,
"CZK 35,000","CZK 7,000",746109,3+kk,10/17/2022,121 m²,Fully furnished,5,1.0,204.78,606.46,143.9,258.53,101.25,231.7,634.03,439.27,424.73,489.24,"Jindřicha Plachty, Prague - Smíchov",50.07062,14.40669,,,,"CZK 35,000",G,Very good,Brick,Complete,,1.0,,,,,,,,Personal,,,,1.0,,,,,,,,,,,,,,,,,,,,,,,,,,,,,,,,,,,,,,,,,,,,,,,,,,,,,,,,,,,,,,,,,,,,,
"CZK 19,294","CZK 3,057",744847,3+kk,11/1/2022,101 m²,,1,,293.66,1229.39,420.59,1471.88,1009.41,1190.94,1012.97,702.98,4411.5,1120.82,"Spojařů, Prague - Zbraslav",49.9649015,14.3959131,,,,"CZK 22,351",,Good,Other,,,,,,,,,,,Personal,,,,,"CZK 2,894",,,,,,,,,,,,,,,,,,,,,,,,,,,,,,,,,,,,,,,,,,,,,,,,,,,,,,,,,,,,,,,,,,,,
"CZK 20,300","CZK 1,000",743628,Studio,10/3/2022,33 m²,Partly,6,,314.25,1111.49,273.41,514.79,226.23,518.02,517.41,640.88,391.56,602.95,Prague - Nusle,50.05882,14.43473,,,,"CZK 60,000",B,Very good,Brick,,,,,,,,,,,,,,,,,1.0,,,,,,,,,,,,,,,,,,,,,,,,,,,,,,,,,,,,,,,,,,,,,,,,,,,,,,,,,,,,,,,,,,,
"CZK 29,900",CZK 740,238692,4+kk,7/22/2022,146 m²,Partly,3,,109.74,980.99,386.17,954.65,148.18,1005.58,631.08,500.51,373.2,376.53,"Hornoměcholupská, Prague - Hostivař",50.0521645,14.5301399,,,,"CZK 59,800",C,Good,Brick,Complete,,,,,,Standard,,,,Personal,,,,,,,1.0,,,,,,,,,,,,,,,,,,,,,,,,,,,,,,,,,,,,,,,,,,,,,,,,,,,,,,,,,,,,,,,,,,
"CZK 20,000","CZK 4,800",746089,3+kk,10/17/2022,45 m²,Fully furnished,2,1.0,159.4,322.07,148.98,275.16,173.97,209.67,101.95,673.74,157.65,551.83,"Umělecká, Prague - Holešovice",50.10187,14.428,,,,"CZK 20,000",G,Very good,Brick,,,1.0,,,,,,,,,,,,,,,,1.0,,,,,,,,,,,,,,,,,,,,,,,,,,,,,,,,,,,,,,,,,,,,,,,,,,,,,,,,,,,,,,,,,
"CZK 14,000","CZK 3,300",741848,2+kk,10/10/2022,38 m²,Unfurnished,19,1.0,122.96,512.95,144.57,811.18,323.7,71.33,239.39,721.53,271.07,155.23,Prague - Záběhlice,50.05717,14.49623,,,,"CZK 14,000",G,Very good,Prefab concrete,Complete,,,,,Central,,,,,,1.0,,,,,,,,,,,,,,,,,,,,,,,,,,,,,,,,,,,,,,,,,,,,,,,,,,,,,,,,,,,,,,,,,,,,,,,,
"CZK 25,000","CZK 5,000",744088,3+kk,10/15/2022,68 m²,Partly,1,,204.14,814.58,199.39,383.89,106.43,571.1,358.65,368.21,379.65,360.78,"Sevastopolská, Prague - Vršovice",50.07088,14.44827,,,,"CZK 25,000",G,New-build,Brick,Complete,,,,,,Standard,Up to 10 years,,,,,,,,,,,,,,,,,,,,,,,,,,,,,,,,,,,,,,,,,,,,,,,,,,,,,,,,,,,,,,,,,,,,,,,,,,,,
"CZK 19,000",CZK 880,746088,2 bedroom,11/1/2022,58 m²,Unfurnished,5,1.0,125.81,257.91,184.94,698.46,169.5,12.83,342.65,342.65,366.08,235.45,"Kubánské náměstí, Prague - Vršovice",50.07069,14.47921,,,,"CZK 38,000",G,Very good,Brick,,1.0,,,,,,,,,,,,,,,,,,,,,,,,,,,,,,,,,,,,,,,,,,,,,,,,,,,,,,,,,,,,,,,,,,,,,,,,,,,,,,,,,,
"CZK 29,925","CZK 9,975",742166,Studio,12/1/2022,30 m²,Fully furnished,3,1.0,210.86,390.29,319.5,985.86,301.65,338.01,858.33,290.45,385.77,539.9,"Strakonická, Prague - Smíchov",50.0643299,14.4102127,,,,,,,,,,,,,,,,,,,,,,,,,,,,,,,,,,,,,,,,,,,,,,,,,,,,,,,,,,,,,,,,,,,,,,,,,,,,,,,,,,,,,,,,,,,
"CZK 17,490","CZK 1,955",746083,2+kk,10/18/2022,50 m²,Partly,2,1.0,247.39,791.7,312.51,743.86,316.12,769.01,506.88,330.03,544.42,154.82,"Ruská, Prague - Vršovice",50.07286833333,14.46363333333,1.0,,,"CZK 19,445",G,Good,Brick,,,,,,,,,,,Personal,,,,,"CZK 19,445",,,,,,,,,,,,,,,,,,,,,,,,,,,,,,,,,,,,,,,,,,,,,,,,,,,,,,,,,,,,,,,,,,,,
"CZK 14,000","CZK 2,000",746078,2+kk,11/1/2022,42 m²,Unfurnished,4,,228.64,1876.49,1368.28,1869.15,1233.1,1326.77,570.45,1524.34,1211.79,139.44,"Pod Lysinami, Prague - Hodkovičky",50.02162,14.41277,,,,"CZK 14,000",G,Good,Prefab concrete,,,1.0,,,,,,,,,,,,,,,,,,,,,,,,,,,,,,,,,,,,,,,,,,,,,,,,,,,,,,,,,,,,,,,,,,,,,,,,,,,,,,,,,
"CZK 23,000",CZK 620,745359,3+kk,10/16/2022,78 m²,Partly,3,1.0,404.77,533.0,140.78,371.82,76.23,229.39,441.11,538.84,586.84,467.4,"Kubelíkova, Prague - Žižkov",50.08217,14.45096,,,,"CZK 40,000",G,Very good,Brick,,,,,1.0,,,,,,,,,,,,,,1.0,,,,,,,,,,,,,,,,,,,,,,,,,,,,,,,,,,,,,,,,,,,,,,,,,,,,,,,,,,,,,,,,,
"CZK 18,000","CZK 4,000",742782,2+kk,10/1/2022,42 m²,Partly,1,,148.42,116.82,25.63,88.26,53.08,75.51,129.1,638.15,62.46,332.41,Prague - Břevnov,50.08364,14.3644,,,,"CZK 30,000",G,Good,Brick,,,,,,,,,,,,,,,,,,,,,,,,,,,,,,,,,,,,,,,,,,,,,,,,,,,,,,,,,,,,,,,,,,,,,,,,,,,,,,,,,,,,
"CZK 19,500","CZK 4,500",746014,2+kk,10/17/2022,45 m²,Partly,6,1.0,427.51,1472.11,453.04,988.01,361.53,898.87,185.03,696.49,949.4,391.56,Prague - Karlín,50.0942,14.4649,,,,"CZK 19,000",C,Very good,Prefab concrete,,,,,,,,,,,,,,,,,,,,,,,,,,,,,,,,,,,,,,,,,,,,,,,,,,,,,,,,,,,,,,,,,,,,,,,,,,,,,,,,,,,,
"CZK 13,500","CZK 4,500",746001,2+kk,10/17/2022,44 m²,Partly,1,,223.57,2279.54,323.22,2175.41,503.41,1310.82,1305.61,638.96,773.0,560.63,Prague - Břevnov,50.07573,14.32772,,,,"CZK 18,000",G,Very good,Brick,,,1.0,,,,,,,,,,,,,,,,,1.0,,,,,,,,,,,,,,,,,,,,,,,,,,,,,,,,,,,,,,,,,,,,,,,,,,,,,,,,,,,,,,,,
"CZK 8,490","CZK 2,500",423838,3+1,11/30/2022,15 m²,Fully furnished,8,1.0,233.92,627.15,488.43,1660.14,159.48,960.96,649.4,1058.18,566.02,238.57,"Sládkovičova, Prague - Krč",50.0225909,14.4534508,,,,"CZK 10,990",,Very good,Prefab concrete,Complete,,1.0,,,Distance,,,,,Personal,,,,,,,,,,1.0,,,,,,,,,,,,,,,,,,,,,,,,,,,,,,,,,,,,,,,,,,,,,,,,,,,,,,,,,,,,,,,
"CZK 14,471","CZK 2,500",745972,Studio,11/15/2022,30 m²,Partly,1,1.0,221.42,809.68,192.03,1317.91,240.49,750.22,307.21,295.54,343.39,117.33,"Schulhoffova, Prague - Háje",50.0369,14.51675,,,,"CZK 60,000",C,Good,Prefab concrete,,,,,,,,,,,,,,,,,,,,,,,,,,,,,,,,,,,,,,,,,,,,,,,,,,,,,,,,,,,,,,,,,,,,,,,,,,,,,,,,,,,,
"CZK 35,000","CZK 8,200",665597,4+kk,12/1/2022,105 m²,Partly,2,1.0,396.01,549.44,157.22,388.26,59.79,212.95,448.07,522.4,570.4,483.84,"Kubelíkova, Prague - Žižkov",50.08216,14.45073,,,,"CZK 50,000",G,Very good,Brick,,,,,,,,,,,Personal,,,,,,,,,1.0,,,,,,,,,,,,,,,,,,,,,,,,,,,,,,,,,,,,,,,,,,,,,,,,,,,,,,,,,,,,,,,,
"CZK 24,500","CZK 5,000",579807,2+kk,11/1/2022,67 m²,Partly,5,1.0,306.14,376.82,138.91,373.56,88.24,308.14,221.01,289.75,593.17,265.22,"Blodkova, Prague - Žižkov",50.079875,14.449475,,,,"CZK 24,500",C,Very good,Brick,,,,,,,,,,,Personal,,,,,,,,,,,1.0,,,,,,,,,,,,,,,,,,,,,,,,,,,,,,,,,,,,,,,,,,,,,,,,,,,,,,,,,,,,,,
"CZK 14,000","CZK 4,115",745907,2+kk,10/17/2022,44 m²,Partly,2,,257.32,1255.61,460.68,1112.59,374.46,794.82,647.98,135.15,1255.42,360.37,Prague - Strašnice,50.07473,14.50805,,,,"CZK 60,000",B,New-build,Brick,,,,,1.0,,,,,,,,,,,,,,,,,,,,,,,,,,,,,,,,,,,,,,,,,,,,,,,,,,,,,,,,,,,,,,,,,,,,,,,,,,,,,,,
"CZK 8,600",CZK 0,222887,4+1,10/28/2022,9 m²,Partly,7,1.0,453.77,838.0,504.64,772.83,444.74,814.92,390.42,333.34,3134.0,113.22,"U Pentlovky, Prague - Troja",50.1280662,14.4074461,,,,"CZK 8,600",A,Very good,Prefab concrete,Complete,,1.0,,,Distance,,,,,Personal,,,,,,,,,,,,,,,,,,,,,,,,,,,,,,,,,,,,,,,,,,,,,,,,,,,,,,,,,,,,,,,,,,,,,,,,,
"CZK 19,412","CZK 1,000",745837,2 bedroom,10/17/2022,52 m²,Fully furnished,2,,85.16,666.66,64.57,407.16,72.3,289.11,388.51,341.65,231.16,308.82,Prague - Žižkov,50.09256,14.48232,,,,"CZK 60,000",C,Good,Brick,,,,,,,,,,,,,,,,,,,,,,,,,,,,,,,,,,,,,,,,,,,,,,,,,,,,,,,,,,,,,,,,,,,,,,,,,,,,,,,,,,,,
"CZK 21,000",CZK 700,745818,2+kk,10/17/2022,47 m²,Fully furnished,4,1.0,113.11,379.86,71.41,241.99,45.66,98.49,295.44,275.59,558.97,269.92,"Korunní, Prague - Vinohrady",50.0755,14.45124,,,,"CZK 42,000",G,New-build,Brick,,,,,,,,,,,,,,,,,,,,,,,,,,,,,,,,,,,,,,,,,,,,,,,,,,,,,,,,,,,,,,,,,,,,,,,,,,,,,,,,,,,,
"CZK 20,000","CZK 6,740",684626,3+kk,10/31/2022,65 m²,Unfurnished,3,1.0,330.5,1110.43,257.15,531.04,209.97,520.02,501.16,657.13,407.81,601.89,"5. května, Prague - Nusle",50.05893,14.43458,,,,"CZK 20,000",G,Very good,Brick,Complete,,,,,Electric boiler,Standard,,,,Cooperative,,,,,,,,,,,,1.0,,,,,,,,,,,,,,,,,,,,,,,,,,,,,,,,,,,,,,,,,,,,,,,,,,,,,,,,,,,,,
"CZK 14,000","CZK 4,800",745812,1 bedroom,10/17/2022,36 m²,Partly,4,,111.65,608.86,74.16,512.01,358.21,419.05,256.16,331.17,552.81,125.13,Prague - Vršovice,50.07329,14.47054,,,,"CZK 28,000",G,Very good,Brick,,,,,,,,,,,,,,,,,,,,,,,,1.0,,,,,,,,,,,,,,,,,,,,,,,,,,,,,,,,,,,,,,,,,,,,,,,,,,,,,,,,,,,,
"CZK 21,000",CZK 800,552114,2 bedroom,12/1/2022,75 m²,Partly,2,,278.53,1180.67,194.4,221.24,89.96,237.86,173.72,473.66,408.03,174.63,"Neklanova, Prague - Vyšehrad",50.0669126,14.4200506,,,,"CZK 30,000",,Good,Brick,Complete,,,,,Gas boiler,Luxurious,,,,Personal,,,,,,,,,,,,,,,,,,,,,,,,,,,,,,,,,,,,,,,,,,,,,,,,,,,,,,,,,,,,,,,,,,,,,,,,,
"CZK 16,990","CZK 4,074",745810,2 bedroom,10/18/2022,58 m²,Partly,4,1.0,411.69,553.69,396.58,541.0,401.84,631.23,689.73,642.13,716.32,150.77,"Želivecká, Prague - Záběhlice",50.06069972222,14.49897416666,1.0,,,"CZK 21,064",C,Very good,Prefab concrete,,,,,,,,,,,Cooperative,,,,,"CZK 21,064",,1.0,,,,,,,,,,,,,,,,,,,,,,,,,,,,,,,,,,,,,,,,,,,,,,,,,,,,,,,,,,,,,,,,,,
"CZK 21,990","CZK 2,415",745809,2+kk,10/17/2022,49 m²,Fully furnished,1,1.0,142.21,463.87,155.81,203.1,48.09,135.41,281.24,218.91,604.62,102.8,"Pod Kavalírkou, Prague - Košíře",50.06930833333,14.37020805555,,,,"CZK 24,405",C,Very good,Other,,,1.0,,,,,,,,Personal,,,,,"CZK 24,405",,,,,,,,,,,,,,,,,,,,,,,,,,,,,,,,,,,,,,,,,,,,,,,,,,,,,,,,,,,,,,,,,,,,
"CZK 15,000","CZK 3,850",745803,2+kk,10/18/2022,72 m²,Unfurnished,1,,31.2,247.86,1450.09,1804.27,65.48,268.27,148.08,546.81,293.61,295.38,Prague - Řeporyje,50.03312,14.31185,,,,"CZK 30,770",G,Very good,Brick,,,1.0,,,,,,,,,,,,,,,,,,,,,,,,,,,,,,,,,,,,,,,,,,,,,,,,,,,,,,,,,,,,,,,,,,,,,,,,,,,,,,,,,
"CZK 20,000","CZK 4,500",366896,2+kk,11/6/2022,60 m²,Fully furnished,3,,73.21,966.72,206.7,778.71,680.46,199.26,628.92,627.32,1164.71,545.15,"Hornoměcholupská, Prague - Horní Měcholupy",50.0433026,14.5670631,,,,"CZK 25,000",,New-build,Brick,,,,,,Central,Standard,Up to 10 years,,,Personal,,,,,,,,,,,,,,1.0,,,,,,,,,,,,,,,,,,,,,,,,,,,,,,,,,,,,,,,,,,,,,,,,,,,,,,,,,,,
"CZK 19,000","CZK 1,873",745800,2+kk,11/1/2022,45 m²,Partly,1,,115.05,748.64,111.95,447.83,83.15,310.97,261.84,1039.25,361.49,358.16,"Petra Slezáka, Prague - Karlín",50.09445,14.45703,,,,"CZK 20,873",C,Very good,Brick,,,1.0,,,,,,,,,,,,,,,,,,,,,,,1.0,,,,,,,,,,,,,,,,,,,,,,,,,,,,,,,,,,,,,,,,,,,,,,,,,,,,,,,,,,
"CZK 25,000","CZK 4,800",712844,3+kk,1/31/2023,102 m²,Partly,1,,254.65,1258.13,273.94,1199.72,286.54,700.92,476.27,882.36,518.5,332.22,"Záběhlická, Prague - Záběhlice",50.05301,14.49077,,,,"CZK 25,000",,Very good,Brick,,,,,,,,,,,Personal,,,,,,,,,,,,,,,,1.0,,,,,,,,,,,,,,,,,,,,,,,,,,,,,,,,,,,,,,,,,,,,,,,,,,,,,,,,,
"CZK 46,125","CZK 15,375",745690,3+1,10/19/2022,85 m²,Fully furnished,6,,454.17,745.98,361.06,472.33,313.02,651.07,424.33,459.82,510.94,766.36,"Řehořova, Prague - Žižkov",50.0861948,14.4437541,1.0,1.0,,,,,,,,,,,,,,,,,,,,,,,,,,,,,,,,,,,,,,,,,,,,,,,,,,,,,,,,,,,,,,,,,,,,,,,,,,,,,,,,,,,,,,,,,
"CZK 15,000","CZK 5,400",745544,2+kk,10/17/2022,43 m²,Partly,2,,176.34,674.99,417.01,205.28,85.29,1248.24,318.39,749.39,642.97,393.87,Prague - Michle,50.05661,14.44928,,,,"CZK 20,400",G,Very good,Brick,,,,,,,,,,,,,,,,,,,,,,,,,,,,1.0,1.0,,,,,,,,,,,,,,,,,,,,,,,,,,,,,,,,,,,,,,,,,,,,,,,,,,,,,,,
"CZK 25,000","CZK 3,700",745532,3+kk,10/17/2022,65 m²,Unfurnished,3,,360.72,636.62,344.12,565.83,199.44,644.55,300.07,164.26,302.52,165.34,"Krokova, Prague - Nusle",50.06266,14.42477,,,,"CZK 50,000",C,Very good,Brick,Complete,,,,,Electric boiler,Luxurious,Over 50 years,,1.0,Personal,,,,,,,,,,,,,,,,,,,,,,,,,,,,,,,,,,,,,,,,,,,,,,,,,,,,,,,,,,,,,,,,,,,,,,,,,
"CZK 29,175","CZK 9,725",745541,Studio,10/31/2022,30 m²,Fully furnished,2,1.0,210.86,390.29,319.5,985.86,301.65,338.01,858.33,290.45,385.77,539.9,"Strakonická, Prague - Smíchov",50.0643299,14.4102127,,,,,,,,,,,,,,,,,,,,,,,,,,,,,,,,,,,,,,,,,,,,,,,,,,,,,,,,,,,,,,,,,,,,,,,,,,,,,,,,,,,,,,,,,,,
"CZK 28,425","CZK 9,475",742158,Studio,12/1/2022,30 m²,Fully furnished,2,1.0,210.86,390.29,319.5,985.86,301.65,338.01,858.33,290.45,385.77,539.9,"Strakonická, Prague - Smíchov",50.0643299,14.4102127,,,,,,,,,,,,,,,,,,,,,,,,,,,,,,,,,,,,,,,,,,,,,,,,,,,,,,,,,,,,,,,,,,,,,,,,,,,,,,,,,,,,,,,,,,,
"CZK 36,000","CZK 12,000",745540,2 bedroom,10/19/2022,50 m²,Fully furnished,-1,,210.86,390.29,319.5,985.86,301.65,338.01,858.33,290.45,385.77,539.9,"Strakonická, Prague - Smíchov",50.0643299,14.4102127,,,,,,,,,,,,,,,,,,,,,,,,,,,,,,,,,,,,,,,,,,,,,,,,,,,,,,,,,,,,,,,,,,,,,,,,,,,,,,,,,,,,,,,,,,,
"CZK 5,000","CZK 1,000",745539,2 bedroom,10/17/2022,50 m²,Fully furnished,1,1.0,342.7,694.13,230.86,635.72,489.4,1506.4,335.97,897.33,1236.11,508.78,"Malovická, Prague - Záběhlice",50.04675,14.4941,,,,"CZK 5,000",D,Good,Brick,,,,,,,,,,,,,,,,,,,,,,,,,,,,,,,,,,,,,,,,,,,,,,,,,,,,,,,,,,,,,,,,,,,,,,,,,,,,,,,,,,,,
"CZK 20,000","CZK 3,900",744919,2+kk,12/1/2022,68 m²,Fully furnished,1,,189.54,200.34,81.95,324.1,65.33,303.75,312.39,405.58,519.29,209.1,"Semanského, Prague - Uhříněves",50.02976745,14.5999606,,,,"CZK 20,000",A,New-build,Brick,,,,,1.0,,,,,,,,,,,,,,,,,,,,,,,,1.0,,,,,,,,,,,,,,,,,,,,,,,,,,,,,,,,,,,,,,,,,,,,,,,,,,,,,,,
"CZK 33,000","CZK 5,500",743813,3+kk,11/1/2022,94 m²,Fully furnished,2,,255.31,280.06,351.49,1432.77,369.76,1267.71,541.92,878.1,811.36,195.9,"Ondrákové, Prague - Hlubočepy",50.02841,14.36164,,,,"CZK 66,000",G,New-build,Other,,,,,,,,,,,,,,,,,,,,,,,,,,,,,,1.0,,,,,,,,,,,,,,,,,,,,,,,,,,,,,,,,,,,,,,,,,,,,,,,,,,,,,,
"CZK 16,000","CZK 4,000",245888,1 bedroom,10/7/2022,55 m²,Partly,4,,45.98,978.91,672.51,1185.68,627.39,695.56,691.6,465.42,548.01,170.53,"Nad Popelkou, Prague - Smíchov",50.0684978,14.3880015,,1.0,,"CZK 32,000",,Very good,Brick,,,,,1.0,,,10 to 30 years,,,Personal,,,,,,,,,,,,,,,,,,,,1.0,,,,,,,,,,,,,,,,,,,,,,,,,,,,,,,,,,,,,,,,,,,,,,,,,,,,,
"CZK 20,000","CZK 3,800",727511,2+kk,12/1/2022,50 m²,Fully furnished,1,1.0,546.64,1754.03,472.39,2128.12,684.19,1207.91,1919.23,2714.94,629.65,219.84,Prague - Hostavice,50.08387,14.56249,1.0,,1.0,"CZK 60,000",B,New-build,Brick,,,1.0,,,Central,Standard,Up to 10 years,,,Personal,,,,,,,1.0,,,,,,,,,,,1.0,,,,,,,,,,,,,,,,,,,,,,,,,,,,,,,,,,,,,,,,,,,,,,,,,,,,,,,
"CZK 12,900","CZK 2,900",639046,Studio,10/17/2022,18 m²,Partly,2,,362.81,259.2,126.77,286.13,118.18,279.99,159.44,215.84,295.88,466.72,"Vlkova, Prague - Žižkov",50.083992,14.448523,,,,"CZK 15,000",A,Very good,Brick,Complete,,,,,Central,Luxurious,Up to 10 years,,,Personal,,,,,,,,,,,,,,,,,,,,,,,,,,,,,,,,,,,,,,,,,,,,,,,,,,,,,,,,,,,,,,,,,,,,,,,,,
"CZK 26,000","CZK 5,000",731753,3+kk,10/1/2022,62 m²,Partly,9,1.0,282.04,976.86,137.68,1624.39,519.38,742.9,629.66,1257.83,99.38,73.97,Prague - Krč,50.02579,14.4531,,,,"CZK 40,000",B,New-build,Prefab concrete,Complete,,,,,Central,Luxurious,30 - 50 years,,,Personal,,,,,,,,,,,,,,,,,,,,,1.0,,,,,,,,,,,,,,,,,,,,,,,,,,,,,,,,,,,,,,,,,,,,,,,,,,,,
"CZK 25,000","CZK 4,000",745512,3+1,10/28/2022,85 m²,Fully furnished,2,,154.46,1523.49,59.59,1034.62,192.1,603.03,389.21,803.33,568.83,252.78,"Konšelská, Prague - Libeň",50.11324,14.47492,,,,"CZK 50,000",G,Very good,Brick,Complete,,1.0,,,,,,,,,,,,,,,,1.0,,,,,,,,,,,,,,1.0,,,,,,,,,,,,,,,,,,,,,,,,,,,,,,,,,,,,,,,,,,,,,,,,,,,
"CZK 30,000","CZK 5,000",662954,3+1,11/1/2022,99 m²,Partly,4,1.0,201.79,425.93,209.49,301.26,39.52,321.85,252.21,275.31,673.42,284.4,"Drtinova, Prague - Smíchov",50.07781,14.40239,,,,"CZK 45,000",G,Very good,Brick,,,,,,Central,,,,,Personal,1.0,,,,,,,,1.0,,,,,,,,,,,,,,,,,,,,,,,,,,,,,,,,,,,,,,,,,,,,,,,,,,,,,,,,,,,,,,,,
"CZK 23,500",CZK 1,628107,2 bedroom,11/1/2022,75 m²,Unfurnished,,,263.35,662.51,285.16,512.72,95.79,559.0,458.01,393.4,433.16,264.32,Prague - Žižkov,50.088777,14.486709,,,,"CZK 23,000",G,,Brick,Interior,,,,,Electric boiler,Standard,,,,Municipal,,,,,,,,,,,,,,,,,,,,,,,,,,,,,,,,,,,,,,,,,,,,,,,,,,,,,,,,,,,,,,,,,,,,,,,,,
"CZK 13,500","CZK 3,000",745463,Studio,10/30/2022,46 m²,Partly,1,,213.99,1986.46,1149.13,1745.32,274.72,1392.97,840.78,1454.11,1140.96,762.91,"Mezi Vodami, Prague - Modřany",50.01425,14.40083,,,,"CZK 27,000",G,New-build,Brick,,,,,,,,,,,,,,1.0,,,,,,,,,,,,,,,,,,,,,,,,,,,,,,,,,,,,,,,,,,,,,,,,,,,,,,,,,,,,,,,,,,,,,,
"CZK 15,500","CZK 4,000",745292,Studio,10/16/2022,30 m²,Fully furnished,5,1.0,252.19,714.64,287.33,514.08,274.05,458.06,599.59,549.38,683.85,642.21,"U Křížku, Prague - Nusle",50.06296,14.44795,,,,"CZK 19,500",G,Good,Brick,,,1.0,,,,,,,,,,,,,,,,,,,,,,,,,,,,,,,,,,,,,,,,,,,,,,,,,,,,,,,,,,,,,,,,,,,,,,,,,,,,,,,,,
"CZK 29,000","CZK 7,000",531337,4+kk,11/15/2022,99 m²,Partly,1,1.0,409.28,912.83,374.07,1181.86,534.31,330.36,383.6,681.95,1247.73,308.1,"Učňovská, Prague - Hrdlořezy",50.0934671,14.5034678,,,,"CZK 58,000",B,Very good,Other,,,1.0,,,Distance,,,,,Personal,,,,,,,,1.0,,,,,,,,,,,,1.0,,,,,,,,,,,,,,,,,,,,,,,,,,,,,,,,,,,,,,,,,,,,,,,,,,,,,
"CZK 18,000","CZK 4,000",490306,2+kk,11/2/2022,53 m²,Fully furnished,5,,291.65,796.5,495.73,3725.65,636.29,1418.98,891.55,,1980.85,423.03,Prague - Čakovice,50.1578335,14.5233121,,,,"CZK 30,000",C,,Brick,,,,,,,,,,,Personal,,,,,,,,,,,,,,,,,,,,,,,1.0,,,,,,,,,,,,,,,,,,,,,,,,,,,,,,,,,,,,,,,,,,,,,,,,,,
"CZK 21,700","CZK 4,720",330840,2+kk,10/1/2022,60 m²,Partly,3,1.0,148.81,907.42,172.42,579.26,88.62,145.14,389.11,363.95,541.83,409.53,"Křížkovského, Prague - Žižkov",50.0811205,14.4474401,,,,"CZK 25,000",A,Very good,Brick,Complete,,,,,Electric boiler,Standard,,,,Personal,,,,,,,1.0,,,,,,,,,,,,,,,,,,,,,,,,,,,,,,,,,,,,,,,,,,,,,,,,,,,,,,,,,,,,,,,,,,
"CZK 19,500","CZK 5,500",113106,3+1,10/17/2022,67 m²,Partly,3,1.0,299.51,843.13,468.88,1338.51,305.13,509.6,412.22,353.89,751.15,608.87,"U Zahradního Města, Prague - Záběhlice",50.0538919,14.4972997,1.0,,,"CZK 40,000",,Very good,Brick,,,1.0,,,Central,Standard,10 to 30 years,,,Personal,,,,,,,,,,,,,,,,,,,,,,,,1.0,,,,,,,,,,,,,,,,,,,,,,,,,,,,,,,,,,,,,,,,,,,,,,,,,
"CZK 18,000","CZK 3,000",744895,2+kk,11/14/2022,65 m²,Partly,2,,270.35,1161.75,1023.82,1007.47,362.27,1074.42,985.51,1424.06,1107.39,416.45,"Hošťálkova, Prague - Břevnov",50.08034,14.35592,,,,"CZK 18,000",G,Very good,Brick,,,1.0,,,,,,,,,,,,,,,,,,,,,,,,,,,,,,,,,1.0,,,,,,,,,,,,,,,,,,,,,,,,,,,,,,,,,,,,,,,,,,,,,,,,
"CZK 16,990","CZK 3,000",745442,1 bedroom,10/24/2022,37 m²,Partly,4,,73.13,649.66,191.22,1162.14,190.47,124.32,919.62,725.78,818.98,527.72,"Na Neklance, Prague - Smíchov",50.06122,14.40449,,,,"CZK 17,000",G,Very good,Low-energy,,,1.0,,1.0,,,,,,,,,,,,,,,,,,,,,,,,,,,,,,,,,,,,,,,,,,,,,,,,,,,,,,,,,,,,,,,,,,,,,,,,,,,,,,,
"CZK 21,500","CZK 1,000",744718,2+kk,10/11/2022,50 m²,Partly,3,,299.73,255.56,29.01,237.7,122.66,276.35,352.57,377.19,425.19,589.35,"Bořivojova, Prague - Žižkov",50.08341,14.45016,,,,"CZK 25,000",G,Very good,Brick,,,,1.0,,,,,,,,,,,,,,,,,,,,,,,,,,,,,,,,,,,,,,,,,,,,,,,,,,,,,,,,,,,,,,,,,,,,,,,,,,,,,,,,
"CZK 20,000","CZK 5,000",745427,2+kk,10/17/2022,52 m²,Partly,1,,601.47,1824.39,542.75,2213.16,769.22,1278.27,1989.59,2799.97,714.69,128.87,"U Hostavického potoka, Prague - Hostavice",50.08316,14.56227,,,,"CZK 40,000",B,New-build,Brick,,,1.0,,,,,,,,,,,,,,,,,,,,,,,,,,,,,,,,,,,,,,,,,,,,,,,,,,,,,,,,,,,,,,,,,,,,,,,,,,,,,,,,,
"CZK 17,600","CZK 3,244",745428,2+kk,11/1/2022,60 m²,Unfurnished,2,1.0,258.95,481.82,339.65,786.74,688.56,702.0,396.77,476.55,606.66,284.35,"Nad přehradou, Prague - Horní Měcholupy",50.04203,14.54986,,,,"CZK 43,688",C,New-build,Brick,,,1.0,,,Central,Luxurious,Up to 10 years,,,Personal,,,,,,,,,,,,,,,,,,1.0,,1.0,,,,,,,,,,,,,,,,,,,,,,,,,,,,,,,,,,,,,,,,,,,,,,,,,,,,,
"CZK 17,852","CZK 5,148",497125,2+kk,1/24/2021,55 m²,Fully furnished,1,1.0,289.31,1030.71,185.29,875.56,580.15,1000.2,374.44,2240.15,1249.45,201.42,"Sazovická, Prague - Zličín",50.0570157,14.2807456,1.0,,,"CZK 23,000",,New-build,Brick,,,1.0,,,Central,,Up to 10 years,,,Personal,,,,,,,,,,,,,,,,,,1.0,,,,,,,,,,,,,,,,,,,,,,,,,,,,,,,,,,,,,,,,,,,,,,,,,,,,,,,
"CZK 15,000","CZK 5,700",745423,2+kk,10/17/2022,50 m²,Fully furnished,2,,170.17,1331.31,235.88,524.55,177.99,210.9,532.56,369.39,754.76,240.87,"Čimická, Prague - Kobylisy",50.12578,14.44526,,,,"CZK 15,000",G,Very good,Brick,,,,,,,,,,,,,,,,,,,,,,,,,,,,,,,,,,,,,,,,,,,,,,,,,,,,,,,,,,,,,,,,,,,,,,,,,,,,,,,,,,,,
"CZK 16,990","CZK 2,800",729925,1 bedroom,10/18/2022,33 m²,Fully furnished,5,1.0,246.02,277.02,61.01,221.81,18.59,182.1,48.85,265.69,84.3,563.81,"Štítného, Prague - Žižkov",50.0853298,14.4497431,,,,"CZK 30,000",B,Very good,Brick,Complete,,,,,Central,Standard,Up to 10 years,,,Personal,,,,,,,,,,,,,,,,,,,,,,,,,,,,,,,,,,,,,,,,,,,,,,,,,,,,,,,,,,,,,,,,,,,,,,,,,
"CZK 13,900","CZK 3,400",745374,Studio,10/24/2022,38 m²,Partly,,1.0,223.25,1536.72,232.47,2012.57,567.81,990.6,1701.92,2410.26,552.66,133.04,"U Hostavického potoka, Prague - Hostavice",50.08617,14.56353,,,,"CZK 20,000",G,New-build,Brick,,,1.0,,1.0,,,,,,,,,,,,,,,,,,,,,,,,,,,,,,,,,,,,,,,,,,,,,,,,,,,,,,,,,,,,,,,,,,,,,,,,,,,,,,,
"CZK 14,000","CZK 2,300",745250,Studio,10/15/2022,40 m²,Partly,1,,378.93,951.45,269.95,786.53,428.13,920.27,279.63,122.79,839.47,361.04,"Zdařilá, Prague - Nusle",50.05516,14.44648,,,,"CZK 20,000",G,Very good,Brick,,,,,,,,,,,,,,,,,,,,,,,,,,,,,,,,,,,,,,,,,,,,,,,,,,,,,,,,,,,,,,,,,,,,,,,,,,,,,,,,,,,,
"CZK 13,500","CZK 2,001",536863,Studio,,35 m²,Fully furnished,1,1.0,214.22,314.17,135.02,121.8,175.65,44.61,576.56,803.19,884.59,129.03,"Soukalova, Prague - Modřany",50.0063321,14.4147313,,,,"CZK 30,000",B,New-build,Low-energy,,,1.0,1.0,,Central,Luxurious,Up to 10 years,,,Personal,,,,,,,,,,,,,,,,,,1.0,,,,,,,,,,,,,,,,,,,,,,,,,,,,,,,,,,,,,,,,,,,,,,,,,,,,,,,
"CZK 22,000","CZK 6,000",745387,2+kk,11/1/2022,70 m²,Partly,1,1.0,548.51,958.65,209.76,813.47,342.04,407.39,376.28,213.4,415.34,74.61,"K Červenému vrchu, Prague - Vokovice",50.09736,14.34976,,,1.0,"CZK 22,000",C,New-build,Other,,,,,,,,,,,,,,,,,,,,1.0,,,,,,,,,1.0,,,1.0,,,,,,,,,,,,,,,,,,,,,,,,,,,,,,,,,,,,,,,,,,,,,,,,,,,,
"CZK 15,000","CZK 3,500",745365,2+kk,10/16/2022,43 m²,Partly,7,1.0,26.14,587.47,436.0,556.42,499.93,230.47,344.18,278.7,958.74,190.58,"Skuteckého, Prague - Řepy",50.06833,14.31078,,,,"CZK 30,000",G,Very good,Prefab concrete,,,1.0,,,,,,,,,,,,,,,,1.0,,,,,,,,,,,,,,,,,,,,,,,,,,,,,,,,,,,,,,,,,,,,,,,,,,,,,,,,,,,,,,,,,
"CZK 48,500",CZK 0,400077,3+1,1/1/2023,109 m²,Partly,2,1.0,217.76,598.71,265.89,684.2,336.87,315.43,399.12,752.22,653.7,484.73,"Talichova, Prague - Břevnov",50.0879235,14.3636788,1.0,,,"CZK 50,000",C,,Brick,,,,,,Central,,,,,Personal,,,,,,,,,,,,,,,1.0,,,,,,,,,,,,,,,,,,,,,,,,,,,,,,,,,,,,,,,,,,,,,,,,,,,,,,,,,,
"CZK 14,500","CZK 2,800",641544,Studio,10/11/2022,42 m²,Fully furnished,2,1.0,194.58,933.3,144.82,317.4,55.98,297.42,383.1,586.19,351.14,15.64,"Kurta Konráda, Prague - Libeň",50.104841,14.488342,,,,CZK 0,B,New-build,Brick,Complete,,1.0,,,Central,,Up to 10 years,,,Personal,,,,,,,,1.0,,,,,,,,,,1.0,,,,,,,,,,,,,,,,,,,,,,,,,,,,,,,,,,,,,,,,,,,,,,,,,,,,,,,
"CZK 22,125","CZK 7,375",743334,1 bedroom,12/1/2022,54 m²,Fully furnished,2,1.0,256.43,673.8,672.43,1344.08,205.23,475.07,299.92,396.69,376.69,229.89,"Slévačská, Prague - Hloubětín",50.1044601,14.5518792,,,,,,,,,,,,,,,,,,,,,,,,,,,,,,,,,,,,,,,,,,,,,,,,,,,,,,,,,,,,,,,,,,,,,,,,,,,,,,,,,,,,,,,,,,,
"CZK 21,038","CZK 7,012",744323,Studio,12/6/2022,35 m²,Fully furnished,2,1.0,233.1,571.46,103.21,275.27,139.29,314.88,470.1,600.61,643.99,585.85,"Mojmírova, Prague - Nusle",50.0630016,14.4450348,,,,,,,,,,,,,,,,,,,,,,,,,,,,,,,,,,,,,,,,,,,,,,,,,,,,,,,,,,,,,,,,,,,,,,,,,,,,,,,,,,,,,,,,,,,
"CZK 9,800","CZK 3,500",149899,Small studio,10/15/2022,24 m²,Fully furnished,1,,127.07,889.48,116.87,1145.86,239.3,291.56,433.86,506.63,1350.35,282.77,"Holečkova, Prague - Košíře",50.0719037,14.3863529,,,,"CZK 15,000",,Good,Brick,Interior,,,,,Gas boiler,Standard,Over 50 years,,,Personal,,,,,,,,,,,,,,,,,,,,,,,,,,,,,,,,,,,,,,,,,,,,,,,,,,,,,,,,,,,,,,,,,,,,,,,,,
"CZK 34,898","CZK 11,632",744188,2 bedroom,12/5/2022,90 m²,Fully furnished,4,1.0,82.8,397.93,96.94,404.98,135.48,353.78,131.46,217.55,654.74,661.34,"Blanická, Prague - Vinohrady",50.0746503,14.439294,,,,,,,,,,,,,,,,,,,,,,,,,,,,,,,,,,,,,,,,,,,,,,,,,,,,,,,,,,,,,,,,,,,,,,,,,,,,,,,,,,,,,,,,,,,
"CZK 22,500","CZK 7,500",744187,2 bedroom,12/5/2022,42 m²,Fully furnished,3,1.0,152.25,672.65,40.42,444.62,81.03,447.64,262.25,308.06,547.1,276.36,"Slovinská, Prague - Vršovice",50.0716124,14.4594622,,,,,,,,,,,,,,,,,,,,,,,,,,,,,,,,,,,,,,,,,,,,,,,,,,,,,,,,,,,,,,,,,,,,,,,,,,,,,,,,,,,,,,,,,,,
"CZK 19,000","CZK 5,300",744776,2+kk,11/1/2022,39 m²,Fully furnished,2,,300.5,842.66,278.44,534.66,180.17,287.1,384.77,564.6,438.23,490.5,"Šlikova, Prague - Břevnov",50.08336,14.37407,,,,"CZK 30,000",G,Very good,Brick,,,1.0,,,,,,,,,,,,,,,,,,,,,,,,,,,,,,,,,,,,,,,,,,,,,,,,,,,,,,,,,,,,,,,,,,,,,,,,,,,,,,,,,
"CZK 20,175","CZK 6,725",744561,Studio,12/9/2022,33 m²,Fully furnished,2,1.0,103.76,101.45,145.18,163.35,18.04,250.43,455.25,533.02,419.63,148.07,"Sokolovská, Prague - Karlín",50.0933405,14.449225,,,,,,,,,,,,,,,,,,,,,,,,,,,,,,,,,,,,,,,,,,,,,,,,,,,,,,,,,,,,,,,,,,,,,,,,,,,,,,,,,,,,,,,,,,,
"CZK 19,725","CZK 6,575",745390,2 bedroom,12/16/2022,90 m²,Fully furnished,6,1.0,73.01,281.28,58.33,478.54,20.37,379.07,102.37,138.49,668.56,481.36,"Francouzská, Prague - Vinohrady",50.0739894,14.440101,,,,,,,,,,,,,,,,,,,,,,,,,,,,,,,,,,,,,,,,,,,,,,,,,,,,,,,,,,,,,,,,,,,,,,,,,,,,,,,,,,,,,,,,,,,
"CZK 37,425","CZK 12,475",745389,2+kk,12/16/2022,61 m²,Fully furnished,2,1.0,170.48,421.6,257.32,426.75,52.86,339.7,54.65,63.39,473.33,754.41,"Balbínova, Prague - Vinohrady",50.0795659,14.4357789,,,,,,,,,,,,,,,,,,,,,,,,,,,,,,,,,,,,,,,,,,,,,,,,,,,,,,,,,,,,,,,,,,,,,,,,,,,,,,,,,,,,,,,,,,,
"CZK 16,500","CZK 5,500",745388,2+kk,12/10/2022,49 m²,Fully furnished,4,1.0,29.38,325.91,43.48,1234.53,190.06,1069.48,165.33,633.38,357.94,206.17,"Wassermannova, Prague - Hlubočepy",50.02774,14.36651,,,1.0,"CZK 16,500",B,New-build,Brick,,,1.0,,1.0,,,,,,,,,,,,,,1.0,,,,,,,,,,1.0,,,1.0,,,,,,,,,,,,,,,,,,,,,,,,,,,,,,,,,,,,,,,,,,,,,,,,,,,,
"CZK 28,000","CZK 4,000",744869,4+1,10/11/2022,113 m²,Partly,2,,87.37,1349.64,233.21,834.52,122.91,402.94,564.22,973.72,476.65,327.19,Prague - Libeň,50.11185,14.4745,,,,"CZK 38,000",G,Good,Brick,,,1.0,,1.0,,,,,1.0,,,,,,,,,,,,,,,,,,,,,,,,,,,,,,,,,,,,,,,,,,,,,,,,,,,,,,,,,,,,,,,,,,,,,,,,,,
"CZK 15,000","CZK 3,000",745385,3+kk,11/1/2022,54 m²,Partly,1,,160.89,258.92,368.25,304.7,258.92,1609.52,460.54,731.21,1317.5,475.65,Prague - Záběhlice,50.04671,14.48928,,,,"CZK 30,000",D,Good,Brick,,,1.0,1.0,1.0,,,,,,,,,,,,,,,,,,,,,,,,,,,,,,,,,,,,,,,,,,,,,,,,,,,,,,,,,,,,,,,,,,,,,,,,,,,,,,,
"CZK 13,500","CZK 6,800",516612,2+kk,11/1/2022,40 m²,Fully furnished,1,,187.41,1376.99,1113.46,2975.01,926.14,1002.09,1542.18,3198.29,1476.54,465.11,"Listopadová, Prague - Dolní Počernice",50.0813805,14.568253,,,,"CZK 27,000",C,,Brick,,,,,,,,,,,Personal,,,,,,,,,,,,,,,,,,,,,,,,,,,,,,,,,,,,,,,,,,,,,,,,,,,,,,,,,,,,,,,,,,,,,,,,,
"CZK 16,000","CZK 3,377",745383,2+kk,10/16/2022,43 m²,Fully furnished,6,1.0,148.42,397.94,88.0,426.6,313.41,418.78,155.98,377.87,687.4,28.38,"Mohylová, Prague - Stodůlky",50.04428,14.33544,,,,"CZK 20,000",G,Very good,Prefab concrete,,,1.0,1.0,,,,,,,,,,,,,,,,,,,,,,,,,,,,,,,,,,,,,,,,,,,,,,,,,,,,,,,,,,,,,,,,,,,,,,,,,,,,,,,,
"CZK 27,700","CZK 10,000",744863,2 bedroom,10/11/2022,67 m²,Unfurnished,,,226.56,660.22,91.3,1120.16,29.25,895.83,91.81,405.77,522.69,431.66,"Loretánské náměstí, Prague - Hradčany",50.08802,14.39124,,,,"CZK 37,700",G,Good,Other,,,,,,,,,,,,,,,,,,,,,,,,,,,,,,,,,,,,,,,,,,,,,,,,,,,,,,,,,,,,,,,,,,,,,,,,,,,,,,,,,,,,
"CZK 18,500","CZK 3,130",745380,2+kk,10/16/2022,46 m²,Partly,5,,201.46,467.07,255.24,497.95,102.06,451.8,563.77,156.09,446.7,164.7,"Pod Kotlaskou, Prague - Libeň",50.10584,14.47788,,,,"CZK 18,500",G,Very good,Brick,,,,,,,,,,,,,,,,,,,,,,,,,,,,,,,,,,,,,,,,,,,,,,,,,,,,,,,,,,,,,,,,,,,,,,,,,,,,,,,,,,,,
"CZK 21,000","CZK 4,840",464574,2+kk,10/11/2022,53 m²,Partly,2,,179.27,486.14,131.28,244.49,96.02,275.25,161.05,567.67,342.68,147.96,Prague - Bubeneč,50.0995456,14.4016781,,,,"CZK 40,000",,,Brick,Complete,,,,,Gas boiler,Luxurious,Up to 10 years,,,Personal,,,,,,,,,,,,,,,,,,,,,,,,,,,,,,,,,,,,,,,,,,,,,,,,,,,,,,,,,,,,,,,,,,,,,,,,,
"CZK 16,000","CZK 3,380",642836,1 bedroom,11/1/2022,35 m²,Fully furnished,2,,76.8,685.54,52.84,170.09,27.14,808.46,215.82,385.22,653.46,168.77,"Nuselská, Prague - Michle",50.059436,14.450169,,,,"CZK 32,000",G,Very good,Brick,Interior,,,,,Gas boiler,Luxurious,Up to 10 years,,,Personal,,,,,,,,,1.0,,,,,,,,,,,,,,,,,,,,,,,,,,,,,,,,,,,,,,,,,,,,,,,,,,,,,,,,,,,,,,,,
"CZK 10,900","CZK 3,500",109602,Studio,12/1/2022,40 m²,Partly,2,,138.64,616.49,153.69,208.73,207.62,134.62,451.68,952.36,770.95,264.98,"Zbynická, Prague - Radotín",49.9833029254,14.3637013435,,,,"CZK 14,400",E,,Brick,Interior,,,,,Central,,,,,Personal,,,,,,,,,,,,,,,,,,,,,,,,,,,,,,,,,,,,,,,,,,,,,,,,,,,,,,,,,,,,,,,,,,,,,,,,,
"CZK 13,500","CZK 2,500",745049,Studio,11/15/2022,37 m²,Partly,-1,,272.37,1407.9,290.0,1612.95,279.34,1577.83,572.88,263.2,810.24,640.2,"Na Zvoničce, Prague - Podolí",50.04535,14.41601,,,,"CZK 20,000",E,Very good,Brick,,,1.0,,,,,,,,,,,,,,,,,,,,,,,,,,,,,,,,,,1.0,,,,,,,,,,,,,,,,,,,,,,,,,,,,,,,,,,,,,,,,,,,,,,,
"CZK 21,000","CZK 7,500",745373,2+kk,10/17/2022,61 m²,Unfurnished,,,280.15,488.97,236.1,615.19,205.78,408.81,259.84,454.97,217.69,359.73,"Na Folimance, Prague - Vinohrady",50.06602,14.4335,,,,"CZK 42,000",G,New-build,Brick,,,,,,,,,,,,,,,,,,,,,,,,,,,,,,,,,,,,,,1.0,,,,,,,,,,,,,,,,,,,,,,,,,,,,,,,,,,,,,,,,,,,,,,
"CZK 12,500",CZK 0,385086,Studio,11/1/2022,42 m²,Fully furnished,,,694.7,1800.4,986.21,1325.72,1222.75,1802.21,1291.54,1406.37,502.82,451.23,"Jednostranná, Prague - Hloubětín",50.0951711,14.532245,,,,CZK 0,B,Very good,Brick,,,1.0,,,,Standard,Up to 10 years,,,Personal,,,,,,,,,,,,,,,,,,,,,,,,,,,,,,,,,,,,,,,,,,,,,,,,,,,,,,,,,,,,,,,,,,,,,,,,,
"CZK 40,000","CZK 10,000",744845,3+1,11/15/2022,113 m²,Fully furnished,2,1.0,224.78,783.29,66.44,302.04,20.76,398.22,443.05,197.34,496.42,432.11,"Podskalská, Prague - Nové Město",50.07115,14.41512,,,,"CZK 80,000",G,Very good,Brick,,,,,,,,,,,,,,,,,,,,,,,,,,,,,,,,,,,,,,,,,,,,,,,,,,,,,,,,,,,,,,,,,,,,,,,,,,,,,,,,,,,,
"CZK 16,000","CZK 5,000",419552,2+kk,11/1/2022,45 m²,Fully furnished,4,,472.37,659.55,520.83,1853.1,533.78,604.41,617.13,1320.88,1016.22,623.38,Prague - Krč,50.0202884,14.4581795,1.0,,,"CZK 31,999",C,,Prefab concrete,Complete,,,,,Central,,,,,Personal,,,,,,,,,,,,,,,,,,,,,,,,,,,,1.0,,,,,,,,,,,,,,,,,,,,,,,,,,,,,,,,,,,,,,,,,,,,,
"CZK 12,500","CZK 2,743",745364,2+kk,10/16/2022,47 m²,Partly,3,1.0,198.67,1577.47,117.1,730.1,348.77,394.1,756.08,398.33,1289.3,143.25,Prague - Kobylisy,50.12948,14.45007,,,,"CZK 20,000",G,Very good,Prefab concrete,,,1.0,,1.0,,,,,,,,,,,,,,,,,,,,,,,,,,,,,,,,,,,1.0,1.0,,,,,,,,,,,,,,,,,,,,,,,,,,,,,,,,,,,,,,,,,,,
"CZK 19,000","CZK 3,000",669194,2+kk,11/1/2022,39 m²,Fully furnished,1,,53.14,490.64,50.42,757.58,99.73,674.08,103.37,181.83,999.37,331.62,Prague - Košíře,50.0703847,14.3804533,,,,"CZK 21,000",G,Very good,Brick,,,,,,,Standard,,,,Personal,,,,,,,,,,,,,,,,,,,,,,,,,,,,,,,,,,,,,,,,,,,,,,,,,,,,,,,,,,,,,,,,,,,,,,,,,
"CZK 39,000","CZK 2,500",625360,3+kk,12/1/2022,126 m²,Fully furnished,5,1.0,49.97,864.55,46.98,249.95,24.15,222.38,235.59,451.59,693.85,155.78,"Jugoslávských Partyzánů, Prague - Bubeneč",50.106642,14.395113,,,1.0,"CZK 42,000",C,Very good,Brick,Complete,,,,,Gas boiler,Luxurious,Up to 10 years,,,Personal,,,,,,,,,,,,,,,,,,,,,,,,,,,,,,,1.0,,,,,,,,,,,,,,,,,,,,,,,,,,,,,,,,,,,,,,,,,,
"CZK 13,000",CZK 540,688475,2 bedroom,11/1/2022,45 m²,Partly,,1.0,404.77,533.0,140.78,371.82,76.23,229.39,441.11,538.84,586.84,467.4,"Kubelíkova, Prague - Žižkov",50.08217,14.45096,,,,"CZK 26,000",G,Very good,Brick,,,,,1.0,Electric boiler,Standard,,,,Personal,,,,,,,,,,,,,,,,,,,,,,,,,,,,,,,,,,,,,,,,,,,,,,,,,,,,,,,,,,,,,,,,,,,,,,,,,
"CZK 15,000","CZK 6,000",372209,2+kk,11/1/2022,60 m²,Partly,2,1.0,354.91,496.96,401.51,4003.13,433.12,453.78,3252.94,3425.79,436.53,442.07,"Nad mlýnským potokem, Prague - Dubeč",50.062422,14.592583,,,1.0,"CZK 30,000",,Very good,Brick,,,1.0,,,Central,Standard,10 to 30 years,,,Personal,,,,,,,,,,,,,,,,,,,,1.0,,,,,,,,,,,,,,,,,,,,,,,,,,,,,,,,,,,,,,,,,,,,,,,,,,,,,
"CZK 20,500","CZK 3,500",443901,2+kk,11/15/2022,50 m²,Fully furnished,2,,240.5,896.42,174.52,569.86,135.52,518.35,373.16,702.46,445.5,396.13,"Žateckých, Prague - Nusle",50.0603853,14.4345607,,,,CZK 0,,Very good,Brick,Complete,,,,,Electric boiler,Luxurious,Up to 10 years,,1.0,Personal,,,,,,,,,,,,,,,,,,,,,,,,,,,,,,,,,,,,,,,,,,,,,,,,,,,,,,,,,,,,,,,,,,,,,,,,,
"CZK 12,000","CZK 3,000",744837,Studio,10/24/2022,20 m²,Fully furnished,2,,111.59,946.82,745.53,921.73,511.03,604.13,558.29,447.02,622.04,401.09,"Gallašova, Prague - Řepy",50.0703,14.31362,,,,"CZK 13,000",B,New-build,Low-energy,,,,,,,,,,,,,,,,,,,,,,,,,,,,,1.0,,,,,,,,,,,,,,,,,,,,,,,,,,,,,,,,,,,,,,,,,,,,,,,,,,,,,,,
"CZK 16,000","CZK 5,000",745354,1 bedroom,10/16/2022,50 m²,Fully furnished,1,,65.0,251.76,61.02,218.46,52.06,58.04,164.23,271.98,446.91,314.94,Prague - Žižkov,50.08422,14.45335,,,,"CZK 16,000",G,Very good,Brick,,,,,,,,,,,,,,,,,,,,,,,,,,,,,,,,,,,,,,,,,,,,,,,,,,,,,,,,,,,,,,,,,,,,,,,,,,,,,,,,,,,,
"CZK 22,647","CZK 2,866",744595,3+1,10/1/2022,70 m²,,1,,76.01,230.13,118.12,144.3,131.31,178.69,230.4,215.89,573.88,274.14,"Lohniského, Prague - Hlubočepy",50.0357953,14.3775154,,,,"CZK 25,513",,Good,Other,,,,,,,,,,,Personal,,,,,"CZK 3,397",,,,,,,,,,,,,,,,,,,,,,,,,,,,,,,,,,,,,,,,,,,,,,,,,,,,,,,,,,,,,,,,,,,,
"CZK 22,000","CZK 3,000",725839,2+kk,10/12/2022,60 m²,Fully furnished,,,101.52,2185.38,1619.87,2958.42,328.37,2921.25,2581.95,2236.24,2935.96,218.67,Prague - Nedvězí u Říčan,50.01682,14.65416,,,,"CZK 40,000",B,New-build,Low-energy,Complete,,1.0,,1.0,Electric boiler,Luxurious,Up to 10 years,,,Personal,,,,,,,,,,,,,,,,,,1.0,,,,,,,,,,,,,,,,,,,,,,,,,,,,,,,,,,,,,,,,,,,,,,,,,,,,,,,
"CZK 21,500",CZK 800,668671,3+kk,11/1/2022,75 m²,Partly,3,,254.96,741.13,48.05,233.86,60.66,316.23,363.92,101.59,417.29,386.55,"Trojická, Prague - Nové Město",50.0706,14.41582,,,,"CZK 25,000",G,Very good,Brick,,,,,,,,,,,Personal,,,,,,,,,,,,,,,,,,,,,,,,,,,,,,,,,,,,,,,,,,,,,,,,,,,,,,,,,,,,,,,,,,,,,,,,,
"CZK 25,000","CZK 2,500",744831,2 bedroom,10/11/2022,70 m²,Partly,3,1.0,167.59,737.57,162.94,799.4,192.67,822.89,287.77,322.38,426.53,316.4,Prague - Michle,50.04572,14.4628,,,,"CZK 50,000",E,Very good,Brick,Complete,,1.0,,,,Standard,30 - 50 years,,,,,,,,,,,,,,,,,,,,,,,,1.0,,,,,,,,,,,,,,,,,,,,,,,,,,,,,,,,,,,,,,,,,,,,,,,,,,,,
"CZK 18,500","CZK 5,500",745345,2+kk,11/1/2022,53 m²,Fully furnished,3,1.0,369.73,1039.62,299.43,624.89,210.14,785.28,431.25,403.99,240.55,449.55,"Kovanecká, Prague - Libeň",50.10861,14.48573,,,,"CZK 35,000",G,Very good,Brick,,,1.0,,1.0,Central,Standard,10 to 30 years,,,Personal,1.0,1.0,,,,,,,,,,,,,,,,,,,,,,,,,,,,,,,,,,,,,,,,,,,,,,,,,,,,,,,,,,,,,,,,,,,,,,,
"CZK 24,000","CZK 5,500",745346,3+kk,10/16/2022,65 m²,Partly,2,1.0,189.18,160.11,178.24,180.32,20.05,230.44,266.64,745.59,557.09,388.8,"Jirečkova, Prague - Holešovice",50.09921,14.42274,,,,"CZK 29,500",G,Very good,Brick,,,,,,,,,,,,,,,,,,,,,,,,,,,,,,,,,,,,,,,,,,,,,,,,,,,,,,,,,,,,,,,,,,,,,,,,,,,,,,,,,,,,
"CZK 25,500","CZK 8,500",732231,2+kk,11/2/2022,48 m²,Fully furnished,3,1.0,188.32,492.36,64.31,169.76,16.44,202.35,307.51,551.4,544.96,488.43,"Řeznická, Prague - Nové Město",50.0781758,14.4220203,,,,,,,,,,,,,,,,,,,,,,,,,,,,,,,,,,,,,,,,,,,,,,,,,,,,,,,,,,,,,,,,,,,,,,,,,,,,,,,,,,,,,,,,,,,
"CZK 21,000","CZK 7,000",731156,2+kk,11/25/2022,49 m²,Fully furnished,2,1.0,84.02,732.97,86.86,659.07,276.51,744.0,408.19,306.62,634.43,198.98,"Na Míčánkách, Prague - Vršovice",50.0713305,14.4638794,,,,,,,,,,,,,,,,,,,,,,,,,,,,,,,,,,,,,,,,,,,,,,,,,,,,,,,,,,,,,,,,,,,,,,,,,,,,,,,,,,,,,,,,,,,
"CZK 17,000","CZK 5,000",744953,2+kk,10/17/2022,39 m²,Partly,3,1.0,286.98,1009.62,163.51,2071.96,196.73,1038.3,1091.56,1616.54,2047.98,137.94,"K Beranovu, Prague - Dolní Chabry",50.1394,14.44867,,,1.0,"CZK 34,000",G,New-build,Other,,,1.0,,,,Standard,Up to 10 years,,,Personal,,,,,,,,,,,,,,,,,,1.0,,,,,,,,,,,,,,1.0,,,,,,,,,,,,,,,,,,,,,,,,,,,,,,,,,,,,,,,,,
"CZK 10,500","CZK 3,500",234248,1 bedroom,12/1/2022,39 m²,Partly,5,1.0,245.99,789.66,587.5,1200.76,403.1,712.32,123.94,192.4,357.58,86.49,"Kukelská, Prague - Hloubětín",50.1045431,14.5503719,,,,"CZK 10,500",B,Good,Prefab concrete,Bathroom unit,,,,,Distance,Standard,,,,Personal,,,,,,,,1.0,,,,,,,,,,,,,,,,,,,,,,1.0,,,,,,,,,,,,,,,,,,,,,,,,,,,,,,,,,,,,,,,,,,,
"CZK 17,250","CZK 5,750",744960,3+1,11/7/2022,90 m²,Fully furnished,5,1.0,82.8,397.93,96.94,404.98,135.48,353.78,131.46,217.55,654.74,661.34,"Blanická, Prague - Vinohrady",50.0746503,14.439294,,,,,,,,,,,,,,,,,,,,,,,,,,,,,,,,,,,,,,,,,,,,,,,,,,,,,,,,,,,,,,,,,,,,,,,,,,,,,,,,,,,,,,,,,,,
"CZK 22,000",CZK 700,557562,2 bedroom,10/11/2022,76 m²,Unfurnished,1,,122.75,163.26,17.85,210.79,102.73,278.98,227.46,577.15,255.59,298.79,"Za Poštou, Prague - Strašnice",50.0759295,14.4910605,,,,"CZK 45,000",C,Very good,Brick,Complete,,,,,Electric boiler,,Over 50 years,,,Personal,,,,,,,,,,,,,,,,,,,,,,,,,,,,,,,,,,,,,,,,,,,,,,,,,,,,,,,,,,,,,,,,,,,,,,,,,
"CZK 32,000","CZK 6,000",745308,3+kk,10/16/2022,83 m²,Unfurnished,4,1.0,201.7,1308.66,142.89,1129.36,468.82,688.29,322.41,221.9,1021.18,245.67,"Štěchovická, Prague - Strašnice",50.07153,14.50459,,,,"CZK 50,000",B,New-build,Brick,,,,,,Central,Luxurious,,,,Personal,,,,,,,,,,,,,,,,,,1.0,,1.0,,,,,,,,,,,,,,,,,,,,,,,,,,,,,,,,,,,,,,,,,,,,,,,,,,,,,
"CZK 16,000","CZK 4,000",745338,Studio,10/16/2022,38 m²,Partly,4,1.0,42.16,980.71,35.65,801.41,416.27,652.58,375.7,164.32,685.98,129.58,"Štěchovická, Prague - Strašnice",50.07176,14.49995,,,,"CZK 25,000",G,New-build,Brick,,,,,,,,,,,,1.0,,,,,,,,,,,,,,,,,1.0,,,,,,,,,,,,,,,1.0,,,,,,,,,,,,,,,,,,,,,,,,,,,,,,,,,,,,,,,,
"CZK 21,375","CZK 7,125",734261,3+1,11/7/2022,35 m²,Fully furnished,-1,1.0,36.05,792.81,20.0,597.08,172.08,638.36,366.32,329.81,486.26,346.96,"Dvacátého osmého pluku, Prague - Vršovice",50.0707338,14.4627954,1.0,1.0,,,,,,,,,,,,,,,,,,,,,,,,,,,,,,,,,,,,,,,,,,,,,,,,,,,,,,,,,,,,,,,,,,,,,,,,,,,,,,,,,,,,,,,,,
"CZK 40,800","CZK 13,600",742150,3+kk,11/2/2022,75 m²,Fully furnished,6,1.0,195.12,1018.19,151.41,722.84,224.35,262.66,303.64,382.55,1097.28,303.28,"Grafická, Prague - Smíchov",50.0726658,14.3919787,,,,,,,,,,,,,,,,,,,,,,,,,,,,,,,,,,,,,,,,,,,,,,,,,,,,,,,,,,,,,,,,,,,,,,,,,,,,,,,,,,,,,,,,,,,
"CZK 51,656","CZK 17,219",728895,2 bedroom,11/30/2022,60 m²,Fully furnished,4,1.0,110.1,392.87,177.02,129.22,79.72,168.29,299.92,497.22,273.67,349.66,"Dlážděná, Prague - Nové Město",50.0865843,14.4323212,,,,,,,,,,,,,,,,,,,,,,,,,,,,,,,,,,,,,,,,,,,,,,,,,,,,,,,,,,,,,,,,,,,,,,,,,,,,,,,,,,,,,,,,,,,
"CZK 24,938","CZK 8,312",744955,1 bedroom,11/1/2022,16 m²,Fully furnished,2,,254.83,288.07,110.12,571.95,81.97,421.88,80.01,71.59,804.26,588.21,"Americká, Prague - Vinohrady",50.0721161,14.4387295,,,,,,,,,,,,,,,,,,,,,,,,,,,,,,,,,,,,,,,,,,,,,,,,,,,,,,,,,,,,,,,,,,,,,,,,,,,,,,,,,,,,,,,,,,,
"CZK 17,000","CZK 3,500",744798,2 bedroom,10/11/2022,78 m²,Partly,1,,283.66,282.14,280.67,2183.26,268.28,237.11,346.53,1238.87,1242.04,406.51,"Častavina, Prague - Ruzyně",50.09121,14.31214,,,,"CZK 34,000",G,Very good,Brick,,,1.0,,,,,,,,,,,,,,,,,1.0,,,,,,,,,,,,,,,,,,,1.0,,,,,,,,,,,,,,,,,,,,,,,,,,,,,,,,,,,,,,,,,,,,,
"CZK 22,000","CZK 3,100",744796,3+kk,12/1/2022,87 m²,Unfurnished,2,1.0,165.87,741.74,438.21,633.93,156.18,646.83,420.09,455.58,495.29,465.56,"Řehořova, Prague - Žižkov",50.0864,14.44512,,,1.0,"CZK 44,000",C,Very good,Brick,,,,,,,,,,,,,,,,,,,,,,,,,,,,,,,,,,,,,,,,,,,,,1.0,,,,,,,,,,,,,,,,,,,,,,,,,,,,,,,,,,,,,,,
"CZK 24,581","CZK 8,194",744273,Studio,11/10/2022,32 m²,Fully furnished,1,,447.58,805.32,396.64,450.11,197.32,945.56,256.47,627.41,458.07,336.59,"Nad Kolčavkou A, Prague - Libeň",50.1080609,14.4828384,,,,,,,,,,,,,,,,,,,,,,,,,,,,,,,,,,,,,,,,,,,,,,,,,,,,,,,,,,,,,,,,,,,,,,,,,,,,,,,,,,,,,,,,,,,
"CZK 19,000",CZK 700,745327,2+kk,12/1/2022,52 m²,Partly,2,,303.36,340.83,118.42,526.47,136.61,247.56,240.93,389.66,678.65,200.22,"U Garáží, Prague - Holešovice",50.10138,14.44501,,,,"CZK 25,000",D,Very good,Brick,,,,,,,,,,,,1.0,,,,,,,,,,,,,,,,,,,,,,,,,,,,,,,,,,,,,,,,,,,,,,,,,,,,,,,,,,,,,,,,,,,,,,,,
"CZK 27,000","CZK 6,000",743861,2 bedroom,10/4/2022,76 m²,Fully furnished,1,,120.77,1269.24,117.44,985.12,99.83,259.67,625.08,243.63,733.04,268.41,"Nučická, Prague - Strašnice",50.06777,14.49601,,,,CZK 0,A,Very good,Brick,,,,,,,,,,,,,,,,,,,,,,,,,,,,,,,,,,,,,,,,,,,,,,,,,,,,,,,,,,,,,,,,,,,,,,,,,,,,,,,,,,,,
"CZK 11,000","CZK 1,300",694090,Studio,11/1/2022,32 m²,Fully furnished,5,1.0,58.43,743.26,85.22,447.07,87.06,486.68,635.65,634.19,669.83,500.41,"V Horkách, Prague - Nusle",50.06186,14.44678,,,,"CZK 15,000",G,New-build,Other,,1.0,,,,,,Up to 10 years,,,Personal,,,,,,,,,,,,,,,,,,1.0,,,,,,,,,,,,,,,,,,,,,,,,,,,,,,,,,,,,,,,,,,,,,,,,,,,,,,,
"CZK 18,000","CZK 3,500",553756,2+kk,11/1/2022,43 m²,Fully furnished,5,,204.67,314.3,130.29,372.76,96.98,447.81,372.6,267.73,444.24,117.36,"Plickova, Prague - Háje",50.0333093,14.5334493,,,,"CZK 21,500",C,,Prefab concrete,,,,,,,,,,,Personal,,,,,,,,,,,,,,,,,,,,,,,,,,,,,,,,,,,,,,,,,,,,,,,,,,,,,,,,,,,,,,,,,,,,,,,,,
"CZK 45,401","CZK 15,134",728059,3+1,10/19/2022,85 m²,Fully furnished,2,1.0,278.51,602.82,173.91,301.83,0.93,288.1,225.94,440.55,233.82,416.1,"Bílkova, Prague - Staré Město",50.0912254,14.4209612,,,,,,,,,,,,,,,,,,,,,,,,,,,,,,,,,,,,,,,,,,,,,,,,,,,,,,,,,,,,,,,,,,,,,,,,,,,,,,,,,,,,,,,,,,,
"CZK 22,000","CZK 4,000",744764,2+kk,11/4/2022,51 m²,Fully furnished,2,1.0,419.22,1300.74,1308.62,1345.5,1021.54,1398.09,651.81,482.16,1045.55,376.02,"Naskové, Prague - Košíře",50.06164,14.36178,,,,"CZK 28,000",B,New-build,Low-energy,,,1.0,,,Distance,,Up to 10 years,,,Personal,,,,,,,,,1.0,,,,,,,,,1.0,,1.0,,,,,,,,,,,,,,,,,,,,,,,,,,,,,,,,,,,,,,,,,,,,,,,,,,,,,
"CZK 14,500","CZK 1,100",745322,2+kk,12/1/2022,43 m²,Partly,4,,239.27,613.24,226.59,701.74,305.81,228.21,419.76,1176.72,370.12,345.62,"U Staré plynárny, Prague - Holešovice",50.10731,14.44519,,,,"CZK 28,000",D,New-build,Prefab concrete,,1.0,,,,,,,,,,,,,,,,,,,,,,,,,,,,,,,,,,,,,,,,,,,,,,,,,,,,,,,,,,,,,,,,,,,,,,,,,,,,,,,,,,
"CZK 24,000","CZK 4,400",745320,3+kk,10/16/2022,76 m²,Fully furnished,2,1.0,143.39,999.22,205.81,586.43,422.64,711.07,257.27,1980.31,962.5,157.63,"Sazovická, Prague - Zličín",50.0568,14.28399,,,1.0,"CZK 24,000",C,Very good,Brick,,,1.0,,,,,,,,,,,,,,,,,,,,,,,,,,1.0,,,,1.0,,,,,,,,,,,,,,,,,,,,,,,,,,,,,,,,,,,,,,,,,,,,,,,,,,,
"CZK 25,920","CZK 8,640",745317,2+kk,11/3/2022,50 m²,Fully furnished,2,1.0,256.88,230.57,115.16,212.72,190.01,251.36,415.49,530.5,578.5,441.78,"Čajkovského, Prague - Žižkov",50.0830128,14.4521943,,,,,,,,,,,,,,,,,,,,,,,,,,,,,,,,,,,,,,,,,,,,,,,,,,,,,,,,,,,,,,,,,,,,,,,,,,,,,,,,,,,,,,,,,,,
"CZK 22,000","CZK 4,500",744757,2+kk,11/1/2022,57 m²,Partly,3,1.0,407.56,918.9,235.05,880.54,583.12,1005.18,377.41,2243.12,1252.43,147.8,Prague - Zličín,50.05815,14.28055,,,1.0,"CZK 44,000",C,Very good,Brick,,,,1.0,,,,,,,,,,,,,,,,,,,,,,,,,,,,,,,,,,,,,,,,,,,,,,,,,,,,,,,,,,,,,,,,,,,,,,,,,,,,,,,,
"CZK 8,700","CZK 3,000",720044,Small studio,11/1/2022,20 m²,Partly,2,,259.08,402.76,65.14,276.58,75.05,143.57,210.93,619.75,21.23,467.36,Prague - Holešovice,50.10152,14.42674,,,,"CZK 15,900",,Very good,Other,,,,,,Electric boiler,,Up to 10 years,,,,,,,,,,,,,,,,,,,,,,,,,,,,,,,,,,,,,,,,,,,,,,,,,,,,,,,,,,,,,,,,,,,,,,,,,,,,
"CZK 16,900","CZK 3,500",583541,2+kk,11/1/2022,60 m²,Fully furnished,2,,237.23,597.82,1049.92,3136.93,107.47,3099.76,994.39,648.68,1348.4,364.51,"Kupkova, Prague - Kolovraty",50.014838,14.634532,1.0,,1.0,"CZK 20,000",A,New-build,Brick,Complete,,1.0,,,Gas boiler,Standard,Up to 10 years,,,Personal,,,,,,,1.0,,,,,,,,,,,,1.0,,,,,,,,,,,,,,,,,,,,,,,,,,,,,,,,,,,,,,,,,,,,,,,,,,,,,,
"CZK 17,500","CZK 3,500",534713,Studio,10/31/2022,40 m²,Fully furnished,3,1.0,124.87,436.44,36.87,176.21,3.33,243.45,502.77,868.01,368.74,483.06,"Sokolovská, Prague - Karlín",50.09430137852,14.453672516828,,,,"CZK 21,000",,New-build,Brick,,,,,,,,,,,Personal,,,,,,,,,,,,1.0,,,,,,1.0,,,,,,,,,,,,,,,,,1.0,,,,,,,,,,,,,,,,,,,,,,,,,,,,,,,,,,,,,,
"CZK 22,000","CZK 8,500",629329,2+kk,11/1/2022,62 m²,,2,1.0,163.13,718.6,183.86,204.76,153.56,496.97,771.71,878.75,478.73,244.81,"Kališnická, Prague - Žižkov",50.089741,14.462408,,,1.0,"CZK 30,000",B,Very good,Brick,,,1.0,,,,,,,,Personal,1.0,,,,,,,,,,,,,,,,,1.0,,,,,,,,,,,,,,,1.0,,,,,,,,,,,,,,,,,,,,,,,,,,,,,,,,,,,,,,,,
"CZK 17,000","CZK 4,000",745313,2 bedroom,10/16/2022,52 m²,Fully furnished,3,,320.03,1208.11,261.22,1028.81,562.95,725.99,414.43,243.97,901.0,140.39,"Sečská, Prague - Strašnice",50.07138,14.50266,,,,"CZK 20,000",G,Very good,Prefab concrete,,,1.0,,,,,,,,,,,,,,,,1.0,,,,,,,,,,,,,1.0,,,,,,,,,,,,,,,,,,,,,,,,,,,,,,,,,,,,,,,,,,,,,,,,,,,,
"CZK 11,625","CZK 3,875",744911,1 bedroom,10/31/2022,20 m²,Fully furnished,2,,167.5,2222.47,872.77,1999.68,822.03,896.79,1140.19,933.68,1542.93,730.05,"Mokřanská, Prague - Strašnice",50.0677075,14.5189136,,,,,,,,,,,,,,,,,,,,,,,,,,,,,,,,,,,,,,,,,,,,,,,,,,,,,,,,,,,,,,,,,,,,,,,,,,,,,,,,,,,,,,,,,,,
"CZK 13,500","CZK 3,500",742674,Studio,12/1/2022,45 m²,Partly,2,,354.95,1683.22,1002.56,1870.28,777.15,1578.12,1371.33,1729.78,1328.17,789.43,Prague - Kyje,50.11526,14.56594,,,1.0,"CZK 34,000",C,Very good,Brick,,,,,,,,,,,,,,,,,,,,,,,,,,,,,1.0,,,,,,,,,,,,,,,,,,1.0,,,,,,,,,,,,,,,,,,,,,,,,,,,,,,,,,,,,,
"CZK 14,500","CZK 4,000",745220,2+kk,11/1/2022,55 m²,Partly,3,,165.65,1077.36,316.02,522.18,97.1,442.24,507.78,260.34,619.87,284.93,"Na Veselí, Prague - Nusle",50.0551,14.44008,,,,"CZK 15,000",E,Very good,Brick,,,,,,,,,,,,,,,,,,,,,,,,,,,,,,,,,,,,,,1.0,,,,,,,,,,,,,,,,,,,,,,,,,,,,,,,,,,,,,,,,,,,,,,
"CZK 14,500",CZK 780,418637,2+kk,10/3/2022,44 m²,Fully furnished,3,,218.9,583.15,439.25,253.9,29.44,1233.73,232.28,566.46,340.64,408.02,Prague - Michle,50.0577986,14.4520798,,,,"CZK 16,060",,,Brick,,,,,,Electric boiler,,,,,Personal,,,,,,,,,,,,,,,,,,,,,,,,,,,,,,,,,,,,,,,,,,,,,,,,,,,,,,,,,,,,,,,,,,,,,,,,,
"CZK 29,000","CZK 6,000",727089,3+1,10/3/2022,79 m²,Fully furnished,,,243.61,1348.9,1081.18,1898.71,473.63,915.47,1131.54,1525.33,1429.94,663.83,Prague - Horní Počernice,50.10538,14.60316,,1.0,,"CZK 50,000",B,New-build,Brick,,,1.0,,,,,,,,Personal,,,,,,,,,,,,,,,,,,1.0,,,,,,,,,,,,,,,,,,,,,,,,,,,,,,,,,,,,,,,,,,,,,,,,,,,,,,,
"CZK 20,000",CZK 0,745301,2+kk,12/15/2022,64 m²,Partly,10,1.0,262.51,1342.9,731.85,1255.43,593.48,1297.0,1336.67,1330.28,1269.13,32.91,Prague - Hlubočepy,50.02854,14.36319,,,,"CZK 40,000",A,New-build,Low-energy,,,1.0,,,Distance,,Up to 10 years,,,,,,,,,,,,,,,,,,,,,1.0,,,,,,,,,,,,,,,1.0,,,,1.0,,,,,,,,,,,,,,,,,,,,,,,,,,,,,,,,,,,,
"CZK 15,000","CZK 4,691",744637,1 bedroom,10/10/2022,34 m²,Partly,5,1.0,181.5,335.0,32.99,312.26,13.67,249.36,223.84,210.73,359.75,550.7,Prague - Vinohrady,50.07642,14.44088,,,,"CZK 20,000",C,Good,Brick,,,,,,,,,,,,,,,,,,,,,,,,,,,,,,,,,,,,,,,,,,,,,,,,,,,,,,,,,,,,,,,,,,,,,,,,,,,,,,,,,,,,
"CZK 11,300",CZK 500,745297,Small studio,10/16/2022,30 m²,Partly,1,,162.75,599.44,229.91,164.76,96.89,379.71,652.55,677.65,577.59,259.77,"Roháčova, Prague - Žižkov",50.08897,14.46402,,,,"CZK 11,300",G,Good,Brick,,,,,,,,,,,,,,,,,,,1.0,,,,,,,,,,,,,,,,,,,,,,,,,,,,,,,,,,,,,,,,,,,,,,,,,,,,,,,,,,,,,,,,,
"CZK 20,000","CZK 6,266",582156,2+kk,10/17/2022,35 m²,Fully furnished,1,,184.42,280.33,118.49,463.89,121.58,328.88,159.43,210.79,835.26,648.06,"Varšavská, Prague - Vinohrady",50.073469,14.438616,,,,"CZK 20,000",D,Very good,Brick,Interior,,,,,Gas boiler,Standard,Over 50 years,,,Personal,,,,,,,,,,,,,,,,,,,,,,,,,,,,,,,,,,,,,,,,,,,,,,,,,,,,,,,,,,,,,,,,,,,,,,,,,
"CZK 23,000","CZK 4,500",559078,2+kk,11/1/2022,53 m²,Fully furnished,3,1.0,167.96,387.24,108.24,130.89,117.45,130.66,430.73,593.65,641.51,509.31,"Čestmírova, Prague - Nusle",50.06416,14.44328,,,,"CZK 27,500",G,,Brick,Interior,,1.0,,,Gas boiler,Standard,,,,Personal,,,,,,,,,,,,,,,,,,,,,,,,,,,,,,,,,,,,,,,,,,,,,,,,,,,,,,,,,,,,,,,,,,,,,,,,,
"CZK 15,000",CZK 600,743615,1 bedroom,10/15/2022,43 m²,Unfurnished,4,1.0,113.51,501.73,115.22,598.0,92.34,224.01,208.74,288.83,251.67,432.25,"Vršovická, Prague - Vršovice",50.06583,14.44973,,,,"CZK 15,000",C,Very good,Brick,,,,,,,,,,,,,,,,,,,,,,,,,,,,,,,,,,,,,,,,,,,,,,,,,,,,,,,,,,,,,,,,,,,,,,,,,,,,,,,,,,,,
"CZK 30,000",CZK 0,745221,3+1,11/12/2022,98 m²,Partly,4,1.0,95.21,680.34,105.57,529.78,114.84,280.84,371.94,153.56,488.58,246.01,Prague - Žižkov,50.08161,14.44482,,,,"CZK 45,000",F,Very good,Brick,Complete,,1.0,,,,Luxurious,Over 50 years,,,Personal,,,,,,,,,,,,,,,,,,,,,,,,,,,,,,,,,,,,,,,,,,,,,,,,,,,,,,,,,,,,,,,,,,,,,,,,,
"CZK 15,000","CZK 2,500",658052,2+kk,10/11/2022,34 m²,Fully furnished,3,1.0,113.38,573.32,105.72,689.62,111.86,511.77,437.86,146.77,634.35,153.47,"Werichova, Prague - Hlubočepy",50.03112,14.36961,,,,"CZK 10,000",,Very good,Prefab concrete,Complete,,,,,Central,Standard,10 to 30 years,,,Cooperative,,,,,,,,,1.0,,,,,,,,,,,,,,,,,,,,,,,,,,,,,,,,,,,,,,,,,,,,,,,,,,,,,,,,,,,,,,,,
"CZK 13,000","CZK 5,000",716526,3+1,11/1/2022,52 m²,Partly,4,1.0,161.49,460.2,248.5,489.55,502.15,601.15,55.67,138.11,1362.78,207.86,"Českolipská, Prague - Prosek",50.1261106,14.5002253,,,,"CZK 20,000",G,Very good,Prefab concrete,,,,,,,,,,,Personal,,,,,,,,,,,1.0,,,,,,,,,,,,,,,,,,,,,,,,,,,,,,,,,,,,,,,,,,,,,,,,,,,,,,,,,,,,,,
"CZK 12,990","CZK 2,312",730237,Studio,10/18/2022,40 m²,Fully furnished,4,,401.67,411.64,243.31,840.09,193.77,176.83,359.85,359.85,318.49,196.9,"Na hroudě, Prague - Strašnice",50.069900512695,14.480400085449,,,,"CZK 15,302",D,Very good,Brick,,,,,,,,,,,Personal,,,,,"CZK 15,302",,,,,,,,,,,,,,,,,,,,,,,,,,,,,,,,,,,,,,,,,,,,,,,,,,,,,,,,,,,,,,,,,,,,
"CZK 24,581","CZK 8,194",743331,Studio,12/1/2022,28 m²,Fully furnished,1,,194.2,798.76,138.2,283.7,89.62,474.09,247.17,335.61,500.98,81.99,"U Zeměpisného ústavu, Prague - Bubeneč",50.1033901,14.4020568,,,,,,,,,,,,,,,,,,,,,,,,,,,,,,,,,,,,,,,,,,,,,,,,,,,,,,,,,,,,,,,,,,,,,,,,,,,,,,,,,,,,,,,,,,,
"CZK 35,063","CZK 11,687",742129,2 bedroom,11/1/2022,85 m²,Fully furnished,6,1.0,228.78,477.17,188.19,476.21,152.93,354.17,176.92,420.71,579.69,570.91,"Wenzigova, Prague - Nové Město",50.0708256,14.4316409,1.0,1.0,,,,,,,,,,,,,,,,,,,,,,,,,,,,,,,,,,,,,,,,,,,,,,,,,,,,,,,,,,,,,,,,,,,,,,,,,,,,,,,,,,,,,,,,,
"CZK 33,750","CZK 11,250",743215,2+kk,11/9/2022,45 m²,Fully furnished,6,1.0,73.01,281.28,58.33,478.54,20.37,379.07,102.37,138.49,668.56,481.36,"Francouzská, Prague - Vinohrady",50.0739894,14.440101,,,,,,,,,,,,,,,,,,,,,,,,,,,,,,,,,,,,,,,,,,,,,,,,,,,,,,,,,,,,,,,,,,,,,,,,,,,,,,,,,,,,,,,,,,,
"CZK 39,971","CZK 13,324",744560,2 bedroom,12/9/2022,56 m²,Fully furnished,1,,323.47,356.02,19.06,334.55,43.47,635.94,360.96,349.33,865.49,201.5,"U Lužického semináře, Prague - Malá Strana",50.0877117,14.4091678,1.0,1.0,,,,,,,,,,,,,,,,,,,,,,,,,,,,,,,,,,,,,,,,,,,,,,,,,,,,,,,,,,,,,,,,,,,,,,,,,,,,,,,,,,,,,,,,,
"CZK 9,116","CZK 3,039",744883,6+kk,12/1/2022,270 m²,Fully furnished,1,,208.45,2004.6,229.88,1900.46,600.62,1532.55,1506.32,534.34,498.05,582.45,"Čistovická, Prague - Řepy",50.0748191,14.32352,1.0,1.0,,,,,,,,,,,,,,,,,,,,,,,,,,,,,,,,,,,,,,,,,,,,,,,,,,,,,,,,,,,,,,,,,,,,,,,,,,,,,,,,,,,,,,,,,
"CZK 32,000","CZK 7,000",745285,3+kk,10/16/2022,90 m²,Fully furnished,4,1.0,187.59,1595.24,404.65,1829.58,417.97,407.04,957.91,540.74,1139.05,204.97,Prague - Hostivař,50.04425,14.51323,,,,"CZK 45,000",A,New-build,Brick,,,1.0,,,Electric boiler,Luxurious,Up to 10 years,,,,,,,,,,,,,,,,,,,,,1.0,,,,,,,1.0,,,,,,,,,,,,,,,,,,,,,,,,,,,,,,,,,,,,,,,,,,,,,,,,
"CZK 19,000","CZK 2,400",745002,3+kk,11/1/2022,65 m²,Partly,4,1.0,193.25,1008.45,25.5,662.04,61.11,397.89,146.88,259.24,306.97,12.29,"Kovářská, Prague - Libeň",50.10673,14.49094,,,,"CZK 30,000",G,Very good,Brick,,,1.0,,,,,,,,,,,,,,,,,,,,,,,,,,,,,,,,,,,,,,,,,,,,,,,,,,,,,,,,,,,,,,,,,,,,,,,,,,,,,,,,,
"CZK 26,000","CZK 3,900",745284,2+kk,10/16/2022,65 m²,Fully furnished,6,1.0,68.15,507.72,58.44,284.38,12.53,282.72,97.32,228.86,504.31,236.56,Prague - Vršovice,50.07068,14.45817,,,,"CZK 26,000",G,Very good,Brick,,,1.0,,,,,,,,,,,,,,,,,,,,,,,,,,,,,,,,,,,,,,,,,,,,,,,,,,,,,,,,,,,,,,,,,,,,,,,,,,,,,,,,,
"CZK 22,000","CZK 5,500",745280,3+kk,11/1/2022,79 m²,Fully furnished,4,1.0,164.95,771.46,155.86,694.52,109.71,721.7,540.97,344.59,461.78,313.45,"Makovského, Prague - Řepy",50.06486,14.30008,,,,"CZK 43,997",G,Very good,Prefab concrete,,,1.0,,,,,,,,,,,,,,,,,,,,,,,,,,,,,,,,,,,,,,1.0,,,,,,,,,,,,,,,,,,,,,,,,,,,,,,,,,,,,,,,,,,,
"CZK 23,800","CZK 3,200",683821,3+kk,11/1/2022,60 m²,Fully furnished,5,,182.98,933.79,322.66,564.6,139.52,484.66,461.65,302.76,662.29,319.1,"Spolupráce, Prague - Nusle",50.05484,14.44049,,,,"CZK 25,000",G,Very good,Brick,Interior,,,,,Gas boiler,Luxurious,,,,Personal,,,,,,,,,,,,,,,,,,,,,,,,,,,,,,,,,,,,,1.0,,,,,,,,,,,,,,,,,,,,,,,,,,,,,,,,,,,,
"CZK 24,323","CZK 8,107",745276,2 bedroom,12/11/2022,35 m²,Fully furnished,5,,220.05,826.22,174.81,602.88,97.41,601.22,415.82,330.65,569.7,247.12,"Bulharská, Prague - Vršovice",50.0719625,14.461813,,,,,,,,,,,,,,,,,,,,,,,,,,,,,,,,,,,,,,,,,,,,,,,,,,,,,,,,,,,,,,,,,,,,,,,,,,,,,,,,,,,,,,,,,,,
"CZK 24,750","CZK 8,250",744147,1 bedroom,12/4/2022,33 m²,Fully furnished,2,,135.92,324.33,21.29,391.1,0.72,128.36,277.99,286.71,365.94,338.43,"Sokolovská, Prague - Karlín",50.0922065,14.4436651,1.0,1.0,,,,,,,,,,,,,,,,,,,,,,,,,,,,,,,,,,,,,,,,,,,,,,,,,,,,,,,,,,,,,,,,,,,,,,,,,,,,,,,,,,,,,,,,,
"CZK 25,500","CZK 5,000",743359,2+kk,10/23/2022,47 m²,Fully furnished,3,1.0,94.6,720.43,71.85,473.52,480.0,299.37,620.93,407.98,367.97,370.97,"Na Palouku, Prague - Strašnice",50.08065,14.48774,,,,"CZK 50,000",B,New-build,Low-energy,,,1.0,,,Central,Luxurious,,,,,,,,,,,1.0,,,,,,,,,,,1.0,1.0,,,,,,,,,,,,,,,,,,,,,,,,,,,,,,,,,,,,,,,,,,,,,,,,,,,,,,
"CZK 8,000","CZK 4,000",544787,Small studio,9/1/2022,19 m²,Fully furnished,,,96.72,989.4,234.88,512.51,13.45,358.12,365.95,354.86,328.29,225.86,"Rašínovo nábřeží, Prague - Nové Město",50.0688474,14.415003,,,,"CZK 12,000",,Very good,Brick,,,,,,Central,Standard,,,,Personal,,,,,,,,,,,,,,,,,,,,,,,,,,,,,,,,,,,,,,,,,,,,,,,,,,,,,,,,,,,,,,,,,,,,,,,,,
"CZK 28,000","CZK 2,000",567658,2+kk,7/13/2019,64 m²,Partly,2,,49.79,1132.95,616.83,831.4,122.25,724.18,546.24,657.87,146.25,419.32,"V Cibulkách, Prague - Košíře",50.0671646,14.3632991,,,,"CZK 28,000",D,,Brick,,,,,,,,,,,Personal,,,,,,,,,,,,,,,,,,,,,,,,,,,,,,,,,,,,,,,,,,,,,,,,,,,,,,,,,,,,,,,,,,,,,,,,,
"CZK 23,000","CZK 5,500",741849,4+kk,11/1/2022,78 m²,Unfurnished,3,1.0,519.4,978.02,830.76,1069.8,887.2,930.1,1062.06,834.92,1603.37,886.64,Prague - Uhříněves,50.03208,14.58851,1.0,,1.0,"CZK 30,000",G,Very good,Brick,,,1.0,,,Central,Standard,,,,,,,,,,,,,,,,,,,,,,,,,,,,,,,,,,,,,,,,,,,,,,,,,,,,,,,,,,,,,,,,,,,,,,,,,,,,,
"CZK 21,500","CZK 5,100",744670,3+1,11/1/2022,77 m²,Partly,9,1.0,260.8,329.52,209.48,127.19,366.26,427.71,303.69,423.48,487.81,373.54,"Steinerova, Prague - Háje",50.0303,14.53306,,,,"CZK 43,000",G,Very good,Prefab concrete,,,,,,,,,,,,,,,,,,,,1.0,,,,,,,,,,,,,,,1.0,,,,,,,,,,,,,,,,,,,,,,,,,,,,,,,,,,,,,,,,,,,,,,,,,
"CZK 16,000","CZK 4,000",745269,2 bedroom,10/15/2022,56 m²,Partly,1,,653.73,1070.08,688.33,1269.11,813.32,833.38,1014.74,1014.74,468.95,523.0,"U Trati, Prague - Strašnice",50.06606,14.48228,,,,"CZK 16,000",G,Very good,Brick,,,1.0,,,,,,,,,,,,,,,,1.0,,,,,,,,,,,,,,,,,,,,,,,,,,,,,,,,,,,,,,,,,,,,,,,,,,,,,,,,,,,,,,,,,
"CZK 14,000","CZK 2,200",532308,2+kk,,37 m²,Fully furnished,,,120.31,670.22,115.94,484.54,102.35,434.84,563.66,932.19,358.89,307.45,Prague - Holešovice,50.1055882,14.454889,,,,"CZK 14,000",E,Good,Brick,,,,,,Electric boiler,Standard,Over 50 years,,,Cooperative,,,,,,,,,,,,,,,,,,,,,,,,,,,,,,,,,,,,,,,,,,,,,,,,,,,,,,,,,,,,,,,,,,,,,,,,,
"CZK 27,750","CZK 9,250",730836,2+kk,10/31/2022,40 m²,Fully furnished,1,,29.42,633.78,151.61,536.89,130.46,316.51,391.7,900.17,984.89,128.97,"Šporkova, Prague - Malá Strana",50.0876289,14.3978335,,,,,,,,,,,,,,,,,,,,,,,,,,,,,,,,,,,,,,,,,,,,,,,,,,,,,,,,,,,,,,,,,,,,,,,,,,,,,,,,,,,,,,,,,,,
"CZK 20,000","CZK 6,400",745265,Studio,10/15/2022,60 m²,Unfurnished,2,,59.32,832.43,69.96,317.32,265.02,136.84,236.58,732.5,113.02,308.94,Prague - Libeň,50.10804,14.47238,,,,"CZK 40,000",E,Very good,Brick,,,,,,,,,,,,,,,,,,,,,,,,,,,,,,,,,,,,,,,,,,,,,,,,,,,,,,,,,,,,,,,,,,,,,,,,,,,,,,,,,,,,
"CZK 6,400","CZK 1,600",393988,3+1,7/16/2022,16 m²,Fully furnished,2,,133.69,682.09,242.76,711.76,158.18,686.43,657.06,716.87,219.08,404.75,"Na Rovnosti, Prague - Žižkov",50.0877481,14.4893743,,,,CZK 0,,,Prefab concrete,,1.0,,,,,,,,,Cooperative,,,,,,,,,,,,,,,,,,,,,,,,,,,,,,,,,,,,,,,,,,,,,,,,,,,,,,,,,,,,,,,,,,,,,,,,,
"CZK 55,399","CZK 18,466",717682,2+kk,10/19/2022,69 m²,Fully furnished,6,1.0,104.56,349.59,143.75,145.93,108.83,150.53,431.56,393.96,289.53,329.01,"Na Maninách, Prague - Holešovice",50.1025661,14.4522431,1.0,1.0,,,,,,,,,,,,,,,,,,,,,,,,,,,,,,,,,,,,,,,,,,,,,,,,,,,,,,,,,,,,,,,,,,,,,,,,,,,,,,,,,,,,,,,,,
"CZK 15,700",CZK 610,669583,2+kk,11/1/2022,50 m²,Unfurnished,2,,395.27,405.24,223.8,845.79,261.46,156.06,511.55,489.09,525.64,323.05,"V Olšinách, Prague - Strašnice",50.0709,14.48153,,,,"CZK 15,700",G,Good,Brick,,1.0,,,,,,,,,Other,,,,,,,,,,,,,,,,,,,,,,,,,,,,,,,,,,,,,,,,,,,,,,,,,,,,,,,,,,,,,,,,,,,,,,,,,
"CZK 15,000","CZK 3,000",673665,2 bedroom,7/26/2021,54 m²,Unfurnished,2,1.0,216.94,318.35,141.37,299.9,384.48,148.73,210.08,156.02,563.75,160.82,"Mochovská, Prague - Hloubětín",50.10756,14.53865,,,,"CZK 15,000",E,Very good,Brick,,1.0,,1.0,,,,,,,Personal,,,,,,,,,,,,,,,,,,,,,,,,,,,,,,,,,,,,,,,,,,,,,,,,,,,,,,,,,,,,,,,,,,,,,,,,,
"CZK 15,000","CZK 1,500",744629,1 bedroom,11/1/2022,36 m²,Partly,1,,48.14,794.93,78.81,46.38,44.82,101.81,239.83,479.46,237.38,589.18,Prague - Holešovice,50.09992,14.43315,,,,"CZK 15,000",G,Good,Brick,,,1.0,,,,,,,,,,,,,,,,,,,,,,,,,,,,,,,,,,,,,,,,,,,,,,,,,,,,,,,,,,,,,,,,,,,,,,,,,,,,,,,,,
"CZK 37,500","CZK 12,500",740295,2+kk,11/11/2022,60 m²,Fully furnished,4,1.0,239.73,541.75,45.52,270.79,35.61,285.18,465.63,625.46,639.52,581.38,"Mečislavova, Prague - Nusle",50.0633237,14.4440058,,,,,,,,,,,,,,,,,,,,,,,,,,,,,,,,,,,,,,,,,,,,,,,,,,,,,,,,,,,,,,,,,,,,,,,,,,,,,,,,,,,,,,,,,,,
"CZK 14,000","CZK 4,500",745258,1 bedroom,11/1/2022,40 m²,Partly,5,,334.55,965.65,174.62,684.3,197.82,433.6,391.64,161.5,126.26,45.75,"U Školičky, Prague - Libeň",50.10832,14.49069,,,,"CZK 28,000",G,Very good,Brick,,,,,,,,,,,,,,,1.0,,,,,,,,,,,,,,,,,,,,,,,,,,,,,,,,,,,,,,,,,,,,,,,,,,,,,,,,,,,,,,,,,,,,,
"CZK 16,900","CZK 4,000",155003,2 bedroom,11/1/2022,60 m²,Fully furnished,3,,427.69,829.55,591.59,1193.91,612.18,900.67,512.09,134.42,1021.44,323.45,Prague - Smíchov,50.0741843,14.3824809,,,,"CZK 20,000",,Good,Brick,,,,,,,Standard,,,,Personal,,,,,,,,,,,,,,,,,,,,,,,,,,,,,,,,,,,,,,1.0,,,,,,,,,,,,,,,,,,,,,,,,,,,,,,,,,,,
"CZK 25,000","CZK 3,000",740574,2+kk,10/1/2022,50 m²,Fully furnished,2,1.0,181.84,271.59,65.24,146.03,134.72,180.18,306.17,594.3,353.1,492.87,Prague - Holešovice,50.09897,14.42431,,,,"CZK 25,000",G,New-build,Brick,,,,,,,,,,,,,,,,,,,,,,,,,,,,,,,,,,,,,,,,,,,,,,,,,,,,,,,,,,,,,,,,,,,,,,,,,,,,,,,,,,,,
"CZK 48,645","CZK 16,215",732720,3+1,10/19/2022,55 m²,Fully furnished,2,,158.42,248.82,154.82,246.13,112.68,264.3,390.21,408.3,154.53,114.55,"Řásnovka, Prague - Staré Město",50.0918754,14.4250902,,,,,,,,,,,,,,,,,,,,,,,,,,,,,,,,,,,,,,,,,,,,,,,,,,,,,,,,,,,,,,,,,,,,,,,,,,,,,,,,,,,,,,,,,,,
"CZK 52,500","CZK 17,500",731817,2+kk,11/1/2022,80 m²,Fully furnished,3,1.0,281.86,547.59,69.97,211.73,9.84,221.9,245.36,614.41,367.39,520.5,"Ve Smečkách, Prague - Nové Město",50.0795975,14.4273504,,,,,,,,,,,,,,,,,,,,,,,,,,,,,,,,,,,,,,,,,,,,,,,,,,,,,,,,,,,,,,,,,,,,,,,,,,,,,,,,,,,,,,,,,,,
"CZK 37,500","CZK 12,500",733712,2+kk,10/22/2022,56 m²,Fully furnished,5,1.0,240.81,540.67,44.44,271.87,34.53,284.1,466.7,624.38,640.6,582.46,"Mečislavova, Prague - Nusle",50.0633339,14.4440155,,,,,,,,,,,,,,,,,,,,,,,,,,,,,,,,,,,,,,,,,,,,,,,,,,,,,,,,,,,,,,,,,,,,,,,,,,,,,,,,,,,,,,,,,,,
"CZK 33,750","CZK 11,250",735565,2+kk,10/30/2022,45 m²,Fully furnished,2,1.0,210.86,390.29,319.5,985.86,301.65,338.01,858.33,290.45,385.77,539.9,"Strakonická, Prague - Smíchov",50.0643299,14.4102127,,,,,,,,,,,,,,,,,,,,,,,,,,,,,,,,,,,,,,,,,,,,,,,,,,,,,,,,,,,,,,,,,,,,,,,,,,,,,,,,,,,,,,,,,,,
"CZK 14,500","CZK 6,000",745257,2 bedroom,10/15/2022,53 m²,Partly,1,,374.35,1437.32,503.95,1109.66,196.98,491.28,261.81,309.7,329.69,271.13,"Královická, Prague - Strašnice",50.06506,14.51036,,,,"CZK 29,000",G,Very good,Brick,,,,,,,,,,,,,,,,,,,,,,,,,1.0,,,,,,,,,,,,,,,,,,,,,,,,,,,,,,,,,,,,,,,,,,,,,,,,,,,,,,,,,,,
"CZK 12,500","CZK 3,000",494253,2+kk,10/16/2022,47 m²,Partly,2,,285.2,1689.92,878.2,1448.79,330.4,1122.04,569.84,1183.18,1724.78,577.25,"Převoznická, Prague - Modřany",50.009959,14.4040533,,,,"CZK 20,000",G,,Brick,,,,,,Central,Standard,,,,Personal,,,,,,,,,,,,,,,,,,,,,,,,,,,,,,,,,,,,,,,,,,,,,,,,,,,,,,,,,,,,,,,,,,,,,,,,,
"CZK 12,000","CZK 4,000",745255,1 bedroom,10/15/2022,45 m²,Partly,2,,136.44,1065.98,296.3,310.66,289.99,303.57,603.89,77.7,559.57,42.09,"Kettnerova, Prague - Stodůlky",50.04719,14.32164,,,,"CZK 20,000",B,Good,Prefab concrete,,,1.0,1.0,1.0,,,,,,,,,,,,,,,,,,,,,,,,,,,,,,,,,,,,,,,,,,,,,,,,,,,,,,,,,,,,,,,,,,,,,,,,,,,,,,,
"CZK 10,000","CZK 3,000",553798,1 bedroom,11/1/2022,46 m²,Fully furnished,,,344.73,435.92,308.8,2160.58,404.96,562.05,785.34,420.93,656.24,175.21,"Plukovníka Mráze, Prague - Hostivař",50.0527986,14.5423513,,,,"CZK 20,000",,,Prefab concrete,,,,,,Central,,,,,Personal,,,,,,,,,,,,,,,,,,,,,,,,,,,,,,,,,,,,,,,,,,,,,,,,,,,,,,,,,,,,,,,,,,,,,,,,,
"CZK 18,000","CZK 4,000",743189,Studio,9/30/2022,27 m²,Fully furnished,3,1.0,640.2,2301.2,658.92,2161.71,735.95,2237.09,1279.01,3846.78,3469.94,28.65,Prague - Újezd u Průhonic,50.00866,14.54417,1.0,,,"CZK 30,000",B,New-build,Brick,,,1.0,,,,,,,,,,,,,,,1.0,,,,,,,,,,,1.0,,,,,,,,,,,,,,,,,,,,,,,,,,,,,,,,,,,,,,,,,,,,,,,,,,,,,,,
"CZK 29,279","CZK 9,760",741128,1 bedroom,10/23/2022,48 m²,Fully furnished,3,1.0,107.08,199.76,133.64,104.94,106.11,,312.74,774.3,461.94,541.92,"Senovážné náměstí, Prague - Nové Město",50.0855469,14.4290625,,,,,,,,,,,,,,,,,,,,,,,,,,,,,,,,,,,,,,,,,,,,,,,,,,,,,,,,,,,,,,,,,,,,,,,,,,,,,,,,,,,,,,,,,,,
"CZK 74,813","CZK 24,937",740299,4+1,11/13/2022,136 m²,Fully furnished,3,1.0,305.35,603.07,123.44,366.02,52.59,406,368.79,628.46,396.1,92.23,"Betlémská, Prague - Staré Město",50.0837893,14.416317,,,,,,,,,,,,,,,,,,,,,,,,,,,,,,,,,,,,,,,,,,,,,,,,,,,,,,,,,,,,,,,,,,,,,,,,,,,,,,,,,,,,,,,,,,,
"CZK 16,000","CZK 5,000",744613,2+kk,11/1/2022,45 m²,Fully furnished,3,,426.62,893.56,186.34,488.2,428.94,967.96,324.34,238.03,901.79,323.74,"Družnosti, Prague - Nusle",50.05583,14.4469,,,,"CZK 30,000",C,Very good,Brick,,,,,,,,,,,,,,,,,,,,,,,,,,,,,,,,,,,,,,,,,,,,,,,,,,,,,,,,,,,,,,,,,,,,,,,,,,,,,,,,,,,,
"CZK 13,900","CZK 2,898",544719,Studio,10/17/2022,37 m²,Partly,3,1.0,171.2,946.91,36.21,872.02,472.92,320.79,446.48,323.07,1004.22,55.18,"Makedonská, Prague - Střížkov",50.1291352,14.4935568,,,,"CZK 28,000",,,Brick,,,,,,Distance,Luxurious,Up to 10 years,,,Personal,,,,1.0,,,,,,,,,,1.0,,,,1.0,,,,,,,,,,,,,,,,,,,,,,,,,,,,,,,,,,,,,,,,,,,,,,,,,,,,,,,
"CZK 7,500",CZK 0,745249,4+kk,10/29/2022,84 m²,Fully furnished,4,,133.49,408.23,199.41,429.98,3.55,383.83,496.91,219.52,433.95,108.87,"Ronkova, Prague - Libeň",50.10576,14.477,,,,"CZK 7,000",G,Good,Brick,,,,,,,,,,,,,,,,,,,,,,,,,,,,,,,,,,,,,,,,,,,,,,,,,,,,,,,,,,,,,,,,,,,,,,,,,,,,,,,,,,,,
"CZK 19,575","CZK 6,525",744346,2 bedroom,12/1/2022,70 m²,Fully furnished,6,1.0,73.01,281.28,58.33,478.54,20.37,379.07,102.37,138.49,668.56,481.36,"Francouzská, Prague - Vinohrady",50.0739894,14.440101,,,,,,,,,,,,,,,,,,,,,,,,,,,,,,,,,,,,,,,,,,,,,,,,,,,,,,,,,,,,,,,,,,,,,,,,,,,,,,,,,,,,,,,,,,,
"CZK 23,978","CZK 7,992",731157,Studio,12/1/2022,30 m²,Fully furnished,3,1.0,99.26,361.63,490.78,556.87,427.65,345.52,452.0,519.02,404.9,293.38,"Olšanská, Prague - Žižkov",50.0830187,14.4654473,,,1.0,,,,,,,,,,,,,,,,,,,,,,,,,,,,,,,,,,,,,,,,,,,,,,,,,,,,,,,,,,,,,,,,,,,,,,,,,,,,,,,,,,,,,,,,
"CZK 18,500","CZK 2,973",745244,Studio,10/31/2022,46 m²,Partly,4,1.0,106.39,1031.64,62.02,489.56,102.35,469.58,272.31,414.34,298.59,124.25,"U Svobodárny, Prague - Libeň",50.10581,14.48876,,,,"CZK 37,000",C,Very good,Low-energy,,,,,1.0,,,,,,,,,,,,,,,,,,,,1.0,,,,,,,,,,,,,,,,,,,,,,,,,,,,,,,,,,,,,,,,,,,,,,,,,,,,,,,,,,,
"CZK 14,500","CZK 5,500",616170,2+kk,11/1/2022,57 m²,Partly,4,1.0,139.22,320.26,10.8,282.52,13.88,182.74,160.33,272.28,1073.39,167.53,"Petržílkova, Prague - Stodůlky",50.051217,14.344356,,,,"CZK 20,000",B,Very good,Other,,,,,,Distance,,,,,Personal,,,,,,,,,,,,,,1.0,,,,,,,,,,,,,,,,,,,,,,,,,,,,,,,,,,,,,,,,,,,,,,,,,,,,,,,,,,,
"CZK 16,490","CZK 2,900",717564,Studio,1/1/2023,33 m²,Partly,1,1.0,35.91,299.47,79.06,1208.1,163.63,1043.04,191.46,606.95,391.26,214.48,"Wassermannova, Prague - Hlubočepy",50.02801,14.36646,,,,"CZK 30,000",B,New-build,Brick,,,,,,Distance,Standard,Up to 10 years,,,Personal,,,,,,,,,,,,1.0,,,,,,1.0,,,,,,,,,,,,,,,,,,,,,1.0,,,,,,,,,,,,,,,,,,,,,,,,,,,,,,,,,,
"CZK 27,990",CZK 600,745241,3+kk,10/15/2022,76 m²,Partly,4,,335.24,381.26,96.98,310.76,230.33,229.72,245.91,762.53,136.02,332.04,"Malířská, Prague - Bubeneč",50.10195,14.42523,,,,"CZK 27,990",C,Very good,Brick,,,,,,,,,,,,,,,,,,,,,,,,,,,,,,,,,,,,,,,,,,,,,,,,,,,,,,,,,,,,,,,,,,,,,,,,,,,,,,,,,,,,
"CZK 20,000","CZK 5,000",745240,3+1,11/1/2022,70 m²,Unfurnished,1,1.0,149.83,844.68,139.84,622.57,176.91,228.25,446.42,786.81,356.08,259.58,"Na Hroudě, Prague - Strašnice",50.0707,14.4871,,,,"CZK 40,000",G,Good,Brick,,,1.0,,,,,,,,,,,,,,,,1.0,,,,,,,,,,,,,,,,,,,,,,,,,,,,,,,,,,,,,,,,,,,,,,,,,,,,,,,,,,,,,,,,,
"CZK 19,000",CZK 1,744404,2+kk,10/14/2022,62 m²,Partly,1,,356.22,2642.41,868.67,5165.2,881.11,5034.06,1409.18,4690.23,2460.27,1020.21,Prague - Uhříněves,50.04535,14.59727,,,,CZK 2,B,New-build,Brick,,,,,,Electric boiler,Luxurious,Up to 10 years,,,Personal,,,,,,,,,,,,,,,,,,,,,,,,,,,,,,,,,,,,,,,,,,,,,,,,,,,,,,,,,,,,,,,,,,,,,,,,,
"CZK 16,000","CZK 4,000",745239,2+kk,10/15/2022,55 m²,Partly,3,1.0,171.57,512.12,1.14,255.77,119.63,255.54,518.97,468.76,603.22,634.19,"Čestmírova, Prague - Nusle",50.06427,14.44503,,,,"CZK 20,000",G,Very good,Brick,,,,,,,,,,,,,,,,,,,,,,,,,,,,,,,,,,,,,,,,,,,,,,,,,,,,,,,,,,,,,,,,,,,,,,,,,,,,,,,,,,,,
"CZK 12,500","CZK 3,000",744592,Studio,10/10/2022,26 m²,Fully furnished,1,,190.94,828.0,162.78,384.5,299.57,240.88,241.0,664.14,259.21,251.02,"Na Rokytce, Prague - Libeň",50.10828,14.47396,,,,"CZK 30,000",B,Very good,Brick,Complete,,,,,Electric boiler,,Up to 10 years,,,,,,,,,,,,,,,,,,,,,1.0,,,,,,,,,,,,,,,,,,,,,,,,,,,,,,,,,,,,,,,,,,,,,,,,,,,,,,,
"CZK 15,000","CZK 5,000",627305,2+kk,11/1/2022,45 m²,Partly,2,,151.1,271.72,850.99,5144.62,273.84,832.78,729.99,457.14,429.6,75.42,"Čeperská, Prague - Vinoř",50.141882,14.576502,,,,"CZK 20,000",B,Very good,Prefab concrete,Complete,,,,,,Standard,,,,Other,,,,,,,,1.0,,,,,,,,,,,,,,,,,,,,,,,,,,,,,,,,,,,,,,,,,,,,,,,,,,,,,,,,,,,,,,,,,
"CZK 25,000","CZK 4,000",744591,2+kk,10/10/2022,46 m²,Fully furnished,,,,,,,,,,,,,"K Sádkám, Prague - Velká Chuchle",50.00298,14.39651,,,,"CZK 29,000",D,Very good,Prefab concrete,,,1.0,,,,,,,,,,,,,,,,,,,,,,,,,,,,,,,,,,,,,,,,,,,,,,,,1.0,1.0,1.0,,,,,,,,,,,,,,,,,,,,,,,,,,,,,,,
"CZK 36,000","CZK 5,000",726296,3+kk,11/1/2022,99 m²,Fully furnished,4,1.0,122.94,258.58,133.88,395.37,98.69,163.66,345.48,354.2,447.9,243.26,Prague - Karlín,50.09334,14.44557,,,,"CZK 41,000",A,Very good,Brick,,,,,,,,,,,,,,,,,,1.0,,,,,,,,,,,,1.0,,,,,,,,,,,,,,,,,,,,,,,,,,,,,,,,,,,,,,,,,,,,,,,,,,,,,,
"CZK 19,900","CZK 4,500",494174,2+kk,12/1/2022,61 m²,Partly,2,1.0,308.79,839.48,804.3,2812.99,601.23,785.36,645.06,3713.64,682.85,604.9,"Laudonova, Prague - Štěrboholy",50.0740132,14.5514762,,,1.0,"CZK 49,000",B,,Brick,,,,1.0,,,Standard,10 to 30 years,,,Personal,,,,,,,,,,,,,,,,,,,,,,,,,,,,,,,,,,,,1.0,,,,,,,,,,,,,,,,,,,,,,,,,,,,,,,,,,,,,
"CZK 35,000","CZK 8,000",745234,3+kk,10/15/2022,155 m²,Fully furnished,,1.0,436.84,1817.25,24.08,1118.51,385.48,386.79,770.49,285.66,355.82,733.32,"Heinemannova, Prague - Dejvice",50.11185,14.39179,,,,"CZK 70,000",B,New-build,Brick,,,1.0,,,,,,,,,,,,,,,,,1.0,,,,,,,,,1.0,,,,,,,,,,,,,,,,,,,,,,,,,1.0,,,,,,,,,,,,,,,,,,,,,,,,,,,,,,
"CZK 45,750","CZK 15,250",744738,3+1,10/19/2022,72 m²,Fully furnished,1,,259.15,217.0,193.62,285.29,113.57,307.09,74.34,930.42,156.52,482.04,"Růžová, Prague - Nové Město",50.0835446,14.4307958,,,,,,,,,,,,,,,,,,,,,,,,,,,,,,,,,,,,,,,,,,,,,,,,,,,,,,,,,,,,,,,,,,,,,,,,,,,,,,,,,,,,,,,,,,,
"CZK 14,500","CZK 1,744",628460,Studio,10/16/2022,43 m²,Unfurnished,1,1.0,327.31,584.04,205.09,356.41,172.42,367.7,158.25,176.48,373.62,150.08,"Kamenická, Prague - Holešovice",50.0976,14.427997,,,,"CZK 14,500",G,Good,Brick,,,,,,Distance,,,,,Personal,,,,,,,,,,,,,,,,,,,,,,,,,,,,,,,,,,,,,,,,,,,,,,,,,,,,,,,,,,,,,,,,,,,,,,,,,
"CZK 14,500","CZK 3,500",745232,2+kk,10/15/2022,56 m²,Partly,1,1.0,126.48,328.18,174.97,78.88,119.78,63.47,650.42,747.48,347.0,337.93,"Paříkova, Prague - Vysočany",50.11063,14.4977,,,,"CZK 20,000",C,New-build,Brick,,,,,,,,,,,,,,,,,,,,,,,,,,,,,,,,,,,,,,,,,,,,,,,,,,,,,,,,,,,,,,,,,,,,,,,,,,,,,,,,,,,,
"CZK 31,000","CZK 5,000",743999,2 bedroom,10/5/2022,61 m²,Fully furnished,3,1.0,252.45,189.39,99.26,212.81,108.66,57.97,308.91,463.68,1207.96,276.0,"Kladenská, Prague - Vokovice",50.09632,14.35907,,,,"CZK 62,000",C,Very good,Brick,Complete,,1.0,,,Central,Luxurious,,,,,,,,,,,1.0,,,,,,,,,,,1.0,,,,,,,,,,,,,,,,,,,,,,,,,,,,,,,,,,,,,,,,,,,,,,,,,,,,,,,
"CZK 15,000","CZK 2,500",700489,Studio,11/1/2022,28 m²,Fully furnished,4,1.0,467.81,610.06,423.69,551.7,342.85,540.66,768.7,708.5,440.72,384.7,"Ocelářská, Prague - Vysočany",50.1069733,14.497176624888,,,,"CZK 15,000",B,New-build,Brick,,,,,,,,,,,Personal,,,,,,,1.0,,,,,,,,,,,1.0,1.0,1.0,,,,,,,,,,,,,,,,,,,,,,,,,,,,,,,,,,,,,,,,,,,,,,,,,,,,,
"CZK 15,990","CZK 2,500",621567,2+kk,11/1/2022,55 m²,Fully furnished,3,,91.39,310.67,92.06,91.12,15.07,54.1,374.99,679.58,586.87,437.09,"Čestmírova, Prague - Nusle",50.064342,14.442252,,,,"CZK 18,500",C,New-build,Brick,Complete,1.0,1.0,,,Central,Luxurious,Up to 10 years,,,Personal,,,,,,,,,,,,,,,,,,,,,,,,,,,,,,,,,,,,,,,,,,,,,,,,,,,,,,,,,,,,,,,,,,,,,,,,,
"CZK 25,500","CZK 4,400",565913,3+kk,7/1/2019,91 m²,Partly,5,1.0,290.46,1247.59,1124.79,2529.49,92.33,396.92,721.61,1660.1,1534.23,172.0,"V Zeleném údolí, Prague - Kunratice",50.0214074,14.4662731,,,1.0,"CZK 55,000",C,Very good,Brick,,,1.0,,,Distance,Luxurious,10 to 30 years,,,Personal,,,,,,,,,,,,,,1.0,,,,1.0,,,,,,,,,,,,,,,,,,,,,,,,,,1.0,,,,,,,,,,,,,,,,,,,,,,,,,,,,,
"CZK 29,580","CZK 9,860",740891,1 bedroom,11/16/2022,40 m²,Fully furnished,7,1.0,87.51,353.67,89.15,198.61,58.78,391,424.89,274.26,259.72,601.24,"Zborovská, Prague - Smíchov",50.0730365,14.4083833,,,,,,,,,,,,,,,,,,,,,,,,,,,,,,,,,,,,,,,,,,,,,,,,,,,,,,,,,,,,,,,,,,,,,,,,,,,,,,,,,,,,,,,,,,,
"CZK 61,988","CZK 20,662",742058,4+1,10/19/2022,219 m²,Fully furnished,6,1.0,122.69,292.83,150.02,222.27,31.53,246.25,406.08,512.95,283.22,254.06,"Křižíkova a, Prague - Karlín",50.0928722,14.4500782,1.0,1.0,1.0,,,,,,,,,,,,,,,,,,,,,,,,,,,,,,,,,,,,,,,,,,,,,,,,,,,,,,,,,,,,,,,,,,,,,,,,,,,,,,,,,,,,,,,,
"CZK 36,675","CZK 12,225",742243,2+kk,11/25/2022,48 m²,Fully furnished,2,1.0,170.48,421.6,257.32,426.75,52.86,339.7,54.65,63.39,473.33,754.41,"Balbínova, Prague - Vinohrady",50.0795659,14.4357789,,,,,,,,,,,,,,,,,,,,,,,,,,,,,,,,,,,,,,,,,,,,,,,,,,,,,,,,,,,,,,,,,,,,,,,,,,,,,,,,,,,,,,,,,,,
"CZK 27,600","CZK 9,200",745022,Studio,12/12/2022,35 m²,Fully furnished,1,1.0,237.21,722.71,270.23,1114.48,162.06,485.4,549.42,612.82,571.2,287.12,"U Nikolajky, Prague - Smíchov",50.0656652,14.3917771,1.0,1.0,1.0,,,,,,,,,,,,,,,,,,,,,,,,,,,,,,,,,,,,,,,,,,,,,,,,,,,,,,,,,,,,,,,,,,,,,,,,,,,,,,,,,,,,,,,,
"CZK 14,000","CZK 2,523",471504,Studio,12/1/2022,34 m²,Partly,2,,205.76,1151.67,496.99,3761.55,186.62,473.71,891.0,3184.2,1049.62,248.14,Prague - Dolní Měcholupy,50.0671011,14.5518474,,,,"CZK 20,000",,,Brick,,,,,,,,,,,Personal,,,,,,,,,,,1.0,,,,,,,,,,,,,,,,,,,,,,,,,,,,,,,,,,,,,,,,,,,,,,,,,,,,,,,,,,,,,,
"CZK 23,000","CZK 3,000",586897,2 bedroom,12/1/2022,65 m²,Partly,2,,314.59,438.63,213.56,333.02,191.17,290.08,265.12,461.03,725.05,219.96,"Herálecká I, Prague - Krč",50.045743,14.44413,,,,"CZK 46,000",,Very good,Brick,Complete,,1.0,,,Central,,,,,Personal,,,,,,,,,1.0,,,,,,,,,,,,,,,,,,,,,,,,,,,,,,,,,,,,,,,,,,,,,,,,,,,,,,,,,,,,,,,,
"CZK 24,500","CZK 3,000",745209,3+kk,1/1/2023,58 m²,Fully furnished,3,1.0,123.93,1019.24,125.91,504.12,326.9,146.6,363.86,919.31,224.05,242.87,Prague - Libeň,50.11009,14.47243,,,,"CZK 45,000",G,Very good,Brick,,,,,1.0,,,,,,,,,,,,,,,,,,,,,,,,,,,,,,,,,,,,,,,1.0,,,,,,,,,,,,,,,,,,,,,,,,,,,,,,,,,,,,,,,,
"CZK 19,000","CZK 6,000",656583,2+kk,11/1/2022,55 m²,Fully furnished,2,,192.6,733.92,53.28,438.57,40.26,457.21,180.39,746.79,813.02,451.73,"Plzeňská, Prague - Smíchov",50.07247,14.39535,,,,CZK 25,A,Very good,Other,,,,,,,,,,,Personal,,,,,,,,,,,,,,,,,,,,,,,,,,,,,,,,,,,,,,,,,,,,,,,,,,,,,,,,,,,,,,,,,,,,,,,,,
"CZK 23,250","CZK 7,750",745101,1 bedroom,10/19/2022,47 m²,Fully furnished,4,1.0,221.85,688.71,100.73,284.48,6.38,262.8,199.69,287.83,377.81,430.7,"V Jirchářích, Prague - Nové Město",50.080113730356,14.416184905557,,,,,,,,,,,,,,,,,,,,,,,,,,,,,,,,,,,,,,,,,,,,,,,,,,,,,,,,,,,,,,,,,,,,,,,,,,,,,,,,,,,,,,,,,,,
"CZK 18,000","CZK 3,000",743958,Studio,10/4/2022,35 m²,Partly,2,1.0,249.44,775.46,296.54,454.56,346.44,471.4,754.24,623.73,388.52,189.67,"Počernická, Prague - Strašnice",50.07918,14.48536,1.0,1.0,1.0,"CZK 35,000",B,New-build,Low-energy,,,1.0,,,,,,,,,,,,,,,1.0,,,,,,,,,,,1.0,,,,,,,,,,,,,,,,,,,,,,,,,,,,,,,,,,,,,,,,,,,,,,,,,,,,,,,
"CZK 13,000","CZK 4,000",742291,1 bedroom,9/28/2022,44 m²,Fully furnished,1,,163.95,1722.02,170.35,1636.19,14.5,1666.87,744.08,505.76,301.26,241.95,Prague - Hlubočepy,50.04089,14.39207,,,,"CZK 15,000",G,Very good,Brick,,,1.0,,,,,,,,,,,,,,,,,,,,,,,,,,,,,,,,,,,,,,,,,,,,,,,,,,,,,,,,,,,,,,,,,,,,,,,,,,,,,,,,,
"CZK 39,000","CZK 4,000",745205,5+1,10/24/2022,133 m²,Partly,3,1.0,82.77,526.39,40.08,236.08,22.64,168.91,620.99,581.12,566.57,532.49,Prague - Smíchov,50.0697,14.40529,,,,"CZK 41,000",C,Very good,Brick,,,,,,,,,,,,1.0,,,,,,,,,,,1.0,,,,,,,,,,,,,,,,,,,,,,,,,,,,,,,,,,,,,,,,,,,,,,,,,,,,,,,,,,,,,
"CZK 18,000","CZK 1,500",744935,2 bedroom,11/1/2022,52 m²,Fully furnished,1,,435.24,565.8,292.66,547.35,412.6,396.18,442.24,161.45,587.49,220.13,"Zelenečská, Prague - Hloubětín",50.1084,14.53416,,,,"CZK 20,000",C,Very good,Brick,,,1.0,,,Central,Standard,,,,Personal,,,,,,,,,,,1.0,,,,,,,,,,,,,,,,,,,,,,,,,,,,,,,,,,,,,,,,,,,,,,,,,,,,,,,,,,,,,,
"CZK 22,000","CZK 2,598",744528,5+kk,10/9/2022,129 m²,Partly,5,,366.99,1311.97,89.88,1542.43,384.36,198.29,388.67,997.74,2315.86,124.16,"Rohožnická, Prague - Újezd nad Lesy",50.07071,14.67748,,,1.0,"CZK 24,598",C,Very good,Brick,,,1.0,,,,Standard,10 to 30 years,,,,,,,,,,,1.0,,,,,,,,,,,,,,,,,,,,,,,,,,,,1.0,,,,,,,,,,,,,,,,,,,,,,,,,,,,,,,,,,,,,
"CZK 28,493","CZK 9,497",742401,2+kk,10/31/2022,53 m²,Fully furnished,3,1.0,202.93,1083.69,84.41,522.08,140.61,459.37,143.09,392.14,304.14,134.72,"Drahobejlova, Prague - Libeň",50.1057951,14.4902938,,,1.0,,,,,,,,,,,,,,,,,,,,,,,,,,,,,,,,,,,,,,,,,,,,,,,,,,,,,,,,,,,,,,,,,,,,,,,,,,,,,,,,,,,,,,,,
"CZK 17,900","CZK 3,900",530507,2+kk,10/16/2022,59 m²,Fully furnished,3,1.0,151.24,621.32,71.83,397.98,85.53,396.32,175.59,342.46,672.63,333.2,Prague - Vršovice,50.0715994,14.4577766,,,,"CZK 25,000",B,Very good,Brick,Complete,,,,,Central,Standard,Up to 10 years,,,Personal,,,,,,,,,,,,,,,,,,,,,,,,,,,,,,,,,,,,,,,,,,,,,,,,,,,,,,,,,,,,,,,,,,,,,,,,,
"CZK 30,000","CZK 10,000",718922,Studio,10/19/2022,45 m²,Fully furnished,5,1.0,241.61,542.2,98.71,270.79,176.01,313.55,455.64,821.55,633.96,593.3,"Mečislavova, Prague - Nusle",50.0633237,14.4440058,,,,,,,,,,,,,,,,,,,,,,,,,,,,,,,,,,,,,,,,,,,,,,,,,,,,,,,,,,,,,,,,,,,,,,,,,,,,,,,,,,,,,,,,,,,
"CZK 19,990","CZK 1,338",745196,2+kk,10/17/2022,50 m²,Unfurnished,4,,161.74,886.21,70.29,233.21,24.36,206.26,288.11,242.58,561.86,473.24,"Biskupcova, Prague - Žižkov",50.08975722222,14.47122972222,,,,"CZK 21,328",G,Very good,Brick,,,,,,,,,,,Personal,,,,,"CZK 21,328",,,,,,,,,,,,,,,,,,,,,,,,,,,,,,,,,,,,,,,,,,,,,,,,,,,,,,,,,,,,,,,,,,,,
"CZK 19,000","CZK 4,500",745193,2+kk,12/1/2022,59 m²,Partly,1,1.0,181.84,271.59,65.24,146.03,134.72,180.18,306.17,594.3,353.1,492.87,"Dobrovského, Prague - Holešovice",50.09897,14.42431,,,,"CZK 19,000",G,Very good,Brick,,,,,,,,,,,,,,,,,,,,,,,,,,,,,,,,,,,,,,,,,,,,,,,,,,,,,,,,,,,,,,,,,,,,,,,,,,,,,,,,,,,,
"CZK 13,000","CZK 3,500",563640,Studio,11/1/2022,25 m²,Fully furnished,2,1.0,286.81,574.89,38.48,341.92,12.17,299.81,391.88,282.98,620.19,292.25,"Sudoměřská, Prague - Žižkov",50.0799478,14.458484,,,,"CZK 26,000",,Very good,Brick,Complete,,,,,Other,Standard,,,,Personal,,1.0,,,,,,,,,,,,,,,,,,,,,,,,,,,,,,,,,,,,,,,,,,,,,,,,,,,,,,,,,,,,,,,,,,,,,,,
"CZK 25,000","CZK 3,000",745188,2 bedroom,10/14/2022,87 m²,Partly,1,,408.04,444.74,55.68,471.68,144.85,224.98,459.95,556.21,604.36,651.52,Prague - Žižkov,50.08238,14.44813,,,,"CZK 50,000",G,Very good,Brick,,,1.0,,,,,,,,Personal,,,,,,,,,,,,,,,,,,,,,,,,,,,,,,,,,,,,,,,,,,,,,,,,,,,,,,,,,,,,,,,,,,,,,,,,,
"CZK 25,000","CZK 7,500",745187,3+kk,11/14/2022,84 m²,Partly,7,1.0,358.11,1274.59,648.44,1061.38,636.12,1151.2,941.1,351.64,1295.74,639.6,"Černochova, Prague - Košíře",50.063,14.37985,,,1.0,"CZK 40,000",G,New-build,Other,,,,1.0,,,,,,,,,,,,,,,,,,,,,,,,,,,,,,,,,,,,,,,,,,,,,,,,,,,,1.0,,,,,,,,,,,,,,,,,,,,,,,,,,,,
"CZK 10,500","CZK 4,000",744933,Studio,12/1/2022,30 m²,Unfurnished,5,1.0,178.3,209.53,124.15,85.49,1.79,247.89,87.16,106.83,895.52,318.46,Prague - Vinohrady,50.07674,14.45376,,,,"CZK 14,500",D,Good,Brick,,,,,,,,,,,,,,,,,,,,,,,,,,,,,,,,,,,,,,,,,,,,,,,,,,,,,,,,,,,,,,,,,,,,,,,,,,,,,,,,,,,,
"CZK 17,000","CZK 2,400",744507,Studio,11/1/2022,52 m²,Fully furnished,1,,90.73,429.66,101.97,68.33,114.69,18.17,349.61,424.14,381.64,451.08,Prague - Vinohrady,50.07556,14.43135,,,,"CZK 17,000",G,Very good,Other,,,,,,,,,,,,,,,,,,,,,,,,,,,,,,,,,,,,,,,,,,,,,,,,,,,,,,,,,,,,,,,,,,,,,,,,,,,,,,,,,,,,
"CZK 12,000","CZK 3,500",745185,Studio,10/14/2022,34 m²,Fully furnished,2,1.0,276.63,664.41,559.68,728.22,768.26,804.69,356.08,483.36,1132.77,185.38,"Nevanova, Prague - Řepy",50.06566,14.31544,,,,"CZK 15,500",G,Good,Prefab concrete,,,,,,Central,,,,,,,,,,,,,,,,,,,,,,,,,,,,,,,,,,,,,,,,,,,,,,,,,,,,,,,,,,,,,,,,,,,,,,,,,,,,,,
"CZK 48,435","CZK 16,145",730649,3+1,10/20/2022,108 m²,Fully furnished,3,1.0,170.36,424.31,260.04,428.7,73.65,305.75,38.65,29.43,439.38,720.46,"Balbínova, Prague - Vinohrady",50.0795643,14.4361068,,,,,,,,,,,,,,,,,,,,,,,,,,,,,,,,,,,,,,,,,,,,,,,,,,,,,,,,,,,,,,,,,,,,,,,,,,,,,,,,,,,,,,,,,,,
"CZK 38,250","CZK 12,750",733049,3+kk,11/11/2022,78 m²,Fully furnished,5,1.0,122.69,292.83,150.02,222.27,31.53,246.25,406.08,512.95,283.22,254.06,"Křižíkova a, Prague - Karlín",50.0928722,14.4500782,1.0,1.0,1.0,,,,,,,,,,,,,,,,,,,,,,,,,,,,,,,,,,,,,,,,,,,,,,,,,,,,,,,,,,,,,,,,,,,,,,,,,,,,,,,,,,,,,,,,
"CZK 35,175","CZK 11,725",728156,2+kk,12/12/2022,50 m²,Fully furnished,3,1.0,75.01,890.63,40.68,622.44,47.2,145.83,371.43,242.4,512.42,352.71,"Kubelíkova, Prague - Žižkov",50.0815843,14.4461973,,,,,,,,,,,,,,,,,,,,,,,,,,,,,,,,,,,,,,,,,,,,,,,,,,,,,,,,,,,,,,,,,,,,,,,,,,,,,,,,,,,,,,,,,,,
"CZK 17,000","CZK 3,000",680619,2+kk,9/10/2022,42 m²,Fully furnished,4,1.0,366.0,749.46,232.71,850.17,282.07,440.67,709.99,695.67,470.69,307.11,"U Hranic, Prague - Strašnice",50.06921075,14.484043897371,1.0,,,"CZK 20,000",G,New-build,Brick,,,,,,Central,,Up to 10 years,,,Personal,,,,,,,1.0,,,,,,,,,,,,,,,,,,,,,,,,,,,,,,,,,,,,,,,,,,,,,,,,,,,,,,,,,,,,,,,,,,
"CZK 16,000","CZK 3,000",575329,2+kk,11/1/2022,55 m²,Fully furnished,2,,151.26,810.17,31.92,789.54,794.23,814.21,982.67,922.44,923.03,93.88,"Na Groši, Prague - Hostivař",50.0579743,14.5194548,,,,"CZK 35,000",G,Very good,Brick,,,1.0,,,,Standard,10 to 30 years,,,Personal,,,,,,,,,,,,,,,,,,,,,,,,,,,,,,,,,,,,,,,,,,,,,,,,,,,,,,,,,,,,,,,,,,,,,,,,,
"CZK 17,000","CZK 5,600",743404,2+kk,12/1/2022,41 m²,Fully furnished,1,1.0,185.4,1147.42,553.91,1089.01,228.24,1180.13,934.98,744.87,369.73,188.5,Prague - Záběhlice,50.05411,14.48379,,,,"CZK 20,000",G,Very good,Brick,,,,,1.0,,,,,,,,,,,,,,,,,,,,,,,,,,,,,,,,,,,,,,,,,,,,,,,,,,,,,,,,,,,,,,,,,,,,,,,,,,,,,,,
"CZK 16,000","CZK 3,000",745184,Studio,10/14/2022,41 m²,Partly,3,1.0,163.17,1207.7,144.94,1028.4,589.6,806.96,441.09,141.66,920.22,151.7,"Štěchovická, Prague - Strašnice",50.07241,14.50343,,,,"CZK 16,000",B,New-build,Brick,,,,,1.0,,,,,,Personal,1.0,,,,,,,,,,,1.0,,,,,,1.0,,,,,,,,,,,,,,,,,,,,,,,,,,,,,,,,,,,,,,,,,,,,,,,,,,,,,,,
"CZK 28,500","CZK 5,900",742196,3+kk,9/25/2022,63 m²,Partly,4,1.0,549.23,662.36,441.09,761.17,468.73,740,498.65,448.69,636.62,748.27,Prague - Vinohrady,50.06851,14.43809,,,,"CZK 50,000",B,New-build,Brick,Complete,,1.0,,1.0,Electric boiler,Luxurious,Up to 10 years,,,,,,,,,,,,,,,,,,,,,1.0,,,,,,,,,,,,,,,,,,,,,,,,,,,,,,,,,,,,,,,,,,,,,,,,,,,,,,,
"CZK 7,500","CZK 3,500",745177,Small studio,10/14/2022,19 m²,Fully furnished,1,,391.04,721.52,424.07,578.95,460.79,710.82,519.5,879.61,24.76,430.59,"Pod Klaudiánkou, Prague - Podolí",50.05462,14.42221,,,,"CZK 7,500",G,Good,Brick,,,,,,,,,,,,,,,,,,,,,,,,,,,,,,,,,,,,,,,,,,,,,,,,,,,,,,,,,,,,,,,,,,,,,,,,,,,,,,,,,,,,
"CZK 14,000","CZK 3,000",382611,2+kk,2/1/2023,42 m²,Partly,4,,45.17,440.51,90.3,2177.66,73.74,714.59,331.66,479.49,1376.27,374.32,"Branická, Prague - Braník",50.0401361,14.4106121,,,,"CZK 25,000",,Very good,Brick,,,,,,,,,,,Personal,,,,,,,,,1.0,,,,,,,,,,,,,,,,,,,,,,,,,,,,,,,,,,,,,,,,,,,,,,,,,,,,,,,,,,,,,,,,
"CZK 59,250","CZK 19,750",717599,4+kk,10/19/2022,90 m²,Fully furnished,2,1.0,140.09,527.92,223.64,125.85,37.89,66.77,510.79,1001.31,1180.94,559.23,"Stroupežnického, Prague - Smíchov",50.0710929,14.4032595,,,,,,,,,,,,,,,,,,,,,,,,,,,,,,,,,,,,,,,,,,,,,,,,,,,,,,,,,,,,,,,,,,,,,,,,,,,,,,,,,,,,,,,,,,,
"CZK 39,000","CZK 13,000",728062,2 bedroom,12/7/2022,92 m²,Fully furnished,7,1.0,73.01,281.28,58.33,478.54,20.37,379.07,102.37,138.49,668.56,481.36,"Francouzská, Prague - Vinohrady",50.0739894,14.440101,1.0,1.0,,,,,,,,,,,,,,,,,,,,,,,,,,,,,,,,,,,,,,,,,,,,,,,,,,,,,,,,,,,,,,,,,,,,,,,,,,,,,,,,,,,,,,,,,
"CZK 32,085","CZK 10,695",730431,3+1,11/1/2022,111 m²,Fully furnished,1,,208.61,131.46,936.81,2564.81,336.74,613.32,243.84,2102.93,1889.94,338.05,"K Zámku, Prague - Dolní Počernice",50.0890765,14.5799076,1.0,1.0,,,,,,,,,,,,,,,,,,,,,,,,,,,,,,,,,,,,,,,,,,,,,,,,,,,,,,,,,,,,,,,,,,,,,,,,,,,,,,,,,,,,,,,,,
"CZK 13,990","CZK 2,638",745179,2+kk,10/18/2022,42 m²,Partly,2,1.0,360.83,441.85,225.64,259.56,223.73,307.61,120.64,293.95,1131.2,146.07,"Suchý vršek, Prague - Stodůlky",50.04878972222,14.34552777777,,,,"CZK 16,628",G,Very good,Prefab concrete,,,,,,,,,,,Personal,,,,,"CZK 16,628",,1.0,,,,,,,,,,,,,,,,,,,,,,,,,,,,,,,,,,,,,,,,,,,,,,,,,,,,,,,,,,,,,,,,,,
"CZK 12,000","CZK 3,500",744514,Small studio,10/9/2022,27 m²,Fully furnished,,,213.18,717.24,50.02,421.89,23.7,522.02,163.83,743.53,809.76,397.87,Prague - Smíchov,50.07254,14.39604,,,,"CZK 24,000",G,Very good,Brick,,,,,1.0,,,,,,,,,,,,,,,,,,,,,,,,,,,,,,,,,,,,,,,,,,,,,,,,,,,,,,,,,,,,,,,,,,,,,,,,,,,,,,,
"CZK 20,490","CZK 1,815",745178,3+kk,10/18/2022,86 m²,Partly,5,1.0,155.99,862.16,27.77,1996.22,115.38,816,519.57,1065.47,876.43,376.14,"Lipnická, Prague - Kyje",50.10929722222,14.55766916666,1.0,,,"CZK 22,305",C,Very good,Brick,,,1.0,,,,,,,,Personal,,,,,"CZK 22,305",,1.0,,,,,,,,,,,,,,,,,,,,,,,,,,,,,,,,,,,,,,,,,,,,,,,,,,,,,,,,,,,,,,,,,,
"CZK 31,500",CZK 133,745175,3+kk,12/16/2022,69 m²,Fully furnished,12,1.0,,,,,,,,,,,"Mukařovského, Prague - Stodůlky",50.04595,14.32223,,,1.0,"CZK 63,000",A,Very good,Other,,,,1.0,,,,,,,,,,,,,,,,,,,,,,,,,1.0,,,,,,,,,,,,,,,,,,,,,,,,,,,,1.0,,,,,,,,,,,,,,,,,,,,,,,,,,,
"CZK 44,500",CZK 133,744375,4+kk,11/1/2022,112 m²,Fully furnished,15,1.0,,,,,,,,,,,"Mukařovského, Prague - Stodůlky",50.04595,14.32223,,,1.0,"CZK 89,000",A,Very good,Other,,,,,,,,,,,,,,,,,,,,,,,,,,,,,1.0,,,,,,,,,,,,,,,,,,,,,,,,,,,,,1.0,1.0,,,,,,,,,,,,,,,,,,,,,,,,,
"CZK 41,625","CZK 13,875",720848,4+kk,10/19/2022,112 m²,Fully furnished,4,1.0,168.35,737.87,30.76,217.13,7.9,216.51,106.1,336.15,114.49,565.37,"Ostrovní, Prague - Nové Město",50.0806286,14.4175374,1.0,1.0,,,,,,,,,,,,,,,,,,,,,,,,,,,,,,,,,,,,,,,,,,,,,,,,,,,,,,,,,,,,,,,,,,,,,,,,,,,,,,,,,,,,,,,,,
"CZK 29,925","CZK 9,975",731240,1 bedroom,10/30/2022,30 m²,Fully furnished,2,1.0,22.29,481.37,107.82,95.32,6.34,158.39,351.4,425.94,380.79,468.94,"Legerova, Prague - Vinohrady",50.0749602,14.4305105,,,,,,,,,,,,,,,,,,,,,,,,,,,,,,,,,,,,,,,,,,,,,,,,,,,,,,,,,,,,,,,,,,,,,,,,,,,,,,,,,,,,,,,,,,,
"CZK 28,000","CZK 4,400",744505,3+kk,10/9/2022,94 m²,Partly,2,1.0,47.68,1264.71,656.97,1387.9,395.53,505.14,642.58,613.1,398.54,396.34,"K Vystrkovu, Prague - Modřany",49.99955,14.40699,,,1.0,"CZK 42,000",B,Very good,Low-energy,,,,,1.0,,,,,,,,,,,,,,,,,,,,,,,,1.0,,,,,1.0,,,,,,,,,,,,,,,,,,,,,,,,,,1.0,,,,,,,,,,,,,,,,,,,,,,,,
"CZK 9,000","CZK 2,900",367555,Studio,11/1/2022,35 m²,Fully furnished,4,,183.69,888.99,221.45,1412.77,913.01,797.1,427.84,293.79,1131.2,212.89,"Doležalova, Prague - Černý Most",50.1023394,14.5661014,,,,"CZK 13,500",,,Prefab concrete,Complete,,,,,Distance,Standard,,,,Personal,,,,,,,,,,,,,,,,,,,,,,,,,,,,,,,,,,,,,,,,,,,,,,,,,,,,,,,,,,,,,,,,,,,,,,,,,
"CZK 24,000","CZK 3,000",745172,4+kk,10/14/2022,100 m²,Partly,4,1.0,41.14,225.84,61.56,214.97,51.82,406.76,157.65,238.7,534.55,761.94,Prague - Vinohrady,50.07813,14.43571,,,1.0,"CZK 26,000",E,Very good,Brick,,,1.0,,1.0,,,,,,,,,,,,,,,,,,,,,,,,,,,,,,,,,,,,,,,,,,,,,,,,,,,,,,,,,,,,,,,,,,,,,,,,,,,,,,,
"CZK 32,000","CZK 5,000",745170,3+kk,11/1/2022,79 m²,Partly,1,,175.04,155.88,199.58,596.5,254.15,235.44,857.52,472.57,771.66,537.67,"Ke Stírce, Prague - Kobylisy",50.12049,14.46131,,,1.0,"CZK 60,000",E,Very good,Brick,,,,,,,,,,,,,,,,,,,,,,,,,,,1.0,,,,,,,,,,,,,,,,,,,,,,,,,,,,,,,,,,,,,,,,,,,,,,,,,,,,,,,,,
"CZK 17,000","CZK 5,000",745065,2 bedroom,11/1/2022,54 m²,Fully furnished,1,1.0,147.74,337.52,62.09,149.9,21.37,153.45,326.66,608.86,322.9,397.57,"U Měšťanského pivovaru, Prague - Holešovice",50.10604,14.44953,,,,"CZK 30,000",G,Very good,Brick,Interior,,,,,,,,,,,1.0,,,,,,,,,,,,,,,,,,,,,,,,,,,,,,,,,,,,,,,,,,,,,,,,,,,,,,,,,,,,,,,,,,,,,,,,
"CZK 27,000","CZK 9,000",732124,1 bedroom,11/1/2022,36 m²,Fully furnished,1,,241.61,1008.07,337.84,676.78,180.71,627.3,876.02,1008.48,488.31,192.83,"Sanderova, Prague - Holešovice",50.104936,14.458846,1.0,1.0,,,,,,,,,,,,,,,,,,,,,,,,,,,,,,,,,,,,,,,,,,,,,,,,,,,,,,,,,,,,,,,,,,,,,,,,,,,,,,,,,,,,,,,,,
"CZK 30,000","CZK 10,000",734260,2+kk,11/6/2022,41 m²,Fully furnished,5,,394.46,497.82,253.13,432.3,279.54,389.35,316.56,724.72,695.79,345.02,"Krchlebská, Prague - Krč",50.0471114,14.4429584,,,,,,,,,,,,,,,,,,,,,,,,,,,,,,,,,,,,,,,,,,,,,,,,,,,,,,,,,,,,,,,,,,,,,,,,,,,,,,,,,,,,,,,,,,,
"CZK 63,000","CZK 21,000",735517,3+kk,11/7/2022,110 m²,Fully furnished,6,1.0,30.08,409.78,41.21,139.22,4.79,323.92,155.78,264.84,623.64,381.72,"Myslíkova, Prague - Nové Město",50.0781479,14.4179311,,,,,,,,,,,,,,,,,,,,,,,,,,,,,,,,,,,,,,,,,,,,,,,,,,,,,,,,,,,,,,,,,,,,,,,,,,,,,,,,,,,,,,,,,,,
"CZK 39,600","CZK 13,200",717648,2+kk,11/15/2022,46 m²,Fully furnished,2,,249.05,258.88,108.69,237.41,65.07,536.83,294.74,273.73,806.33,231.2,"Míšeňská, Prague - Malá Strana",50.0876118,14.4080467,,,,,,,,,,,,,,,,,,,,,,,,,,,,,,,,,,,,,,,,,,,,,,,,,,,,,,,,,,,,,,,,,,,,,,,,,,,,,,,,,,,,,,,,,,,
"CZK 23,000","CZK 4,000",240526,2+kk,9/1/2022,62 m²,,7,1.0,275.03,629.24,55.34,441.72,67.99,393.86,323.27,897.37,163.39,111.95,"U Uranie, Prague - Holešovice",50.1067006,14.4519976,1.0,,1.0,"CZK 27,000",,,Brick,,,,,,Central,Luxurious,Up to 10 years,,,Personal,,,,,,,1.0,,,,,,,,,,,,,,,,,,,,,,,,,,,,,,,,,,,,,,,,,,,,,,,,,,,,,,,,,,,,,,,,,,
"CZK 18,000","CZK 5,000",532801,2+kk,10/15/2022,52 m²,Partly,2,1.0,93.2,1171.4,127.12,1109.78,645.62,770.51,235.85,289.29,470.72,138.0,"Litoměřická, Prague - Prosek",50.1202262,14.4854965,,,1.0,"CZK 46,000",G,,Brick,Bathroom unit,,1.0,,,Central,Standard,10 to 30 years,,,Personal,,,,,,,,,,,,,,,,,,1.0,,,,,,,,,,,,,,,,,,1.0,,,,,,,,,,,,,,,,,,,,,,,,,,,,,,,,,,,,,
"CZK 14,000","CZK 6,000",744501,2+kk,12/1/2022,45 m²,Unfurnished,6,1.0,96.06,1703.37,234.3,1375.7,273.11,214.33,591.15,237.64,742.6,189.12,"Rembrandtova, Prague - Strašnice",50.06755,14.51236,,,,"CZK 14,000",G,Very good,Prefab concrete,,,1.0,,1.0,,,,,,,,,,,,,,,,,,,,,,,,,,,,,,,,,,,,,,,,,,,,,,,,,,,,,,,,,,,,,,,,,,,,,,,,,,,,,,,
"CZK 25,500","CZK 4,500",616122,2+kk,10/15/2022,45 m²,Fully furnished,1,1.0,105.48,447.32,55.57,107.43,120.62,417.1,299.1,75.78,745.25,298.76,"Libická, Prague - Vinohrady",50.076751,14.457554,,,,"CZK 30,000",G,Very good,Brick,Interior,,,,,Electric boiler,Standard,,,,Personal,,,,,,,,,,,,,,,,,,,,,,,,,,,,,,,,,,,,,,,,,,,,,,,,,,,,,,,,,,,,,,,,,,,,,,,,,
"CZK 19,500","CZK 3,900",745166,2+kk,12/1/2022,57 m²,Partly,2,1.0,219.33,344.26,333.98,328.72,114.56,340.22,868.07,877.6,693.31,266.48,"Mikanova, Prague - Záběhlice",50.05348,14.51329,,,1.0,"CZK 40,000",C,New-build,Brick,,,1.0,,,Central,Luxurious,10 to 30 years,,,,,,,,,,,,,,,,,1.0,,,,1.0,,,,,,,,,,,,,,,,,,,,,,,,,,,,,,,,,,,,,,,,,,,,,,,,,,,,,,,
"CZK 14,000","CZK 4,500",634083,1 bedroom,11/1/2022,35 m²,Unfurnished,4,,85.61,218.94,23.75,72.42,79.73,113.55,227.25,279.42,538.77,366.16,Prague - Smíchov,50.076804,14.404503,,,,"CZK 15,000",G,Very good,Brick,Interior,,,,,Gas boiler,Standard,Over 50 years,,,Personal,,,,,,,,,,,,,,,,,,,,,,,,,,,,,,,,,,,,,,,,,,,,,,,,,,,,,,,,,,,,,,,,,,,,,,,,,
"CZK 11,900","CZK 2,800",745158,Studio,10/14/2022,30 m²,Fully furnished,6,1.0,98.14,1308.07,578.07,795.67,645.23,1386.9,792.56,1296.53,417.16,129.28,"Sídlištní, Prague - Lysolaje",50.12745,14.37928,,,,"CZK 24,000",G,Very good,Prefab concrete,,,1.0,,1.0,Central,,,,,,,,,,,,,1.0,,,,,,,,,,,,,,,,,,,,,,,,,,,,,,,,,,,,,,,,,,,,,,,,,,,,,,,,,,,,,,,,,
"CZK 19,900","CZK 5,000",745081,3+kk,10/15/2022,67 m²,Fully furnished,9,1.0,148.23,586.48,461.16,1253.78,260.41,540.32,209.62,306.39,154.39,139.59,"Kukelská, Prague - Hloubětín",50.10584,14.55241,,,,"CZK 40,000",G,Very good,Prefab concrete,Complete,,1.0,,1.0,Central,Standard,30 - 50 years,,,Personal,,,,,,,,,1.0,,,,,,,,,,,,,,,,,,,1.0,,,,,,,,,,,,,,,,,,,,,,,,,,,,,,,,,,,,,,,,,,,,,
"CZK 37,500","CZK 12,500",744254,2+kk,11/11/2022,60 m²,Fully furnished,2,1.0,239.73,541.75,45.52,270.79,35.61,285.18,465.63,625.46,639.52,581.38,"Mečislavova, Prague - Nusle",50.0633237,14.4440058,,,,,,,,,,,,,,,,,,,,,,,,,,,,,,,,,,,,,,,,,,,,,,,,,,,,,,,,,,,,,,,,,,,,,,,,,,,,,,,,,,,,,,,,,,,
"CZK 20,500",CZK 300,745156,2 bedroom,10/17/2022,66 m²,Partly,4,,321.45,1292.57,350.66,777.46,345.62,345.88,427.04,937.81,423.33,297.11,"Kandertova, Prague - Libeň",50.111632896019,14.471127246119,,,,"CZK 41,000",G,Very good,Brick,Complete,,1.0,,,,Standard,Over 50 years,,,,,,,,,,,,,,,,,,,,,,,,,,,,,,,,,,,,1.0,,,,,,,,,,,,,,,,,,,,,,,,,,,,,,,,,,,,,,,,
"CZK 15,000","CZK 3,000",745154,4+1,10/14/2022,65 m²,Partly,3,,281.72,611.15,86.58,549.53,427.59,247.68,471.65,201,547.47,81.51,"Bohušovická, Prague - Prosek",50.12253,14.4909,,,,"CZK 18,000",G,Very good,Prefab concrete,,,,,,,,,,,,,,,,,,,,,,,,,,,,,,,,1.0,,,,,,,,,,,,,,,,,,,,,,,,,,,,,,,,,,,,,,,,,,,,,,,,,,,,
"CZK 20,500","CZK 1,450",695264,Studio,12/1/2022,38 m²,Fully furnished,2,,101.38,232.38,146.95,464.33,65.47,297.98,300.55,329.79,303.05,310.31,"Roháčova, Prague - Žižkov",50.08674,14.45335,,,,"CZK 30,000",F,Very good,Brick,Complete,,,,,Electric boiler,,,,,Personal,,,,,,,,,,,,,,,,,,,,,,,,,,,,,,,,,,,,,,,,,,,,,,,,,,,,,,,,,,,,,,,,,,,,,,,,,
"CZK 35,900","CZK 6,000",714313,2+kk,10/2/2022,54 m²,Fully furnished,2,1.0,272.02,210.14,23.15,386.93,95.61,262.55,143.76,286,485.98,170.46,"Kollárova, Prague - Karlín",50.09127,14.44921,,1.0,,CZK 0,C,New-build,Brick,,,1.0,,,Central,Standard,Up to 10 years,,,Personal,,,,,,,1.0,,,,,,,,,,,1.0,,,,,,,,,,,,,,,,,,,,,,,,,,,,,,,,,,,,,,,,,,,,,,,,,,,,,,,
"CZK 19,800","CZK 6,600",744347,3+1,11/6/2022,90 m²,Fully furnished,5,1.0,82.8,397.93,96.94,404.98,135.48,353.78,131.46,217.55,654.74,661.34,"Blanická, Prague - Vinohrady",50.0746503,14.439294,,,,,,,,,,,,,,,,,,,,,,,,,,,,,,,,,,,,,,,,,,,,,,,,,,,,,,,,,,,,,,,,,,,,,,,,,,,,,,,,,,,,,,,,,,,
"CZK 19,125","CZK 6,375",745155,Studio,12/1/2022,32 m²,Fully furnished,3,1.0,139.49,792.63,156.92,306.05,50.15,84.99,429.59,902.4,481.21,801.27,"Šimáčkova, Prague - Holešovice",50.1030733,14.4335679,,,,,,,,,,,,,,,,,,,,,,,,,,,,,,,,,,,,,,,,,,,,,,,,,,,,,,,,,,,,,,,,,,,,,,,,,,,,,,,,,,,,,,,,,,,
"CZK 22,500","CZK 5,500",740125,2+kk,10/17/2022,75 m²,Fully furnished,1,1.0,158.33,979.99,325.26,907.87,442.93,579.1,220.8,325.99,759.32,80.7,Prague - Prosek,50.11827,14.48981,,,1.0,"CZK 70,000",B,Very good,Brick,,,1.0,,,Distance,Luxurious,Up to 10 years,,,Personal,,,,,,,,,,,,,,,,,,1.0,,,,,,,,,,,,,,,,,,,,,,,,,,,,,,,,,,,,,,,,,,,,,,,,,,,,,,,
"CZK 17,900","CZK 4,000",745152,2+kk,10/14/2022,49 m²,Partly,1,,229.9,947.02,205.09,713.91,247.68,447.39,154.37,412.65,1095.26,196.69,Prague - Modřany,50.0061,14.40679,,,,"CZK 18,900",B,New-build,Other,,,1.0,,,,,,,,,,,,1.0,,,,,,,,,,,,,,1.0,,,,,,,,,,,,,,,,,,,,,,,,,,,,,,,,,,,,,,,,,,,,,,,,,,,,,,,
"CZK 43,000","CZK 10,500",745147,3+kk,10/14/2022,96 m²,Fully furnished,13,1.0,160.09,231.78,139.7,386.05,109.39,363.64,563.06,425.65,443.47,142.21,"Ke Kapslovně, Prague - Žižkov",50.08553,14.4691,,,1.0,"CZK 53,500",G,New-build,Low-energy,,,,,,,,,,,,,,,,,,,,,,,,,,,,,1.0,,,,,,,,,,,,,,,,,,,,,,,,,,,,,,,,1.0,1.0,,,,,,,,,,,,,,,,,,,,,,
"CZK 12,188","CZK 4,062",745149,1 bedroom,11/1/2022,80 m²,Fully furnished,5,1.0,113.8,339.96,97.8,888.62,130.7,708.04,240.3,257.58,514.15,165.05,"Voskovcova, Prague - Hlubočepy",50.0299891,14.3690326,,,,,,,,,,,,,,,,,,,,,,,,,,,,,,,,,,,,,,,,,,,,,,,,,,,,,,,,,,,,,,,,,,,,,,,,,,,,,,,,,,,,,,,,,,,
