Listing ID,Price,Latitude,Longitude,District,Layout,Floor Space,Fees,Furnishing and Fittings,Floor,Balcony,Terrace,Cellar,Loggia,Parking,Lift,Garage,Available from,Public transport stop,Post office,Shop,Bank,Restaurant,Pharmacy,School,Kindergarten,Sports field,Playground,Condition,Refundable security deposit,Ownership Type,Building Type,Design,Heating,Renovation,PENB,Age,Total number of floors,New building,Front garden,Administration fee,Developer name,Project name,Kód jednotky,Investment Advisor
709190,"CZK 15,319",50.1080609,14.4828384,"Nad Kolčavkou A, Prague - Libeň",Studio,32 m²,"CZK 5,106",Furnished,1,No,No,No,No,No,No,No,03. 05. 2022,420,741,425,495,194,893,285,624,454,365,,,,,,,,,,,,,,,,,
420020,"CZK 20,000",50.0960175,14.3736012,"Na Ořechovce, Prague - Střešovice",2 bedroom,72 m²,"CZK 2,600",Furnished,2,No,No,No,No,No,No,No,03. 03. 2022,239,"1,030",561,999,613,534,862,789,688,387,Excellent,"CZK 20,000",Personal,Brick building,Premium materials and solutions,Gas boiler,Interior,C,,,,,,,,,
709164,"CZK 12,456",50.07201,14.43737,"Záhřebská, Prague - Vinohrady",Studio,30 m²,"CZK 1,870",Partially furnished,4,No,No,No,No,No,Yes,No,14. 03. 2022,206,177,124,533,5,383,226,224,913,690,Excellent,"CZK 14,000",Personal,Brick building,,,,C,,,,,,,,,
709162,"CZK 8,569",50.07201,14.43737,"Záhřebská, Prague - Vinohrady",Small studio,14 m²,"CZK 1,680",Partially furnished,6,No,Yes,No,No,No,Yes,No,07. 03. 2022,206,177,124,533,5,383,226,224,913,690,Excellent,"CZK 10,000",Personal,Brick building,,,,C,,,,,,,,,
177753,"CZK 13,800",50.0577987,14.4520798,"Magistrů, Prague - Michle",1 bedroom with open-plan kitchen,46 m²,CZK 630,Furnished,,No,No,No,No,No,No,No,,222,583,439,252,29,"1,049",232,566,344,408,,,Personal,Brick building,,,,,,,,,,,,,
709035,"CZK 15,000",50.0684925,14.438051,Prague - Vinohrady,Small studio,29 m²,"CZK 3,000",,,No,No,No,No,No,No,No,Ihneď,612,731,510,799,538,773,598,520,665,819,New build,"CZK 20,000",Personal,Low-energy building,,,,,,,,,,,,,
699541,"CZK 18,700",50.10887,14.47533,"U Libeňského pivovaru, Prague - Libeň",1 bedroom with open-plan kitchen,42 m²,"CZK 1,700",Furnished,4,No,No,Yes,No,No,No,No,11. 03. 2022,306,813,278,526,301,356,408,635,375,200,New build,"CZK 38,000",Personal,Brick building,Premium materials and solutions,Electric boiler,Overall,G,1 to 10 years years,Top floor,,,,,,,
708380,"CZK 4,500",50.04628,14.44537,"Humpolecká, Prague - Krč",1 bedroom with open-plan kitchen,42 m²,"CZK 8,000",Partially furnished,3,No,No,Yes,No,No,No,No,01. 04. 2022,344,516,175,300,231,257,414,608,874,175,Good,"CZK 16,000",Cooperative,Brick building,Standard materials and solutions,,,G,,Middle floor,,,,,,,
437613,"CZK 11,990",50.1325247,14.4111791,"Cafourkova, Prague - Bohnice",1 bedroom with open-plan kitchen,44 m²,"CZK 3,000",Partially furnished,5,Yes,No,No,No,No,Yes,No,,176,"1,038",232,968,225,"1,034",681,583,237,,Excellent,"CZK 15,000",Personal,Prefab concrete building,Standard materials and solutions,Central heating,Interior,,,Middle floor,,,,,,,
203657,"CZK 13,500",50.1155867,14.4743483,"Na sypkém, Prague - Libeň",1 bedroom with open-plan kitchen,55 m²,"CZK 4,000",Furnished,2,Yes,No,Yes,No,Yes,Yes,No,01. 03. 2022,143,"1,362",395,"1,237",150,656,536,"1,350",883,321,New build,"CZK 17,500",Personal,Brick building,,,,,1 to 10 years years,Middle floor,Yes,,,,,,
324400,"CZK 10,000",50.0893422,14.4675691,"Biskupcova, Prague - Žižkov",Studio,29 m²,"CZK 2,500",Partially furnished,1,No,No,No,No,No,No,No,01. 04. 2022,95,733,19,62,74,90,393,478,424,269,Excellent,"CZK 10,000",Personal,Brick building,Standard materials and solutions,,,,,,,,,,,,
707507,"CZK 10,500",50.023829193966,14.578221067786,"V Pitkovičkách, Prague - Pitkovice",Studio,38 m²,"CZK 3,000",,3,No,No,Yes,No,Yes,No,No,01. 01. 1970,112,"1,411","1,400",203,,,,,,,,"CZK 22,000",Personal,Brick building,,,,,,,Yes,,,,,,
563640,"CZK 13,000",50.0799478,14.458484,"Sudoměřská, Prague - Žižkov",Studio,25 m²,"CZK 1,000",Furnished,2,No,No,Yes,No,No,Yes,No,01. 05. 2022,279,550,222,342,12,466,458,283,611,200,Excellent,"CZK 26,000",Personal,Brick building,Standard materials and solutions,Other,Overall,,,Middle floor,,,,,,,
561351,"CZK 13,500",50.0563642,14.4323269,"Dačického, Prague - Nusle",Studio,35 m²,"CZK 2,594",Furnished,9,No,No,No,No,No,Yes,No,06. 03. 2022,162,988,175,267,207,406,727,454,196,265,Excellent,"CZK 16,000",Cooperative,Other,Standard materials and solutions,District heating,Exterior,,10 to 30 years years,Top floor,,,,,,,
699626,"CZK 16,500",50.08294,14.50018,"Káranská, Prague - Malešice",3 bedroom,74 m²,"CZK 1,500",Unfurnished,1,No,No,Yes,Yes,No,No,No,17. 01. 2022,238,148,208,195,298,388,254,385,785,285,Excellent,"CZK 16,500",Personal,Prefab concrete building,,District heating,Overall,G,,Ground floor,,,,,,,
709148,"CZK 9,990",50.10664,14.53957,"Poděbradská, Prague - Hloubětín",Small studio,19 m²,"CZK 1,000",Furnished,1,Yes,No,Yes,No,Yes,Yes,No,07. 03. 2022,96,280,147,261,205,281,440,352,478,366,Excellent,"CZK 11,000",Personal,Brick building,Standard materials and solutions,Central heating,Interior,G,,Raised ground floor,,,,,,,
709146,"CZK 26,000",50.03217,14.39395,"Lumiérů, Prague - Hlubočepy",1 bedroom with open-plan kitchen,68 m²,"CZK 2,000",Partially furnished,2,Yes,No,No,No,No,No,No,01. 04. 2022,154,840,"1,433",272,"1,491",97,,,,,Excellent,"CZK 78,000",Cooperative,Brick building,,,,G,,,,,,,,,
602747,"CZK 16,970",50.059584,14.447085,"Horní, Prague - Nusle",1 bedroom with open-plan kitchen,48 m²,"CZK 1,400",Furnished,6,No,No,No,No,No,Yes,No,01. 04. 2022,257,924,38,375,215,688,458,623,821,194,New build,"CZK 15,000",Personal,Brick building,,Gas boiler,Overall,G,,,,,,,,,
708624,"CZK 10,500",50.10117,14.49025,"Spojovací, Prague - Vysočany",Studio,20 m²,"CZK 1,000",Unfurnished,3,No,No,No,No,Yes,No,No,20. 03. 2022,180,"1,132",207,774,299,"1,286",100,185,622,231,Excellent,"CZK 10,500",Personal,Brick building,,,,G,,,,,,,,,
246363,"CZK 18,900",50.0899848,14.4491976,"Pernerova, Prague - Karlín",1 bedroom with open-plan kitchen,64 m²,"CZK 2,500",Furnished,4,No,No,No,No,No,Yes,No,15. 02. 2022,446,384,153,561,269,584,91,"1,152",660,332,Excellent,"CZK 23,620",Personal,Brick building,Premium materials and solutions,Gas boiler,Interior,G,1 to 10 years years,Middle floor,,,,,,,
657007,"CZK 11,000",50.0291787,14.4506539,Prague - Krč,Studio,27 m²,"CZK 3,200",Partially furnished,10,No,No,No,No,Yes,Yes,No,01. 03. 2022,69,"1,240",280,57,704,788,"1,119",504,325,,Excellent,"CZK 22,000",Personal,Prefab concrete building,,District heating,Interior,C,,,,,,,,,
708362,"CZK 11,400",50.02937,14.59657,"Oty Bubeníčka, Prague - Uhříněves",Studio,34 m²,"CZK 3,300",Furnished,2,No,No,Yes,Yes,Yes,Yes,No,01. 05. 2022,191,331,288,440,259,304,749,830,956,140,New build,"CZK 20,000",Personal,Low-energy building,,,,B,,,Yes,,,,,,
704541,"CZK 15,500",50.04714,14.42878,"Na Vrstvách, Prague - Podolí",1 bedroom with open-plan kitchen,45 m²,"CZK 2,460",Unfurnished,2,No,No,No,No,No,No,No,01. 03. 2022,283,"1,079",242,722,92,776,298,402,822,277,Excellent,"CZK 30,000",Personal,Brick building,,,,D,,,,,,,,,
708968,"CZK 30,000",50.01264,14.38504,"Pod Akáty, Prague - Velká Chuchle",2 bedroom with open-plan kitchen,83 m²,"CZK 3,000",Partially furnished,1,Yes,No,No,No,Yes,No,No,02. 03. 2022,251,321,336,323,663,,,,,,New build,"CZK 33,000",Personal,Brick building,,,,G,,,,,,,,,
708486,"CZK 25,000",50.11796,14.4615,"V Holešovičkách, Prague - Libeň",2 bedroom with open-plan kitchen,70 m²,"CZK 3,500",Partially furnished,2,Yes,No,Yes,No,Yes,No,No,01. 05. 2022,244,690,607,833,392,497,847,908,"1,353",793,Excellent,,Personal,Brick building,Premium materials and solutions,Gas boiler,Interior,G,over 50 years years,Middle floor,,1000 m²,,,,,
341127,"CZK 15,600",50.0604322,14.2799229,"Lipovská, Prague - Zličín",1 bedroom with open-plan kitchen,55 m²,"CZK 3,300",Partially furnished,3,Yes,No,Yes,No,Yes,Yes,Yes,,200,753,"1,176","1,106","1,062","1,230",578,"1,452",68,,,,Personal,Brick building,,,,,,Middle floor,,,,,,,
708358,"CZK 9,000",50.0567507,14.291957,"Do Zahrádek I, Prague - Třebonice",Studio,37 m²,"CZK 2,500",Furnished,3,Yes,No,Yes,No,No,No,No,01. 03. 2022,262,"1,178",560,504,816,614,614,838,454,,New build,"CZK 12,500",Personal,Brick building,,,,B,,,,,,,,,
709129,"CZK 32,400",50.091319,14.4234523,"U Obecního dvora, Prague - Staré Město",2 bedroom,62 m²,"CZK 10,800",Furnished,2,No,No,No,No,No,Yes,No,05. 03. 2022,116,432,102,253,102,270,297,393,201,165,,,,,,,,,,,,,,,,,
709127,"CZK 9,800",50.03593,14.31928,"Všerubská, Prague - Řeporyje",Studio,30 m²,,Partially furnished,1,No,No,No,No,Yes,No,No,01. 04. 2022,339,772,"1,215","1,428",523,408,"1,128","1,007",534,,Excellent,"CZK 9,800",Personal,Brick building,,District heating,,A,,Ground floor,,,,,,,
633794,"CZK 15,000",50.062045,14.558137,"Armádního sboru, Prague - Dolní Měcholupy",2 bedroom with open-plan kitchen,60 m²,"CZK 4,000",Partially furnished,,No,No,Yes,No,No,No,No,01. 04. 2022,256,474,665,195,"1,255",184,832,,,,Excellent,"CZK 15,000",Personal,Brick building,,,,G,,,,,,,,,
368598,"CZK 21,900",50.07371,14.44602,"Chodská, Prague - Vinohrady",2 bedroom,85 m²,"CZK 2,900",Partially furnished,2,No,No,No,No,No,No,No,,285,298,243,651,208,556,477,272,379,166,,"CZK 24,800",Personal,Brick building,Standard materials and solutions,Gas boiler,Overall,,,Middle floor,,,,,,,
6603,"CZK 15,000",50.0784218,14.4567023,"Radhošťská, Prague - Žižkov",1 bedroom,38 m²,"CZK 4,000",Furnished,3,No,No,Yes,No,No,Yes,No,01. 04. 2022,317,593,314,727,260,515,382,435,286,406,Excellent,"CZK 25,000",Personal,Brick building,Premium materials and solutions,Electric boiler,Overall,,10 to 30 years years,Middle floor,,,,,,,
501751,"CZK 12,500",50.0750204,14.4851619,"Krátká, Prague - Vinohrady",Small studio,35 m²,"CZK 1,000",Partially furnished,1,No,No,No,No,No,No,No,01. 03. 2022,349,587,154,439,345,461,588,588,970,286,,"CZK 13,500",Personal,Brick building,,,Interior,,,,,,,,,,
708351,"CZK 28,500",50.14071,14.51963,"Škrábkových, Prague - Letňany",3 bedroom with open-plan kitchen,99 m²,"CZK 5,039",Partially furnished,6,Yes,No,Yes,No,No,Yes,Yes,01. 03. 2022,365,602,"1,050","1,188",215,726,"1,002",967,"1,171",209,New build,"CZK 28,500",Personal,Brick building,,,,B,,,,,,,,,
384994,"CZK 11,000",50.052758,14.3026567,"Kopanina, Prague - Stodůlky",1 bedroom with open-plan kitchen,37 m²,"CZK 2,000",Partially furnished,2,No,No,No,No,No,No,No,,672,760,"1,450","1,300",607,,,,,,,,Personal,Brick building,,,,,,,,,,,,,
549603,"CZK 20,000",50.0587913,14.3939796,"Pechlátova, Prague - Radlice",1 bedroom with open-plan kitchen,55 m²,"CZK 5,000",Furnished,6,Yes,Yes,Yes,No,No,Yes,Yes,,162,579,477,496,451,776,212,861,168,46,New build,"CZK 25,000",Personal,Brick building,,Central heating,,,,,Yes,,,,,,
645454,"CZK 11,500",50.126732,14.411453,"Krynická, Prague - Troja",1 bedroom,32 m²,"CZK 3,000",Partially furnished,1,No,No,Yes,No,No,Yes,No,01. 04. 2022,234,619,117,554,554,411,418,75,143,,Excellent,"CZK 29,000",Personal,Prefab concrete building,Standard materials and solutions,District heating,Overall,G,,Middle floor,,,,,,,
699413,"CZK 34,000",50.07847,14.42443,"Školská, Prague - Nové Město",1 bedroom with open-plan kitchen,80 m²,"CZK 4,627",Furnished,5,Yes,Yes,No,No,No,Yes,No,01. 04. 2022,265,776,62,201,0,278,221,459,442,396,Excellent,"CZK 60,000",Personal,Brick building,Premium materials and solutions,Central heating,Overall,G,,Top floor,,,,,,,
706124,"CZK 12,000",50.08898,14.30448,"U Valu, Prague - Ruzyně",1 bedroom with open-plan kitchen,45 m²,"CZK 3,500",Furnished,3,No,No,No,No,Yes,Yes,No,15. 03. 2022,225,486,448,435,346,492,357,"1,259",47,,Excellent,"CZK 15,500",Personal,Prefab concrete building,Standard materials and solutions,District heating,Overall,B,,,,,,,,,
709118,"CZK 15,000",50.0718599,14.4069708,"Staropramenná, Prague - Smíchov",Small studio,30 m²,,Furnished,1,No,No,No,No,No,No,No,03. 03. 2022,84,431,29,122,32,316,525,"1,005","1,152",639,Excellent,"CZK 15,000",Personal,Brick building,,,,G,,,,,,,,,
709119,"CZK 16,000",50.10268,14.43487,"Schnirchova, Prague - Holešovice",1 bedroom with open-plan kitchen,61 m²,"CZK 6,000",Partially furnished,5,No,Yes,No,No,No,Yes,No,03. 03. 2022,267,800,35,312,42,194,339,488,988,,Excellent,"CZK 16,000",Personal,Brick building,,,,G,,,,,,,,,
709115,"CZK 11,475",50.0455184,14.4554688,"Bítovská, Prague - Michle",Studio,23 m²,"CZK 3,825",Furnished,9,No,No,No,No,No,Yes,No,05. 03. 2022,276,470,425,528,262,500,439,294,381,57,,,,,,,,,,,,,,,,,
709114,"CZK 17,000",50.0482779,14.3022689,"Svitákova, Prague - Stodůlky",1 bedroom with open-plan kitchen,58 m²,"CZK 4,000",Partially furnished,2,Yes,No,No,No,Yes,Yes,Yes,03. 03. 2022,419,363,210,351,"1,148","1,116",743,904,84,,Excellent,"CZK 21,000",Personal,Brick building,,,,C,,,,,,,,,
709113,"CZK 15,800",50.08694,14.34524,"Brunclíkova, Prague - Břevnov",2 bedroom,53 m²,"CZK 3,400",Furnished,5,Yes,No,No,Yes,No,Yes,No,01. 04. 2022,128,491,177,252,177,270,235,100,583,76,Excellent,"CZK 38,400",Personal,Prefab concrete building,,,,E,,,,,,,,,
709110,"CZK 12,990",50.10302305555,14.51165444444,"Poděbradská, Prague - Vysočany",Studio,33 m²,"CZK 2,139",Partially furnished,1,Yes,No,No,No,No,Yes,No,,137,407,"1,155",771,446,538,"1,265",988,380,,New build,"CZK 15,309",Personal,Other,,,,B,,,Yes,,"CZK 15,309

                                
                                
                
i",,,,
709109,"CZK 12,900",50.06824,14.39848,"Astlova, Prague - Smíchov",Studio,22 m²,"CZK 1,500",Partially furnished,2,No,No,Yes,No,Yes,No,No,03. 03. 2022,230,104,97,469,73,191,324,536,661,319,Excellent,"CZK 25,000",Personal,Brick building,,,,G,,,,,,,,,
709106,"CZK 18,600",50.10526,14.51782,"Sousedíkova, Prague - Vysočany",1 bedroom with open-plan kitchen,62 m²,"CZK 4,100",Furnished,3,Yes,No,Yes,No,Yes,Yes,Yes,01. 05. 2022,367,619,"1,082",628,"1,294","1,097",890,112,,,Excellent,"CZK 25,000",Personal,Brick building,Standard materials and solutions,,,G,1 to 10 years years,Middle floor,,,,,,,
709103,"CZK 22,500",50.09475,14.46637,"U Sluncové, Prague - Karlín",2 bedroom with open-plan kitchen,69 m²,"CZK 4,500",Furnished,9,Yes,No,No,No,Yes,Yes,No,01. 01. 1970,383,"1,360",350,858,330,888,256,508,"1,023",257,Excellent,"CZK 40,000",Personal,Prefab concrete building,,,,B,,,,,,,,,
645284,"CZK 12,000",50.096952,14.4652,"Molákova, Prague - Karlín",Studio,28 m²,"CZK 3,000",Furnished,8,No,Yes,No,No,No,Yes,No,01. 04. 2022,108,"1,177",92,"1,032",226,771,442,685,901,149,New build,"CZK 12,000",Personal,Other,Standard materials and solutions,District heating,Overall,C,1 to 10 years years,Middle floor,,,,,,,
460121,"CZK 15,600",50.074587,14.443176,"Moravská, Prague - Vinohrady",1 bedroom with open-plan kitchen,50 m²,"CZK 2,700",Furnished,3,No,No,Yes,No,No,Yes,No,,169,27,121,533,102,404,206,285,522,276,Excellent,"CZK 18,300",Personal,Brick building,Standard materials and solutions,,Overall,,,Middle floor,,,,,,,
641729,"CZK 12,500",50.098799,14.481534,"Novovysočanská, Prague - Libeň",Studio,27 m²,"CZK 2,559",Furnished,1,No,No,Yes,No,No,Yes,No,01. 04. 2022,62,"1,492",591,"1,153",512,"1,255",701,694,828,422,New build,"CZK 15,059",Personal,Low-energy building,Standard materials and solutions,,,B,1 to 10 years years,Ground floor,Yes,117 m²,,,,,
584563,"CZK 13,500",50.069864469286,14.381496549074,"Hlaváčkova, Prague - Košíře",Studio,31 m²,"CZK 2,000",Furnished,4,No,Yes,No,No,No,Yes,No,01. 04. 2022,189,445,94,750,235,858,214,743,"1,109",474,New build,,Other,Low-energy building,,Central heating,,B,,,Yes,,,,,,
709091,"CZK 17,000",50.07828,14.5085,"Limuzská, Prague - Strašnice",1 bedroom with open-plan kitchen,49 m²,"CZK 3,000",Furnished,1,Yes,No,No,No,No,No,No,07. 03. 2022,53,915,509,892,124,768,934,"1,058","1,195",526,New build,"CZK 34,000",Personal,Brick building,,,,D,,,,,,,,,
709092,"CZK 18,000",50.02407,14.51445,"Zdiměřická, Prague - Chodov",4 bedroom,75 m²,"CZK 4,000",Partially furnished,4,No,No,Yes,No,No,Yes,No,01. 04. 2022,50,"1,006",202,"1,488",304,237,156,561,285,,Excellent,"CZK 36,000",Personal,Prefab concrete building,,,,G,,,,,,,,,
707043,"CZK 9,500",50.09175,14.32462,"Jenečská, Prague - Liboc",1 bedroom,50 m²,"CZK 4,000",Partially furnished,,No,No,No,No,No,No,No,01. 03. 2022,30,"1,312",56,"1,165",75,"1,251",599,175,653,315,Excellent,"CZK 19,000",Personal,Brick building,,,,G,,,,,,,,,
492750,"CZK 13,000",50.049714,14.543265,"Tenisová, Prague - Hostivař",1 bedroom,35 m²,"CZK 2,000",Furnished,3,No,No,Yes,No,No,No,No,,145,178,203,184,196,457,461,655,188,,Excellent,"CZK 20,000",Personal,Prefab concrete building,,District heating,Overall,,,,,,,,,,
534241,"CZK 14,900",50.0210777,14.4669511,"Velké Kunratické, Prague - Kunratice",1 bedroom with open-plan kitchen,54 m²,"CZK 3,200",Partially furnished,3,No,No,No,No,No,Yes,No,01. 04. 2022,338,"1,295","1,172",125,464,648,154,,,,,"CZK 25,000",Personal,Brick building,,,,C,,,,,,,,,
709080,"CZK 11,800",50.06918,14.43767,"Perucká, Prague - Vinohrady",Studio,27 m²,"CZK 2,800",Partially furnished,,No,No,Yes,No,No,No,No,01. 04. 2022,699,818,597,886,615,859,685,606,752,906,Excellent,"CZK 14,000",Personal,Prefab concrete building,,,,G,,,,,,,,,
703862,"CZK 18,500",50.05862,14.42969,"Marie Cibulkové, Prague - Nusle",1 bedroom with open-plan kitchen,49 m²,"CZK 3,681",Partially furnished,6,No,No,No,No,Yes,Yes,No,01. 02. 2022,260,860,224,335,122,200,769,252,290,213,New build,,Personal,Other,Premium materials and solutions,Central heating,,C,1 to 10 years years,,Yes,,,,,,
706453,"CZK 15,500",50.03934,14.32273,"Kakosova, Prague - Řeporyje",1 bedroom with open-plan kitchen,55 m²,"CZK 4,000",Partially furnished,1,Yes,No,Yes,No,No,Yes,No,14. 02. 2022,246,"1,135",780,964,603,"1,028",665,"1,075",672,112,New build,"CZK 31,000",Personal,Brick building,,,,C,1 to 10 years years,,,,,,,,
619048,"CZK 11,600",50.08373,14.449294,"Víta Nejedlého, Prague - Žižkov",Studio,39 m²,"CZK 1,400",Furnished,1,No,No,No,No,Yes,Yes,No,03. 03. 2022,296,133,104,160,115,154,141,250,293,523,Excellent,"CZK 13,000",Personal,Brick building,,Electric boiler,Overall,D,1 to 10 years years,Ground floor,,,,,,,
611772,"CZK 23,500",50.086026,14.450557,"Cimburkova, Prague - Žižkov",1 bedroom with open-plan kitchen,47 m²,"CZK 4,100",,2,No,Yes,No,No,No,Yes,No,06. 03. 2022,149,310,156,317,114,277,13,366,14,659,Excellent,"CZK 47,000",Personal,Brick building,,,,B,,,,,,,,,
709075,"CZK 38,000",50.0579,14.40415,"Pod Kesnerkou, Prague - Smíchov",Other,177 m²,"CZK 8,000",Unfurnished,3,No,No,No,No,No,No,No,01. 05. 2022,134,951,261,"1,479",250,508,"1,081","1,210","1,041",219,Excellent,"CZK 38,000",Personal,Brick building,,Gas boiler,,B,,Top floor,,,,,,,
375500,"CZK 9,000",50.0473519,14.3034128,Prague - Stodůlky,Studio,32 m²,"CZK 3,500",Partially furnished,2,Yes,No,No,No,No,No,No,05. 03. 2022,264,248,95,202,"1,006",975,601,762,163,,,"CZK 12,500",Cooperative,Brick building,Standard materials and solutions,District heating,,A,1 to 10 years years,Middle floor,,,,,,,
686794,"CZK 9,000",50.10201,14.36396,"Nad Šárkou, Prague - Dejvice",Studio,28 m²,"CZK 2,000",Furnished,3,No,No,No,No,Yes,No,No,06. 03. 2022,365,772,831,408,603,673,900,697,"1,013",396,New build,"CZK 15,000",Personal,Brick building,Premium materials and solutions,Gas boiler,Interior,B,1 to 10 years years,Top floor,,,,,,,
708336,"CZK 13,500",50.08913,14.4619,"Koněvova, Prague - Žižkov",1 bedroom with open-plan kitchen,42 m²,"CZK 2,500",Partially furnished,3,No,No,No,No,No,No,No,01. 05. 2022,78,523,329,206,91,473,568,802,289,357,Excellent,"CZK 27,000",Personal,Brick building,,,,G,,,,,,,,,
700121,"CZK 25,000",50.0525289,14.5116808,"Mattioliho, Prague - Záběhlice",1 bedroom with open-plan kitchen,70 m²,"CZK 4,000",Furnished,1,Yes,No,Yes,No,No,Yes,Yes,19. 01. 2022,225,508,498,551,257,504,945,874,761,446,New build,"CZK 75,000",Personal,Brick building,,,,G,,,,,,,,,
650471,"CZK 9,000",50.093122,14.460505,"Pernerova, Prague - Karlín",Small studio,27 m²,"CZK 2,000",Furnished,,No,No,No,No,No,No,No,01. 04. 2022,448,"1,073",220,673,331,537,194,"1,124",587,67,Excellent,"CZK 20,000",Personal,Brick building,,Other,,G,,Raised ground floor,,,,,,,
639338,"CZK 10,500",50.134049,14.50717,"Tupolevova, Prague - Letňany",1 bedroom,35 m²,"CZK 4,500",Furnished,5,Yes,No,No,No,No,Yes,Yes,01. 12. 2020,194,931,193,462,479,479,143,270,302,259,Excellent,"CZK 10,000",Personal,Prefab concrete building,,,,B,,,,,,,,,
367267,"CZK 9,000",50.0918446,14.4446613,"Vítkova, Prague - Karlín",Studio,29 m²,"CZK 2,500",Partially furnished,2,No,No,No,No,No,No,No,03. 03. 2022,139,335,60,409,83,384,152,"1,133",492,504,,"CZK 9,000",Cooperative,Brick building,,,,,,,,,,,,,
223233,"CZK 15,000",50.0463801,14.4423693,"U nových domů III, Prague - Krč",1 bedroom with open-plan kitchen,55 m²,"CZK 3,500",Furnished,3,No,No,Yes,Yes,No,Yes,No,01. 04. 2022,262,437,90,413,116,370,153,561,563,303,Excellent,"CZK 15,000",Cooperative,Brick building,,Gas boiler,,C,,Middle floor,,,,,,,
709056,"CZK 13,000",50.01368,14.43367,"Zárubova, Prague - Kamýk",1 bedroom with open-plan kitchen,52 m²,"CZK 5,500",Partially furnished,3,No,No,No,No,No,Yes,No,01. 04. 2022,410,"1,496",339,"1,488",843,330,156,416,651,281,Excellent,"CZK 13,000",Personal,Prefab concrete building,,,,G,,,,,,,,,
584667,"CZK 13,000",50.08678,14.454071,"Roháčova, Prague - Žižkov",1 bedroom,36 m²,"CZK 2,000",Unfurnished,3,No,No,No,No,No,Yes,No,01. 12. 2019,129,180,96,506,110,245,349,294,349,435,Excellent,"CZK 20,000",Other,Brick building,,,,D,,,,,,,,,
306364,"CZK 15,500",50.103672,14.487398,Prague - Libeň,1 bedroom with open-plan kitchen,43 m²,"CZK 3,859",Partially furnished,12,No,No,No,No,No,No,No,07. 03. 2022,57,296,206,139,74,284,340,782,397,157,,"CZK 31,000",Personal,Other,,,,,,,,,,,,,
707660,"CZK 65,000",50.07423,14.44409,"Šumavská, Prague - Vinohrady",4 bedroom,164 m²,"CZK 4,900",Furnished,4,No,No,Yes,No,No,Yes,No,28. 02. 2022,142,108,94,612,75,377,285,257,475,229,Excellent,,Personal,Brick building,,,,B,,,,,,,,,
705377,"CZK 17,000",50.013,14.40077,"Pískařská, Prague - Modřany",1 bedroom with open-plan kitchen,44 m²,"CZK 2,900",Partially furnished,,No,Yes,No,No,Yes,Yes,Yes,01. 03. 2022,147,"1,079",416,"1,323",741,"1,384","1,245",663,,,Excellent,"CZK 34,000",Personal,Brick building,,District heating,,C,,Middle floor,,,,,,,
588250,"CZK 17,000",50.091483,14.433237,"Petrská, Prague - Nové Město",Studio,49 m²,"CZK 1,000",Furnished,3,No,No,No,No,No,Yes,No,14. 03. 2022,83,352,6,262,26,209,164,160,522,346,Excellent,"CZK 17,000",Personal,Brick building,,Gas boiler,,G,,,,,,,,,
563249,"CZK 16,000",50.0623095,14.3256648,"5. máje, Prague - Stodůlky",1 bedroom with open-plan kitchen,60 m²,"CZK 4,000",Partially furnished,1,Yes,No,No,No,Yes,No,No,01. 03. 2022,485,"1,479","1,251",799,"1,296","1,308","1,488",572,,,Excellent,"CZK 21,000",Personal,Brick building,Standard materials and solutions,Gas boiler,Overall,,,Ground floor,,,,,,,
435606,"CZK 14,000",50.0823858,14.4157163,Prague - Staré Město,Studio,29 m²,"CZK 2,950",Furnished,3,No,No,No,No,No,Yes,No,04. 04. 2022,444,800,88,451,107,493,471,666,393,382,,"CZK 18,000",Personal,Brick building,,,,,,,,,,,,,
709050,"CZK 67,500",50.0919232,14.4220003,"U Milosrdných, Prague - Staré Město",3 bedroom,100 m²,"CZK 22,500",Furnished,5,Yes,No,No,No,No,Yes,No,15. 03. 2022,241,450,162,290,107,135,333,430,340,300,,,,,,,,,,,,,,,,,
165803,"CZK 9,500",50.0748402,14.4551982,"Sobotecká, Prague - Vinohrady",Small studio,20 m²,"CZK 3,500",Furnished,3,No,No,No,No,No,Yes,No,01. 04. 2022,167,520,69,377,84,273,217,513,633,12,Excellent,"CZK 10,000",Cooperative,Brick building,,Central heating,Interior,,,Middle floor,,,,,,,
491626,"CZK 17,500",50.0715736,14.4762758,"Bajkalská, Prague - Vršovice",2 bedroom,59 m²,"CZK 2,500",Partially furnished,3,No,No,No,No,No,No,No,,178,65,183,341,66,155,203,284,443,287,,"CZK 35,000",Personal,Brick building,,,,,,,,,,,,,
700590,"CZK 22,000",50.09611,14.40308,"Tychonova, Prague - Hradčany",3 bedroom,82 m²,"CZK 3,000",,3,Yes,No,Yes,No,No,Yes,No,01. 03. 2022,173,922,221,182,83,262,104,"1,263",46,394,Good,"CZK 22,000",Personal,Brick building,Standard materials and solutions,District heating,,G,,Middle floor,,,,,,,
696248,"CZK 47,000",50.07906,14.44976,"Laubova, Prague - Vinohrady",3 bedroom,109 m²,"CZK 6,000",Partially furnished,2,Yes,No,No,No,Yes,Yes,No,01. 01. 2022,209,273,39,272,113,301,142,267,694,169,Excellent,"CZK 53,000",Personal,Brick building,,,,D,,,,,,,,,
709041,"CZK 67,500",50.090911,14.4295366,"Soukenická, Prague - Nové Město",2 bedroom with open-plan kitchen,90 m²,"CZK 22,500",Furnished,4,Yes,Yes,No,No,No,Yes,Yes,04. 04. 2022,144,325,176,152,60,230,49,259,388,439,,,,,,,,,,,,,,,,,
615908,"CZK 15,000",50.105533,14.454286,"V Háji, Prague - Holešovice",1 bedroom with open-plan kitchen,40 m²,"CZK 2,700",Furnished,3,No,No,No,No,No,No,No,03. 07. 2020,175,574,85,386,67,340,556,839,321,296,Excellent,"CZK 15,000",Personal,Brick building,,Gas boiler,Overall,B,1 to 10 years years,Middle floor,,,,,,,
692103,"CZK 14,000",50.1055139,14.4541898,"V Háji, Prague - Holešovice",1 bedroom with open-plan kitchen,55 m²,"CZK 2,700",Partially furnished,2,No,No,No,No,No,Yes,No,15. 11. 2021,173,572,83,384,65,338,558,837,319,298,Good,"CZK 15,000",Personal,Brick building,,,,G,,,,,,,,,
709039,"CZK 18,500",50.0939369,14.5002207,"Nad Smetankou, Prague - Hrdlořezy",1 bedroom with open-plan kitchen,71 m²,"CZK 4,800",Furnished,6,No,No,Yes,Yes,No,Yes,Yes,16. 04. 2022,389,872,287,"1,221",497,334,770,651,"1,053",151,Excellent,"CZK 37,000",Personal,Brick building,,,,G,,,,,,,,,
707390,"CZK 63,113",50.079674,14.4269813,"Ve Smečkách, Prague - Nové Město",2 bedroom with open-plan kitchen,63 m²,"CZK 21,037",Furnished,6,No,Yes,No,No,No,No,No,05. 03. 2022,310,576,95,235,18,250,217,643,397,538,,,,,,,,,,,,,,,,,
707373,"CZK 30,000",50.0372353,14.482405,"Hněvkovská, Prague - Chodov",1 bedroom with open-plan kitchen,55 m²,"CZK 10,000",Furnished,3,No,No,No,No,No,No,No,05. 03. 2022,469,"1,480",408,"1,340",370,"1,305",889,"1,194",334,309,,,,,,,,,,,,,,,,,
707366,"CZK 30,000",50.0789257,14.419407,"Spálená, Prague - Nové Město",1 bedroom with open-plan kitchen,65 m²,"CZK 10,000",Furnished,7,No,No,No,No,No,Yes,No,31. 03. 2022,58,455,7,65,31,163,180,425,373,598,,,,,,,,,,,,,,,,,
707305,"CZK 28,500",50.0643299,14.4102127,"Strakonická, Prague - Smíchov",1 bedroom,43 m²,"CZK 9,500",Furnished,7,No,No,No,No,No,Yes,No,05. 03. 2022,211,382,250,989,170,745,812,"1,050",387,543,,,,,,,,,,,,,,,,,
401143,"CZK 12,000",50.0544343,14.5127755,"Práčská, Prague - Záběhlice",2 bedroom,52 m²,"CZK 3,900",Partially furnished,2,No,No,No,No,Yes,Yes,No,17. 02. 2022,214,442,432,483,306,438,648,903,831,140,Good,"CZK 24,000",Personal,Prefab concrete building,Standard materials and solutions,District heating,Exterior,C,,,,,,,,,
707346,"CZK 39,750",50.079465,14.4353199,"Mánesova, Prague - Vinohrady",1 bedroom with open-plan kitchen,75 m²,"CZK 13,250",Furnished,2,No,No,No,No,No,Yes,No,05. 03. 2022,156,408,244,342,59,242,281,281,533,788,,,,,,,,,,,,,,,,,
707339,"CZK 21,000",50.1057314,14.44422,"U Průhonu b, Prague - Holešovice",Studio,32 m²,"CZK 7,000",Furnished,1,Yes,Yes,No,No,No,Yes,Yes,05. 03. 2022,299,437,281,449,312,304,607,789,18,459,,,,,,,,,,,,,,,,,
707267,"CZK 29,250",50.0830689,14.4668702,"Olšanská d, Prague - Žižkov",1 bedroom with open-plan kitchen,85 m²,"CZK 9,750",Furnished,4,No,Yes,No,No,No,Yes,Yes,01. 04. 2022,213,228,353,747,332,258,643,491,336,409,,,,,,,,,,,,,,,,,
709032,"CZK 18,000",50.04829,14.30282,"Svitákova, Prague - Stodůlky",1 bedroom with open-plan kitchen,52 m²,"CZK 4,500",Partially furnished,5,No,Yes,No,No,No,No,No,01. 06. 2022,378,322,169,334,"1,107","1,075",702,863,43,,New build,"CZK 18,000",Personal,Brick building,,,,B,,,,,,,,,
708105,"CZK 15,675",50.080004,14.422058,"Jungmannova, Prague - Nové Město",1 bedroom with open-plan kitchen,62 m²,"CZK 5,225",Furnished,4,No,No,No,No,No,Yes,No,25. 04. 2022,110,673,119,76,124,213,214,730,474,393,,,,,,,,,,,,,,,,,
708677,"CZK 6,000",50.11474,14.47017,"Zenklova, Prague - Libeň",Small studio,20 m²,"CZK 2,000",Partially furnished,,No,No,No,No,No,No,No,28. 02. 2022,152,"1,057",50,"1,251",109,350,216,"1,286",897,260,Good,"CZK 15,000",Personal,Brick building,,,,C,,,,,,,,,
509348,"CZK 16,000",50.0431233,14.4606124,"Jihlavská, Prague - Michle",2 bedroom,70 m²,"CZK 4,000",Partially furnished,2,No,No,No,No,No,No,No,,193,753,290,872,73,247,702,577,676,389,Good,"CZK 20,000",Personal,Brick building,,,,,,,,,,,,,
586138,"CZK 15,500",50.090389,14.47392,"Viklefova, Prague - Žižkov",Studio,36 m²,"CZK 4,000",Unfurnished,6,Yes,No,No,No,No,Yes,No,01. 04. 2022,198,"1,019",141,262,9,110,321,339,361,424,New build,"CZK 31,000",Personal,Low-energy building,Premium materials and solutions,Electric boiler,Overall,A,1 to 10 years years,Attic,Yes,,,,,,
709031,"CZK 33,750",50.0723321,14.4399493,"Jana Masaryka, Prague - Vinohrady",2 bedroom,82 m²,"CZK 11,250",Furnished,3,No,No,No,No,No,Yes,No,02. 05. 2022,155,369,147,651,45,545,205,328,671,484,,,,,,,,,,,,,,,,,
709030,"CZK 14,400",50.06328,14.42556,"Krokova, Prague - Nusle",1 bedroom with open-plan kitchen,54 m²,"CZK 4,000",Partially furnished,3,No,No,No,No,No,Yes,No,09. 03. 2022,335,720,316,351,338,477,383,261,385,293,Excellent,"CZK 25,000",Personal,Brick building,,,,G,,,,,,,,,
588276,"CZK 12,000",50.121331,14.4572,"Na Hlinách, Prague - Kobylisy",Studio,32 m²,CZK 700,Partially furnished,1,No,No,No,No,No,No,No,01. 04. 2022,376,383,300,470,249,264,649,401,915,473,New build,"CZK 15,000",Personal,Brick building,Premium materials and solutions,,Overall,B,1 to 10 years years,,,,,,,,
708308,"CZK 12,000",50.1054,14.48955,"U Svobodárny, Prague - Libeň",1 bedroom,40 m²,"CZK 3,500",Partially furnished,1,No,No,No,No,No,Yes,No,03. 03. 2022,175,68,11,223,148,316,251,464,95,128,Excellent,"CZK 16,000",Personal,Brick building,Standard materials and solutions,Other,,G,,Middle floor,,,,,,,
709009,"CZK 19,000",50.04466,14.51691,"Berlínská, Prague - Hostivař",2 bedroom with open-plan kitchen,61 m²,"CZK 3,500",Partially furnished,2,Yes,No,Yes,No,Yes,Yes,Yes,02. 03. 2022,213,113,167,156,963,315,"1,286",64,,,Excellent,"CZK 38,000",Personal,Brick building,,,,C,,,,,,,,,
709003,"CZK 9,000",50.07435,14.4866477,"Nad Primaskou, Prague - Strašnice",Studio,30 m²,"CZK 3,770",Unfurnished,3,No,No,No,No,No,No,No,04. 03. 2022,287,582,135,296,303,346,238,597,679,190,Excellent,"CZK 13,500",Personal,Brick building,Standard materials and solutions,Other,Overall,G,,Middle floor,,,,,,,
633593,"CZK 29,000",50.041848,14.487247,"Jihovýchodní Ix, Prague - Záběhlice",2 bedroom with open-plan kitchen,83 m²,"CZK 5,500",Partially furnished,,No,Yes,Yes,No,Yes,No,No,01. 01. 2022,188,806,833,819,685,637,730,"1,285",528,,New build,"CZK 50,000",Personal,Brick building,Premium materials and solutions,Central heating,Overall,B,,Ground floor,,400 m²,,,,,
496859,"CZK 18,000",50.0562016,14.3484456,Prague - Jinonice,1 bedroom with open-plan kitchen,53 m²,"CZK 3,834",Partially furnished,4,Yes,No,Yes,No,No,Yes,Yes,01. 04. 2022,305,"1,121",449,817,603,599,470,705,78,,New build,"CZK 18,000",Personal,Brick building,,,,B,,,Yes,,,,,,
653131,"CZK 16,500",50.05755,14.42509,"Na Dolinách, Prague - Podolí",2 bedroom with open-plan kitchen,68 m²,"CZK 1,200",Furnished,1,Yes,No,No,No,Yes,No,No,07. 03. 2022,129,515,88,393,186,493,411,525,390,281,Excellent,"CZK 29,550",Cooperative,Brick building,Standard materials and solutions,Gas boiler,Overall,G,,Raised ground floor,,,,,,,
575851,"CZK 16,000",50.0773123,14.4690568,"Kouřimská, Prague - Vinohrady",1 bedroom with open-plan kitchen,45 m²,"CZK 4,900",Unfurnished,1,No,No,No,No,No,No,No,04. 04. 2022,192,503,70,163,195,146,158,920,280,175,Excellent,"CZK 20,000",Personal,Brick building,Standard materials and solutions,District heating,,B,,Middle floor,,,,,,,
634818,"CZK 10,000",50.102926,14.584562,"Bryksova, Prague - Černý Most",1 bedroom with open-plan kitchen,47 m²,"CZK 5,000",Furnished,7,Yes,No,Yes,No,No,Yes,No,01. 03. 2022,506,844,416,710,703,996,"1,395",814,484,,Excellent,"CZK 20,000",Personal,Prefab concrete building,Standard materials and solutions,District heating,Exterior,C,,Middle floor,,,,,,,
704764,"CZK 12,500",50.0543898,14.441744,"Nad Jezerkou, Prague - Nusle",1 bedroom with open-plan kitchen,52 m²,"CZK 4,000",Unfurnished,4,No,No,No,No,No,No,No,01. 04. 2022,66,977,175,413,17,608,314,288,"1,007",262,Excellent,"CZK 16,500",Personal,Brick building,,Central heating,,D,,Middle floor,,,,,,,
708995,"CZK 12,000",50.11852,14.50724,"Čakovická, Prague - Prosek",2 bedroom,58 m²,"CZK 4,500",Partially furnished,1,No,No,No,No,No,No,No,02. 03. 2022,170,"1,006",372,525,238,523,713,507,975,295,Excellent,"CZK 12,000",Cooperative,Brick building,,,,G,,,,,,,,,
673752,"CZK 20,000",50.02275,14.49511,"Zlešická, Prague - Chodov",2 bedroom with open-plan kitchen,68 m²,"CZK 4,000",Partially furnished,6,Yes,No,No,No,No,Yes,No,20. 09. 2021,192,736,191,835,515,667,257,497,336,83,Excellent,"CZK 23,000",Personal,Prefab concrete building,,,,D,,,,,,,,,
681098,"CZK 19,900",50.04305,14.50172,"Šternovská, Prague - Chodov",1 bedroom with open-plan kitchen,67 m²,"CZK 3,500",Partially furnished,5,No,Yes,No,No,Yes,Yes,Yes,30. 10. 2021,285,"1,315",723,"1,481",316,793,716,746,565,137,Excellent,"CZK 20,000",Personal,Brick building,Premium materials and solutions,,,G,,Top floor,,,,,,,
708856,"CZK 11,500",50.10907,14.5569,"Za černým mostem, Prague - Kyje",Small studio,33 m²,"CZK 1,600",Partially furnished,3,Yes,No,Yes,No,No,Yes,No,02. 03. 2022,176,800,136,48,754,418,"1,323","1,438",483,,New build,"CZK 23,000",Personal,Brick building,Standard materials and solutions,District heating,,B,1 to 10 years years,Middle floor,Yes,,,,,,
708984,"CZK 17,000",50.06963,14.43155,"Lublaňská, Prague - Vinohrady",2 bedroom,80 m²,CZK 650,Partially furnished,4,No,No,No,No,No,Yes,No,04. 04. 2022,295,584,288,586,153,492,226,533,422,472,Excellent,"CZK 35,000",Personal,Brick building,,,,G,,,,,,,,,
699667,"CZK 34,500",50.08581,14.46733,"Pitterova, Prague - Žižkov",1 bedroom with open-plan kitchen,106 m²,"CZK 7,500",Furnished,13,No,Yes,No,No,Yes,Yes,No,01. 03. 2022,414,428,459,605,193,334,656,302,197,59,New build,"CZK 35,000",Personal,Other,,,,C,,,,,,,,,
454022,"CZK 6,490",50.035351,14.5098249,Prague - Chodov,Studio,25 m²,"CZK 1,000",Partially furnished,2,No,Yes,No,No,No,No,No,,167,514,180,"1,490",387,679,466,480,472,405,,"CZK 7,490",Personal,Brick building,,,,,,,,,,,,,
633488,"CZK 12,000",50.053457,14.48892,"Záběhlická, Prague - Záběhlice",1 bedroom with open-plan kitchen,42 m²,"CZK 4,184",Furnished,3,No,No,No,No,No,Yes,No,01. 06. 2022,177,"1,102",201,"1,044",353,732,631,860,362,312,Excellent,"CZK 24,000",Personal,Brick building,Standard materials and solutions,Central heating,,B,1 to 10 years years,Top floor,,,,,,,
708727,"CZK 10,369",50.13580005,14.50691408186,"Rýmařovská, Prague - Letňany",Studio,25 m²,"CZK 2,245",,1,No,No,No,No,No,No,No,01. 03. 2022,99,803,163,285,345,281,282,532,226,392,Good,"CZK 12,614",Personal,Other,,,,,,,,,"CZK 1,555",,,,
671001,"CZK 17,000",50.10294,14.55224,"Sklenská, Prague - Kyje",1 bedroom with open-plan kitchen,56 m²,"CZK 4,000",Furnished,1,Yes,No,No,No,Yes,Yes,No,01. 05. 2022,259,742,402,"1,228",354,643,425,"1,074",601,344,Excellent,"CZK 17,000",Personal,Other,Standard materials and solutions,District heating,,B,1 to 10 years years,Middle floor,,,,,,,
704020,"CZK 8,804",50.03969895,14.45848458331,"Budějovická, Prague - Krč",Studio,22 m²,"CZK 2,562",,1,No,No,No,No,No,No,No,25. 05. 2019,245,"1,205",382,928,252,528,887,"1,030","1,163",582,Good,"CZK 12,366",Personal,Other,,,,,,,,,"CZK 1,471",,,,
700399,"CZK 16,000",50.125936,14.4236053,Prague - Troja,3 bedroom,72 m²,"CZK 3,900",Partially furnished,5,No,No,Yes,Yes,No,Yes,No,01. 04. 2022,234,533,230,603,396,547,631,946,"1,032",245,Excellent,"CZK 25,000",Personal,Prefab concrete building,,District heating,,,,,,,,,,,
620723,"CZK 12,000",50.029126,14.363101,"Hugo Haase, Prague - Hlubočepy",Studio,29 m²,"CZK 2,000",Furnished,1,Yes,No,No,No,No,Yes,No,01. 04. 2022,380,"1,262",503,"1,242",244,"1,280",473,713,798,486,New build,"CZK 15,000",Cooperative,Brick building,,District heating,,B,1 to 10 years years,Middle floor,Yes,,,,,,
704857,"CZK 12,802",50.0594205,14.4500825,"Nuselská, Prague - Michle",1 bedroom,36 m²,"CZK 1,947",,1,No,No,No,No,No,No,No,26. 01. 2022,51,760,54,167,28,730,214,387,732,216,Good,"CZK 16,369",Personal,Other,,,,,,,,,"CZK 1,920",,,,
708738,"CZK 13,338",50.14144095,14.5061245359,"Malkovského, Prague - Letňany",Studio,32 m²,"CZK 1,000",,8,No,No,No,No,No,No,No,01. 03. 2022,216,973,163,857,450,179,512,356,378,29,Good,"CZK 14,338",Personal,Other,,,,,,,,,"CZK 2,001",,,,
699392,"CZK 23,000",50.0372335,14.5076748,"Donovalská, Prague - Chodov",3 bedroom,95 m²,"CZK 3,251",,3,No,No,No,No,No,No,No,10. 01. 2022,91,842,183,263,420,425,414,258,142,,Good,"CZK 26,000",Personal,Other,,,,,,,,,"CZK 3,565",,,,
691990,"CZK 16,300",50.05393,14.44023,"5. května, Prague - Nusle",1 bedroom with open-plan kitchen,50 m²,"CZK 3,823",,1,No,No,No,No,Yes,No,No,01. 12. 2021,40,177,122,399,130,154,109,657,647,271,Good,"CZK 21,000",,Other,,,,,,,,,,,,,
704852,"CZK 10,300",50.0590151,14.496039,"Chmelová, Prague - Záběhlice",Studio,27 m²,"CZK 2,099",,1,No,No,No,No,No,No,No,25. 01. 2022,264,618,299,821,536,322,452,831,366,145,Good,"CZK 12,712",Personal,Other,,,,,,,,,"CZK 1,592",,,,
513154,"CZK 14,900",50.0514104,14.4579141,"Michelská, Prague - Michle",1 bedroom with open-plan kitchen,50 m²,"CZK 3,250",Unfurnished,2,No,No,No,No,No,No,No,01. 01. 1970,3,676,93,678,33,557,383,658,659,379,Excellent,"CZK 18,500",Personal,Brick building,Standard materials and solutions,Gas boiler,Overall,,1 to 10 years years,Middle floor,,,,,,,
708079,"CZK 17,294",50.0678961,14.4361074,"Fričova, Prague - Vinohrady",1 bedroom with open-plan kitchen,47 m²,"CZK 2,717",,1,No,No,No,No,No,No,No,23. 02. 2022,61,539,58,555,24,663,467,500,479,566,Good,"CZK 20,011",Personal,Other,,,,,,,,,"CZK 2,894",,,,
708976,"CZK 13,000",50.08271,14.46634,"Olšanská, Prague - Žižkov",Studio,33 m²,"CZK 2,520",Partially furnished,1,No,Yes,No,No,Yes,Yes,No,02. 03. 2022,154,381,505,689,441,367,584,600,445,518,New build,"CZK 15,520",Personal,Other,,,,C,,,,,,,,,
529719,"CZK 15,000",50.0666053,14.5132924,"Vyžlovská, Prague - Strašnice",1 bedroom with open-plan kitchen,41 m²,"CZK 3,500",Furnished,2,No,No,Yes,No,Yes,Yes,No,01. 04. 2022,222,381,"1,432",375,364,444,92,726,158,,Excellent,"CZK 30,000",Personal,Prefab concrete building,,District heating,Overall,C,,Middle floor,,,,,,,
707127,"CZK 11,500",50.056675,14.4689133,"U Plynárny, Prague - Michle",Studio,33 m²,"CZK 2,508",,3,No,No,No,No,No,No,No,01. 03. 2022,0,"1,097",153,"1,397",642,172,794,"1,002",105,,Good,"CZK 14,964",Personal,Other,,,,,,,,,"CZK 1,868",,,,
706901,"CZK 13,990",50.0452067,14.3329921,"Zázvorkova, Prague - Stodůlky",1 bedroom with open-plan kitchen,46 m²,"CZK 3,516",,11,No,No,No,No,No,No,No,01. 03. 2022,184,182,100,210,84,203,419,162,393,143,Good,"CZK 16,000",Personal,Other,,,,,,,,,"CZK 2,118",,,,
708277,"CZK 15,000",50.0471,14.30405,"Svitákova, Prague - Stodůlky",1 bedroom with open-plan kitchen,46 m²,"CZK 3,953",Partially furnished,4,No,Yes,No,No,No,Yes,Yes,01. 04. 2022,176,168,143,114,939,958,584,745,127,,Excellent,"CZK 20,000",Personal,Brick building,,,,G,,,,,,,,,
707123,"CZK 14,000",50.05468,14.52622,"Vladycká, Prague - Hostivař",Studio,33 m²,"CZK 3,080",Furnished,1,No,Yes,Yes,No,Yes,Yes,Yes,21. 02. 2022,317,805,171,768,465,809,"1,201",576,424,427,Excellent,"CZK 15,000",Personal,Brick building,,District heating,Overall,G,1 to 10 years years,Raised ground floor,,,,,,,
708972,"CZK 8,000",50.07408,14.4918,"Věšínova, Prague - Strašnice",1 bedroom,25 m²,"CZK 1,000",Partially furnished,,No,Yes,Yes,No,Yes,No,No,01. 04. 2022,189,310,136,76,210,90,198,520,530,247,Excellent,"CZK 8,000",Personal,Brick building,,,,G,,,,,,,,,
704847,"CZK 19,990",50.0678112,14.3414932,"Plzeňská, Prague - Motol",2 bedroom with open-plan kitchen,72 m²,"CZK 3,896",,1,No,No,No,No,No,No,No,01. 03. 2022,11,780,239,739,"1,414",801,939,,,,Good,"CZK 24,000",,Other,,,,,,,,,"CZK 3,353",,,,
708741,"CZK 11,706",50.0427649,14.4931358,"Klapálkova, Prague - Chodov",Studio,32 m²,"CZK 2,221",,1,No,No,No,No,No,No,No,17. 03. 2022,33,832,168,877,517,"1,461",395,"1,201","1,083",262,Good,"CZK 13,927",Personal,Other,,,,,,,,,"CZK 1,756",,,,
704714,"CZK 14,500",50.1079046,14.5464423,"Lehovecká, Prague - Hloubětín",1 bedroom with open-plan kitchen,56 m²,"CZK 5,034",,1,No,No,No,No,No,No,No,01. 03. 2022,47,825,82,844,397,816,555,419,"1,060",533,Good,"CZK 21,128",Personal,Other,,,,,,,,,"CZK 2,294",,,,
708966,"CZK 30,000",50.01264,14.38504,"Pod Akáty, Prague - Velká Chuchle",2 bedroom with open-plan kitchen,78 m²,"CZK 3,000",Partially furnished,1,Yes,No,No,No,Yes,No,No,02. 03. 2022,251,321,336,323,663,,,,,,New build,"CZK 33,000",Personal,Brick building,,,,G,,,,,,,,,
74022,"CZK 19,000",50.0493268,14.4825161,Prague - Záběhlice,3 bedroom,67 m²,"CZK 3,000",Partially furnished,5,Yes,No,No,No,No,No,No,01. 04. 2022,86,477,65,490,178,"1,241",422,365,921,309,,"CZK 30,000",Personal,Brick building,,,,,,,,,,,,,
527124,"CZK 17,000",50.0655687,14.4278338,"Oldřichova, Prague - Nusle",1 bedroom,34 m²,"CZK 2,950",Unfurnished,2,No,No,No,No,No,No,No,01. 04. 2022,242,875,155,452,120,300,585,696,417,246,Excellent,"CZK 17,000",Personal,Brick building,,,,,,,,,,,,,
140674,"CZK 13,000",50.0715118,14.4692524,Prague - Vršovice,1 bedroom with open-plan kitchen,46 m²,"CZK 3,500",Partially furnished,6,No,No,No,No,No,No,No,01. 04. 2022,129,503,233,371,218,246,272,149,730,198,,"CZK 17,000",Personal,Brick building,,District heating,,G,,Top floor,,,,,,,
618506,"CZK 17,000",50.101962,14.443915,"Tusarova, Prague - Holešovice",1 bedroom with open-plan kitchen,63 m²,"CZK 2,500",Partially furnished,5,No,No,Yes,No,No,Yes,No,01. 03. 2022,184,309,94,554,131,275,269,421,550,115,Excellent,"CZK 17,000",Personal,Brick building,,Electric boiler,Overall,D,,,,,,,,,
708041,"CZK 33,500",50.04595,14.32223,"Mukařovského, Prague - Stodůlky",2 bedroom with open-plan kitchen,99 m²,CZK 133,Furnished,14,No,Yes,Yes,No,Yes,Yes,No,11. 04. 2022,,,,,,,,,,,Excellent,"CZK 67,000",Personal,Other,Premium materials and solutions,,,A,1 to 10 years years,Top floor,Yes,,,Luka Residential s.r.o.,Luka Living Rental apartments,1405,
707732,"CZK 19,300",50.04595,14.32223,"Mukařovského, Prague - Stodůlky",1 bedroom with open-plan kitchen,48 m²,CZK 133,Furnished,5,No,Yes,Yes,No,Yes,Yes,No,11. 04. 2022,,,,,,,,,,,Excellent,"CZK 38,600",Personal,Other,,,,A,,,Yes,,,Luka Residential s.r.o.,Luka Living Rental apartments,513,
672978,"CZK 19,300",50.04595,14.32223,"Mukařovského, Prague - Stodůlky",1 bedroom with open-plan kitchen,47 m²,CZK 133,Furnished,4,No,Yes,Yes,No,Yes,Yes,No,11. 04. 2022,,,,,,,,,,,New build,"CZK 38,600",Personal,Other,Premium materials and solutions,,,A,1 to 10 years years,Middle floor,Yes,,,Luka Residential s.r.o.,Luka Living Rental apartments,410,
684383,"CZK 17,500",50.04595,14.32223,"Mukařovského, Prague - Stodůlky",1 bedroom with open-plan kitchen,50 m²,CZK 133,Unfurnished,6,No,Yes,Yes,No,Yes,Yes,No,08. 04. 2022,,,,,,,,,,,Excellent,"CZK 35,000",Personal,Other,Premium materials and solutions,,,A,1 to 10 years years,Middle floor,Yes,,,Luka Residential s.r.o.,Luka Living Rental apartments,605,
708954,"CZK 14,167",50.05667,14.46891,"U Plynárny, Prague - Michle",Studio,38 m²,"CZK 2,681",,1,No,No,No,No,No,No,No,01. 04. 2022,0,"1,097",153,"1,397",642,172,794,"1,002",105,,Good,"CZK 16,848",Personal,Other,,,,,,,,,"CZK 2,125",,,,
708953,"CZK 12,000",50.05787,14.42592,"Doudova, Prague - Podolí",1 bedroom,36 m²,CZK 800,Partially furnished,2,No,No,No,No,No,No,No,15. 03. 2022,241,512,45,491,272,458,509,414,278,237,Excellent,"CZK 12,800",Personal,Brick building,,,,G,,,,,,,,,
708951,"CZK 16,176",50.0304313,14.5340501,"Steinerova, Prague - Háje",1 bedroom,60 m²,"CZK 2,287",,12,No,No,No,No,No,No,No,01. 04. 2022,130,272,154,198,351,500,232,347,560,259,Good,"CZK 18,463",Personal,Other,,,,,,,,,"CZK 2,426",,,,
495904,"CZK 15,300",50.1160791,14.4949329,"Prosecká, Prague - Prosek",Studio,48 m²,"CZK 2,900",Furnished,1,No,Yes,Yes,No,No,Yes,Yes,,208,"1,054",451,445,114,441,173,248,700,430,New build,"CZK 19,400",Personal,Brick building,,District heating,,,1 to 10 years years,Ground floor,Yes,27 m²,,,,,
693574,"CZK 9,500",50.08744,14.46328,"Jeseniova, Prague - Žižkov",Studio,43 m²,"CZK 3,500",Partially furnished,,No,No,Yes,No,No,Yes,No,20. 03. 2022,183,616,75,373,121,551,521,637,507,400,Excellent,"CZK 19,000",Personal,Brick building,,,,G,,,,,,,,,
708949,"CZK 14,118",50.0882812,14.4579809,"Koněvova, Prague - Žižkov",1 bedroom with open-plan kitchen,47 m²,"CZK 4,516",,4,No,No,No,No,No,No,No,01. 04. 2022,217,246,152,307,105,180,308,479,161,418,Good,"CZK 18,634",Personal,Other,,,,,,,,,"CZK 2,118",,,,
708947,"CZK 11,765",50.0793089,14.4341077,"Španělská, Prague - Vinohrady",Studio,24 m²,"CZK 1,873",,1,No,No,No,No,No,No,No,01. 04. 2022,148,452,187,402,165,154,377,377,596,750,Good,"CZK 13,638",,Other,,,,,,,,,"CZK 1,765",,,,
708932,"CZK 12,500",50.0814,14.35271,"Bělohorská, Prague - Břevnov",1 bedroom,42 m²,"CZK 2,200",Partially furnished,3,No,No,No,No,No,No,No,14. 03. 2022,637,895,711,765,490,784,894,836,379,559,Excellent,"CZK 12,500",Personal,Brick building,,,,A,,,,,,,,,
708942,"CZK 10,533",50.11464,14.6269,"U Věže, Prague - Horní Počernice",Studio,25 m²,"CZK 1,561",,1,No,No,No,No,No,No,No,01. 04. 2022,163,221,215,307,33,272,258,733,594,348,Good,"CZK 12,094",Personal,Other,,,,,,,,,"CZK 1,580",,,,
708938,"CZK 10,706",50.0501104,14.5465898,"Tenisová, Prague - Hostivař",1 bedroom with open-plan kitchen,45 m²,"CZK 5,016",,7,No,No,No,No,No,No,No,01. 04. 2022,271,269,294,275,118,704,235,586,174,,Good,"CZK 15,722",Personal,Other,,,,,,,,,"CZK 1,606",,,,
566145,"CZK 16,000",50.0844139,14.3468361,"Brunclíkova, Prague - Břevnov",2 bedroom,52 m²,"CZK 4,340",Partially furnished,3,No,No,No,No,No,No,No,01. 05. 2022,112,696,47,549,238,567,260,285,380,173,,"CZK 16,000",Personal,Prefab concrete building,,,,,,,,,,,,,
708935,"CZK 12,500",50.06104,14.44294,"Pod Vilami, Prague - Nusle",Small studio,26 m²,CZK 500,Furnished,4,No,No,No,No,No,No,No,03. 03. 2022,277,692,165,397,317,420,455,880,391,353,Excellent,"CZK 12,500",Personal,Brick building,,,,G,,,,,,,,,
582001,"CZK 13,000",50.04171,14.56964,"Mantovská, Prague - Horní Měcholupy",1 bedroom with open-plan kitchen,52 m²,"CZK 3,627",Partially furnished,1,Yes,Yes,Yes,No,Yes,Yes,Yes,01. 04. 2022,248,989,534,801,687,504,651,641,"1,291",551,New build,"CZK 26,000",Personal,Prefab concrete building,Premium materials and solutions,District heating,,B,1 to 10 years years,Middle floor,Yes,,,,,,
583096,"CZK 10,000",50.080924,14.496629,"Počernická, Prague - Malešice",Small studio,27 m²,"CZK 1,800",Furnished,3,No,No,Yes,No,No,Yes,No,01. 03. 2022,111,386,195,339,263,436,287,523,907,149,Excellent,"CZK 11,800",Personal,Prefab concrete building,,,,B,,,,,,,,,
708933,"CZK 15,294",50.0883868,14.468265,"Jeseniova, Prague - Žižkov",1 bedroom with open-plan kitchen,49 m²,"CZK 4,940",,4,No,No,No,No,No,No,No,01. 04. 2022,58,601,90,27,70,180,273,347,293,390,Good,"CZK 20,234",Personal,Other,,,,,,,,,"CZK 2,294",,,,
708931,"CZK 14,935",50.056675,14.4689133,"U Plynárny, Prague - Michle",1 bedroom with open-plan kitchen,51 m²,"CZK 2,764",,1,No,No,No,No,No,No,No,01. 04. 2022,0,"1,097",153,"1,397",642,172,794,"1,002",105,,Good,"CZK 17,699",Personal,Other,,,,,,,,,"CZK 2,845",,,,
699704,"CZK 18,000",50.08153,14.41342,"Národní, Prague - Staré Město",1 bedroom with open-plan kitchen,60 m²,"CZK 2,000",Partially furnished,4,No,No,No,No,No,Yes,No,18. 01. 2022,48,685,237,149,38,171,250,294,366,337,Excellent,"CZK 18,000",Other,Brick building,,,,G,,,,,,,,,
708248,"CZK 13,000",50.04817,14.56117,"Boloňská, Prague - Horní Měcholupy",1 bedroom with open-plan kitchen,43 m²,"CZK 3,500",Partially furnished,7,No,No,Yes,No,No,Yes,No,01. 04. 2022,489,"1,084",601,"1,161",204,"1,043",286,362,874,91,Excellent,"CZK 13,000",Personal,Prefab concrete building,,,Overall,G,,,,,,,,,
547671,"CZK 17,000",50.1180409,14.4538356,Prague - Libeň,3 bedroom,99 m²,"CZK 2,000",Unfurnished,2,No,Yes,No,No,No,No,No,11. 04. 2022,214,807,724,951,346,688,315,"1,021",499,229,,"CZK 40,000",Personal,Brick building,Standard materials and solutions,Central heating,,,10 to 30 years years,Middle floor,,,,,,,
589871,"CZK 8,890",50.104181,14.451361,"Přístavní, Prague - Holešovice",Studio,23 m²,"CZK 1,690",,1,No,No,No,No,No,Yes,No,05. 03. 2022,145,239,129,194,128,189,539,501,336,409,Excellent,"CZK 15,000",Personal,Brick building,,Central heating,Overall,,,,,,,,,,
137747,"CZK 10,500",50.1269247,14.4645974,"Kyselova, Prague - Kobylisy",Small studio,25 m²,"CZK 2,000",Partially furnished,4,No,No,No,No,No,No,No,01. 04. 2022,269,510,258,278,243,472,163,205,823,210,,CZK 1,Personal,Prefab concrete building,,District heating,,,,,,,,,,,
462116,"CZK 12,000",50.1345763,14.4729742,"Šimůnkova, Prague - Kobylisy",1 bedroom with open-plan kitchen,49 m²,"CZK 3,500",Partially furnished,3,No,No,No,No,No,Yes,No,02. 03. 2022,165,950,304,"1,047",264,925,408,208,"1,171",143,Excellent,"CZK 25,000",Personal,Prefab concrete building,Standard materials and solutions,District heating,,,1 to 10 years years,,,,,,,,
549373,"CZK 16,000",50.0257254,14.4362755,Prague - Braník,3 bedroom,75 m²,"CZK 8,000",Partially furnished,10,Yes,No,No,No,No,Yes,No,01. 03. 2022,218,260,218,231,307,286,679,395,891,400,Excellent,"CZK 30,000",Personal,Prefab concrete building,Premium materials and solutions,Central heating,Overall,,,Middle floor,,,,,,,
448290,"CZK 16,000",50.0385227,14.3237865,"Kakosova, Prague - Řeporyje",Studio,44 m²,"CZK 4,000",Furnished,3,Yes,No,Yes,No,Yes,Yes,Yes,01. 03. 2022,172,"1,161",900,"1,090",432,989,710,"1,131",571,68,New build,"CZK 20,000",Personal,Brick building,Premium materials and solutions,District heating,,A,1 to 10 years years,Middle floor,Yes,,,,,,
578086,"CZK 14,000",50.0459517,14.4949206,"Choceradská, Prague - Záběhlice",1 bedroom with open-plan kitchen,42 m²,"CZK 2,000",Unfurnished,1,No,No,No,No,No,No,No,10. 03. 2022,511,908,450,850,683,"1,453",247,"1,119","1,075",562,Excellent,"CZK 25,000",Personal,Prefab concrete building,,,,G,,,,,,,,,
708918,"CZK 22,500",50.0699993,14.3820262,"Hlaváčkova, Prague - Košíře",Studio,35 m²,"CZK 7,500",Furnished,6,Yes,No,No,No,No,Yes,Yes,01. 05. 2022,202,523,119,828,248,936,219,756,"1,073",529,,,,,,,,,,,,,,,,,
707766,"CZK 11,100",50.0731,14.43985,"Záhřebská, Prague - Vinohrady",Studio,31 m²,"CZK 2,390",Furnished,3,No,No,No,No,No,Yes,No,01. 04. 2022,166,323,59,552,98,502,124,436,693,506,Excellent,"CZK 17,000",Personal,Brick building,,,,A,,,,,,,,,
708915,"CZK 13,000",50.10768,14.39138,"Zemědělská, Prague - Dejvice",1 bedroom,40 m²,CZK 740,Partially furnished,2,No,No,No,No,No,No,No,02. 03. 2022,223,"1,360",30,766,310,167,626,170,702,628,Good,"CZK 13,000",Cooperative,Brick building,,,,G,,,,,,,,,
404507,"CZK 13,500",50.0561286,14.4214707,Prague - Podolí,1 bedroom with open-plan kitchen,44 m²,"CZK 2,500",Partially furnished,3,Yes,No,Yes,No,Yes,Yes,No,01. 04. 2022,314,461,345,234,292,458,173,781,390,136,Excellent,,Personal,Brick building,,Central heating,Overall,,,Middle floor,,,,,,,
707449,"CZK 17,998",50.09214,14.48204,"Koněvova, Prague - Žižkov",2 bedroom,70 m²,"CZK 2,740",Furnished,,No,No,No,No,No,Yes,No,15. 03. 2022,66,633,62,324,37,257,307,247,228,307,Good,"CZK 36,000",Personal,Brick building,Standard materials and solutions,Central heating,,G,10 to 30 years years,Raised ground floor,,,,,,,
624813,"CZK 17,000",50.088739,14.459929,"Koněvova, Prague - Žižkov",1 bedroom with open-plan kitchen,45 m²,"CZK 3,500",Furnished,3,No,No,Yes,No,No,Yes,Yes,01. 05. 2022,69,391,237,352,57,326,454,624,141,458,New build,"CZK 34,000",Personal,Brick building,Premium materials and solutions,Central heating,,A,1 to 10 years years,Middle floor,Yes,,,,,,
453418,"CZK 16,000",50.0989455,14.3615835,"Jemenská, Prague - Vokovice",2 bedroom,55 m²,"CZK 2,500",Furnished,7,No,No,Yes,Yes,No,Yes,No,,147,315,325,289,216,336,258,125,"1,362",329,Excellent,"CZK 20,000",Cooperative,Prefab concrete building,Standard materials and solutions,District heating,Overall,,,Top floor,,,,,,,
703789,"CZK 12,700",50.05981,14.44846,"Dolní, Prague - Nusle",Studio,31 m²,"CZK 1,673",Unfurnished,1,No,No,Yes,No,No,No,No,25. 02. 2022,137,918,172,285,125,690,367,533,799,140,Excellent,"CZK 12,700",Personal,Brick building,Premium materials and solutions,Gas boiler,Overall,G,over 50 years years,Middle floor,,,,,,,
468820,"CZK 12,500",50.0684978,14.3880015,"Nad Popelkou, Prague - Smíchov",1 bedroom,55 m²,"CZK 2,800",Partially furnished,2,Yes,No,No,No,No,No,No,,46,980,655,"1,173",630,"1,067",691,"1,059",531,171,,"CZK 27,000",Personal,Brick building,Standard materials and solutions,Central heating,Overall,C,1 to 10 years years,Middle floor,,,,,,,
623417,"CZK 14,000",50.064877,14.42824,"Jaromírova, Prague - Nusle",Studio,28 m²,"CZK 3,200",,3,No,No,No,No,No,No,No,06. 03. 2022,150,490,83,509,147,216,470,608,470,365,Excellent,"CZK 28,000",Personal,Brick building,,,,B,,,,,,,,,
698486,"CZK 31,500",50.07468,14.3949,"Švédská, Prague - Smíchov",2 bedroom with open-plan kitchen,100 m²,"CZK 5,500",Partially furnished,2,Yes,No,No,No,No,Yes,Yes,Ihned,52,989,268,730,310,684,316,930,"1,088",443,New build,"CZK 31,500",Personal,Other,Standard materials and solutions,Central heating,Overall,B,1 to 10 years years,Middle floor,,,,,,,
708226,"CZK 11,500",50.10681,14.44916,"Poupětova, Prague - Holešovice",Small studio,25 m²,"CZK 2,300",Furnished,1,No,No,No,No,No,No,No,03. 03. 2022,198,450,31,262,118,266,265,724,363,324,Excellent,"CZK 15,000",Cooperative,Brick building,Standard materials and solutions,Electric boiler,Interior,B,over 50 years years,Ground floor,,,,,,,
518635,"CZK 14,500",50.0663273,14.4296422,Prague - Nusle,1 bedroom with open-plan kitchen,38 m²,"CZK 3,000",Furnished,4,No,No,No,No,No,Yes,No,01. 05. 2022,194,809,124,703,236,246,531,563,200,97,Excellent,"CZK 14,500",Personal,Brick building,Standard materials and solutions,Gas boiler,,,,,,,,,,,
300969,"CZK 25,000",50.0381427,14.38810125,"Slivenecká, Prague - Hlubočepy",3 bedroom with open-plan kitchen,120 m²,"CZK 4,500",Partially furnished,2,Yes,No,No,No,No,No,Yes,,112,"1,089",880,"1,003",718,"1,034",964,961,896,623,,"CZK 40,000",Personal,Brick building,,,,,,,,,,,,,
544322,"CZK 16,000",50.0822768,14.4501047,"Kubelíkova, Prague - Žižkov",1 bedroom with open-plan kitchen,65 m²,"CZK 4,000",Partially furnished,4,No,No,No,No,No,No,No,,395,174,145,350,13,163,377,485,529,532,,"CZK 20,000",Personal,Brick building,,,,,,,,,,,,,
421082,"CZK 11,000",50.02078,14.40305,"Šífařská, Prague - Hodkovičky",Studio,27 m²,"CZK 2,200",Partially furnished,2,No,Yes,No,No,No,No,No,01. 05. 2022,423,654,"1,185",375,"1,111",,,,,,New build,"CZK 11,000",Personal,Brick building,,,,B,,,,,,,,,
707717,"CZK 15,000",50.08969,14.47408,"Viklefova, Prague - Žižkov",1 bedroom,40 m²,CZK 495,Partially furnished,1,No,No,Yes,No,No,Yes,No,01. 03. 2022,299,941,205,330,87,187,308,261,429,377,Good,"CZK 15,000",Personal,Brick building,,Gas boiler,,D,,Ground floor,,,,,,,
672382,"CZK 21,000",50.10362,14.50919,"Pod Harfou, Prague - Vysočany",2 bedroom with open-plan kitchen,75 m²,"CZK 5,000",Furnished,11,No,Yes,No,No,No,Yes,Yes,01. 03. 2022,446,121,"1,225",719,"1,048","1,345","1,068",84,,,Excellent,"CZK 40,000",Personal,Brick building,Standard materials and solutions,Central heating,,C,1 to 10 years years,Middle floor,,,,,,,
686530,"CZK 32,000",50.10149,14.56361,"Mrázkova, Prague - Černý Most",3 bedroom with open-plan kitchen,105 m²,"CZK 5,000",Furnished,2,No,No,Yes,Yes,Yes,Yes,Yes,01. 05. 2022,232,708,418,"1,146",772,624,389,926,86,,New build,"CZK 60,000",Personal,Brick building,,District heating,,B,1 to 10 years years,Middle floor,Yes,,,,,,
519849,"CZK 21,000",50.0771546,14.4683767,Prague - Vinohrady,2 bedroom,59 m²,"CZK 3,500",Furnished,2,Yes,No,No,No,No,Yes,No,01. 03. 2022,141,452,19,213,144,197,107,869,229,124,Excellent,"CZK 24,980",Personal,Brick building,,Central heating,Interior,,1 to 10 years years,Middle floor,,,,,,,
577002,"CZK 16,500",50.1171669,14.4317465,"Trojská, Prague - Troja",1 bedroom with open-plan kitchen,43 m²,"CZK 3,500",Unfurnished,1,No,No,No,No,No,No,No,01. 01. 2022,399,778,398,794,980,582,"1,071",806,,,,"CZK 49,500",Personal,Brick building,,,,C,,,,,,,,,
704250,"CZK 15,000",50.0947805,14.463317,"Molákova, Prague - Karlín",1 bedroom with open-plan kitchen,35 m²,"CZK 3,500",,7,Yes,No,Yes,No,No,Yes,No,01. 01. 1970,239,"1,160",399,900,165,781,84,772,831,289,,"CZK 45,000",Personal,Prefab concrete building,,,,,,,,,,,,,
708903,"CZK 56,250",50.0908563,14.4202783,"Dušní, Prague - Josefov",3 bedroom,105 m²,"CZK 18,750",Furnished,4,No,No,No,No,No,Yes,No,01. 04. 2022,120,466,224,270,88,288,156,399,230,467,,,,,,,,,,,,,,,,,
708902,"CZK 59,250",50.0908563,14.4202783,"Dušní, Prague - Josefov",2 bedroom with open-plan kitchen,100 m²,"CZK 19,750",Furnished,7,No,Yes,No,No,No,Yes,No,13. 03. 2022,120,466,224,270,88,288,156,399,230,467,,,,,,,,,,,,,,,,,
95646,"CZK 20,000",50.0893807,14.4450545,"pernerova, Prague - Karlín",1 bedroom with open-plan kitchen,70 m²,"CZK 4,000",Furnished,5,No,No,No,No,Yes,Yes,No,01. 04. 2022,171,665,304,594,5,568,218,873,680,216,New build,"CZK 24,000",Personal,Brick building,Premium materials and solutions,Central heating,Interior,,,Top floor,,,,,,,
651316,"CZK 15,000",50.056161,14.292234,"Do Zahrádek I, Prague - Třebonice",1 bedroom with open-plan kitchen,51 m²,"CZK 4,500",Partially furnished,4,No,Yes,No,No,No,Yes,Yes,01. 03. 2022,269,"1,137",519,463,776,574,573,797,414,,New build,"CZK 20,000",Personal,Brick building,Premium materials and solutions,District heating,,B,1 to 10 years years,Middle floor,Yes,,,,,,
707340,"CZK 21,000",50.1057314,14.44422,"U Průhonu b, Prague - Holešovice",Studio,32 m²,"CZK 7,000",Furnished,1,No,Yes,No,No,No,Yes,Yes,05. 03. 2022,299,437,281,449,312,304,607,789,18,459,,,,,,,,,,,,,,,,,
707282,"CZK 22,950",50.0723321,14.4399493,"Jana Masaryka, Prague - Vinohrady",1 bedroom,49 m²,"CZK 7,650",Furnished,3,No,No,No,No,No,Yes,No,27. 03. 2022,155,369,147,651,45,545,205,328,671,484,,,,,,,,,,,,,,,,,
707367,"CZK 59,738",50.0902503,14.4293691,"Truhlářská, Prague - Nové Město",2 bedroom with open-plan kitchen,186 m²,"CZK 19,912",Furnished,3,No,No,No,No,No,Yes,No,05. 03. 2022,176,468,153,183,95,334,340,266,546,580,,,,,,,,,,,,,,,,,
707323,"CZK 20,306",50.0739772,14.4306534,"Legerova, Prague - Vinohrady",Studio,38 m²,"CZK 6,769",Furnished,2,No,No,No,No,No,No,No,05. 03. 2022,132,574,130,206,94,143,358,427,494,560,,,,,,,,,,,,,,,,,
707301,"CZK 32,063",50.0846396,14.4202484,"Michalská, Prague - Staré Město",2 bedroom,54 m²,"CZK 10,687",Furnished,7,No,No,No,No,No,Yes,No,06. 03. 2022,314,494,74,261,13,145,42,702,340,361,,,,,,,,,,,,,,,,,
707288,"CZK 33,675",50.0643299,14.4102127,"Strakonická, Prague - Smíchov",2 bedroom,50 m²,"CZK 11,225",Furnished,-1,No,No,No,No,No,No,No,19. 04. 2022,211,382,250,989,170,745,812,"1,050",387,543,,,,,,,,,,,,,,,,,
707249,"CZK 47,250",50.090911,14.4295366,"Soukenická, Prague - Nové Město",1 bedroom with open-plan kitchen,50 m²,"CZK 15,750",Furnished,4,No,No,No,No,No,Yes,Yes,01. 04. 2022,144,325,176,152,60,230,49,259,388,439,,,,,,,,,,,,,,,,,
707817,"CZK 45,000",50.0795975,14.4273504,"Ve Smečkách, Prague - Nové Město",1 bedroom with open-plan kitchen,70 m²,"CZK 15,000",Furnished,4,No,No,No,No,No,Yes,No,23. 04. 2022,285,548,70,207,10,222,245,618,370,524,,,,,,,,,,,,,,,,,
707401,"CZK 22,500",50.0723554,14.4069173,"Lidická, Prague - Smíchov",1 bedroom,,"CZK 7,500",Furnished,3,No,No,No,No,No,No,No,06. 04. 2022,25,378,16,198,26,271,471,963,"1,249",622,,,,,,,,,,,,,,,,,
707337,"CZK 22,838",50.0687245,14.3688309,"Pod Školou, Prague - Košíře",2 bedroom with open-plan kitchen,65 m²,"CZK 7,612",Furnished,2,No,No,No,No,No,Yes,No,05. 03. 2022,257,773,307,429,264,322,165,"1,090",462,415,,,,,,,,,,,,,,,,,
707350,"CZK 36,000",50.079465,14.4353199,"Mánesova, Prague - Vinohrady",Studio,45 m²,"CZK 12,000",Furnished,1,No,No,No,No,No,Yes,No,05. 03. 2022,156,408,244,342,59,242,281,281,533,788,,,,,,,,,,,,,,,,,
707285,"CZK 15,334",50.0839446,14.4142188,"Karoliny Světlé, Prague - Staré Město",1 bedroom,29 m²,"CZK 5,111",Furnished,2,No,No,No,No,No,No,No,05. 03. 2022,121,731,23,390,14,376,531,533,489,221,,,,,,,,,,,,,,,,,
708896,"CZK 24,750",50.0720218,14.4618189,"Bulharská, Prague - Vršovice",1 bedroom with open-plan kitchen,54 m²,"CZK 8,250",Furnished,5,No,No,No,No,No,No,No,01. 05. 2022,222,829,176,605,99,603,417,336,724,245,,,,,,,,,,,,,,,,,
708895,"CZK 29,452",50.0372353,14.482405,"Hněvkovská, Prague - Chodov",Studio,40 m²,"CZK 9,817",Furnished,3,No,No,No,No,No,No,No,01. 05. 2022,469,"1,480",408,"1,340",370,"1,305",889,"1,194",334,309,,,,,,,,,,,,,,,,,
708894,"CZK 25,500",50.0471114,14.4429584,"Krchlebská, Prague - Krč",1 bedroom with open-plan kitchen,41 m²,"CZK 8,500",Furnished,5,No,No,No,No,No,No,No,01. 05. 2022,394,499,253,432,280,389,317,725,696,412,,,,,,,,,,,,,,,,,
708892,"CZK 20,250",50.0719171,14.4429188,"Rybalkova, Prague - Vinohrady",1 bedroom with open-plan kitchen,48 m²,"CZK 6,750",Furnished,3,No,No,No,No,No,Yes,No,01. 05. 2022,195,408,97,765,42,717,415,296,511,225,,,,,,,,,,,,,,,,,
708891,"CZK 39,000",50.0739894,14.440101,"Francouzská, Prague - Vinohrady",2 bedroom,80 m²,"CZK 13,000",Furnished,3,No,No,No,No,No,Yes,No,01. 05. 2022,149,274,60,441,20,421,59,552,690,457,,,,,,,,,,,,,,,,,
708890,"CZK 9,000",50.0677075,14.5189136,"Mokřanská, Prague - Strašnice",Studio,20 m²,"CZK 3,000",Furnished,2,No,No,No,No,No,No,No,01. 05. 2022,168,769,821,899,"1,058",898,"1,469",728,,,,,,,,,,,,,,,,,,,
708889,"CZK 9,750",50.068042,14.5177497,"Mokřanská, Prague - Strašnice",Studio,20 m²,"CZK 3,250",Furnished,2,No,No,No,No,No,No,No,01. 05. 2022,77,679,731,809,968,808,"1,484",638,,,,,,,,,,,,,,,,,,,
708888,"CZK 18,000",50.0992269,14.3632307,"Arabská, Prague - Vokovice",2 bedroom,53 m²,"CZK 6,000",Furnished,9,No,No,No,No,No,Yes,No,01. 05. 2022,126,352,449,240,383,460,336,130,"1,420",331,,,,,,,,,,,,,,,,,
708887,"CZK 26,250",50.0795659,14.4357789,"Balbínova, Prague - Vinohrady",1 bedroom with open-plan kitchen,60 m²,"CZK 8,750",Furnished,3,No,No,No,No,No,Yes,No,01. 05. 2022,134,417,252,351,68,251,205,205,457,712,,,,,,,,,,,,,,,,,
708886,"CZK 17,175",50.0667869,14.4553047,"Sportovní, Prague - Vršovice",1 bedroom with open-plan kitchen,45 m²,"CZK 5,725",Furnished,2,No,Yes,No,No,No,No,No,01. 05. 2022,79,38,77,287,79,287,384,531,326,376,,,,,,,,,,,,,,,,,
708885,"CZK 15,319",50.1033901,14.4020568,"U Zeměpisného ústavu, Prague - Bubeneč",Studio,28 m²,"CZK 5,106",Furnished,1,No,No,No,No,No,No,No,01. 05. 2022,192,792,137,285,93,475,243,337,508,82,,,,,,,,,,,,,,,,,
708882,"CZK 19,166",50.0388338,14.3231874,"Kakosova, Prague - Řeporyje",1 bedroom with open-plan kitchen,60 m²,"CZK 6,389",Furnished,4,No,Yes,No,No,No,Yes,Yes,01. 05. 2022,188,"1,187",832,"1,111",550,983,731,"1,127",688,53,,,,,,,,,,,,,,,,,
156828,"CZK 15,000",50.0780634,14.4580267,"Baranova, Prague - Žižkov",1 bedroom with open-plan kitchen,55 m²,CZK 800,Partially furnished,2,No,No,No,No,No,Yes,No,01. 03. 2022,95,426,68,168,77,236,547,654,801,288,Excellent,"CZK 15,000",Personal,Brick building,,Other,,,,,,,,,,,
705286,"CZK 14,800",50.0562679,14.5456142,"Dolnoměcholupská, Prague - Hostivař",1 bedroom with open-plan kitchen,45 m²,"CZK 2,500",Partially furnished,3,No,No,No,No,Yes,No,No,,219,"1,040","1,352",228,"1,399",859,943,,,,Excellent,"CZK 10,000",Personal,Brick building,Standard materials and solutions,,Overall,G,,Top floor,,,,,,,
708197,"CZK 19,000",50.10847,14.47528,"U Libeňského pivovaru, Prague - Libeň",1 bedroom with open-plan kitchen,50 m²,"CZK 4,000",Furnished,3,Yes,No,Yes,No,No,Yes,Yes,01. 04. 2022,264,769,236,482,257,314,365,592,332,244,Excellent,"CZK 23,000",Personal,Low-energy building,,,,G,,,,,,,,,
708878,"CZK 13,000",50.06955,14.48319,"V Předpolí, Prague - Strašnice",1 bedroom with open-plan kitchen,47 m²,CZK 550,Unfurnished,3,No,No,Yes,No,No,No,No,01. 03. 2022,394,650,331,396,341,475,728,595,472,435,Excellent,"CZK 13,550",Personal,Brick building,,,,G,,,,,,,,,
508727,"CZK 15,000",50.0483749,14.4469753,"Vokáčova, Prague - Michle",1 bedroom with open-plan kitchen,50 m²,"CZK 3,026",Partially furnished,2,Yes,No,Yes,No,Yes,Yes,No,01. 03. 2022,271,477,150,215,104,130,401,570,722,316,New build,"CZK 15,000",Personal,Brick building,,,,B,,,Yes,,,,,,
708857,"CZK 16,788",50.10809,14.43722,"Na Zátorách, Prague - Holešovice",Studio,18 m²,"CZK 8,000",Furnished,3,No,No,No,No,Yes,Yes,Yes,01. 04. 2022,203,"1,202",318,"1,023",78,445,306,355,606,,Excellent,"CZK 16,788",Personal,Prefab concrete building,,,,G,,,,,,,,,
695624,"CZK 20,000",50.07342,14.43573,"Belgická, Prague - Vinohrady",1 bedroom with open-plan kitchen,50 m²,"CZK 5,000",Furnished,2,No,No,No,No,No,No,No,11. 12. 2021,238,91,125,269,60,116,23,208,824,866,Excellent,"CZK 40,000",Cooperative,Brick building,,,,G,,,,,,,,,
708178,"CZK 13,000",50.05165,14.34686,"Petržílkova, Prague - Stodůlky",1 bedroom with open-plan kitchen,45 m²,"CZK 2,600",Furnished,1,No,No,Yes,No,No,Yes,No,25. 02. 2022,77,528,199,185,134,113,178,326,"1,199",203,Good,"CZK 13,000",Personal,Prefab concrete building,,,,G,,,,,,,,,
708854,"CZK 13,000",50.10331,14.47473,"Novákových, Prague - Libeň",Studio,36 m²,"CZK 1,000",Furnished,5,No,No,No,No,No,Yes,No,01. 04. 2022,120,231,151,82,7,56,105,299,410,472,New build,"CZK 14,000",Personal,Brick building,,,,B,,,,,,,,,
465337,"CZK 12,000",50.1276836,14.5021292,Prague - Letňany,Studio,36 m²,"CZK 3,200",Partially furnished,4,Yes,No,Yes,No,No,Yes,No,01. 04. 2022,183,799,96,828,660,760,318,477,"1,499",313,Excellent,"CZK 15,000",Personal,Prefab concrete building,Standard materials and solutions,District heating,,,10 to 30 years years,Middle floor,,,,,,,
708849,"CZK 15,000",50.07098,14.38725,"Mahenova, Prague - Košíře",2 bedroom,72 m²,CZK 600,Partially furnished,2,Yes,No,No,No,No,No,No,15. 03. 2022,60,904,97,"1,058",37,"1,192",511,814,"1,092",210,Excellent,"CZK 15,000",Personal,Brick building,Standard materials and solutions,Gas boiler,,G,,Middle floor,,,,,,,
510345,"CZK 14,000",50.0132652,14.4007748,"Pískařská, Prague - Modřany",Studio,42 m²,"CZK 3,500",Furnished,3,No,Yes,Yes,No,No,Yes,Yes,07. 03. 2022,124,"1,056",401,"1,353",770,"1,414","1,215",693,,,Excellent,"CZK 25,000",Personal,Brick building,,,,B,,,,,,,,,
708305,"CZK 46,800",50.0606031,14.3995501,"Na Neklance, Prague - Smíchov",1 bedroom with open-plan kitchen,47 m²,"CZK 15,600",Furnished,1,No,No,No,No,No,Yes,Yes,05. 03. 2022,149,907,200,914,210,455,590,729,652,530,,,,,,,,,,,,,,,,,
450463,"CZK 7,402",50.058202,14.5205966,"Na Groši, Prague - Hostivař",Small studio,27 m²,"CZK 2,598",Partially furnished,2,No,No,No,No,No,No,No,01. 02. 2022,53,916,152,879,900,920,848,"1,195",950,217,Excellent,"CZK 10,000",Personal,Prefab concrete building,Standard materials and solutions,District heating,,B,10 to 30 years years,Middle floor,,,,,,,
528429,"CZK 15,000",50.1013047,14.446693,"Osadní, Prague - Holešovice",1 bedroom,45 m²,"CZK 3,500",Furnished,6,Yes,No,Yes,No,No,No,No,01. 04. 2022,183,160,124,393,72,81,108,260,562,117,Excellent,"CZK 15,000",Personal,Brick building,,Gas boiler,,,,Top floor,,,,,,,
596994,"CZK 9,990",50.026395,14.521774,"Opatovská, Prague - Chodov",Studio,38 m²,CZK 1,,3,No,No,No,No,No,No,No,07. 03. 2022,93,811,106,828,378,311,421,414,924,222,New build,"CZK 18,000",Personal,Brick building,,,,A,,,,,,,,,
589631,"CZK 9,990",50.037684,14.591834,"U Uhříněveské Obory, Prague - Uhříněves",Small studio,38 m²,CZK 1,,2,No,No,No,No,No,No,No,07. 03. 2022,354,"1,139",491,942,613,928,554,455,"1,335",237,New build,"CZK 23,980",Personal,Brick building,,,,A,,,,,,,,,
619894,"CZK 9,885",50.036582,14.593744,"V Bytovkách, Prague - Uhříněves",Studio,45 m²,CZK 100,,2,No,No,No,No,No,No,No,05. 03. 2022,220,"1,006",357,800,699,786,300,321,"1,201",51,New build,"CZK 18,000",Personal,Brick building,,,,A,,,,,,,,,
596997,"CZK 9,990",50.038205,14.592655,"U Uhříněveské obory, Prague - Uhříněves",1 bedroom with open-plan kitchen,40 m²,CZK 1,Partially furnished,2,No,No,No,No,No,No,No,05. 03. 2022,465,"1,251",602,"1,053",670,"1,039",666,566,"1,446",348,New build,"CZK 18,000",Personal,Brick building,Premium materials and solutions,District heating,,A,1 to 10 years years,,,,,,,,
609646,"CZK 9,990",50.037252,14.594891,"Křemenná, Prague - Uhříněves",Small studio,40 m²,CZK 1,,3,No,No,No,No,Yes,No,No,05. 03. 2022,474,"1,259",611,"1,045",952,"1,032",545,575,"1,455",309,New build,"CZK 18,000",Personal,Brick building,,,,A,,,Yes,,,,,,
708831,"CZK 10,000",50.10662,14.39496,"Jugoslávských partyzánů, Prague - Bubeneč",1 bedroom with open-plan kitchen,40 m²,"CZK 1,500",Furnished,-1,No,No,No,No,No,No,No,01. 04. 2022,70,939,32,325,26,221,232,448,694,148,Good,"CZK 10,000",Personal,Brick building,,,,G,,,,,,,,,
708820,"CZK 17,000",50.0431159,14.3133445,"Toufarova, Prague - Stodůlky",1 bedroom with open-plan kitchen,55 m²,"CZK 4,700",Partially furnished,,No,Yes,Yes,No,Yes,Yes,Yes,01. 01. 1970,267,495,240,809,830,438,788,568,"1,041",592,,"CZK 17,000",Personal,Prefab concrete building,Standard materials and solutions,District heating,,B,1 to 10 years years,Raised ground floor,Yes,37 m²,,,,,
708827,"CZK 56,250",50.0882082,14.4262296,"Rybná, Prague - Staré Město",2 bedroom with open-plan kitchen,86 m²,"CZK 18,750",Furnished,2,Yes,No,No,No,No,No,No,05. 03. 2022,281,192,58,183,11,369,315,297,289,305,,,,,,,,,,,,,,,,,
708826,"CZK 63,750",50.0921516,14.4210224,"U Milosrdných, Prague - Staré Město",3 bedroom,100 m²,"CZK 21,250",Furnished,4,Yes,No,No,No,No,Yes,No,08. 04. 2022,281,516,228,356,173,201,312,496,280,366,,,,,,,,,,,,,,,,,
708825,"CZK 57,375",50.0884837,14.4184185,"Maiselova, Prague - Josefov",4 bedroom,111 m²,"CZK 19,125",Furnished,4,Yes,No,No,No,No,Yes,No,24. 04. 2022,173,222,161,313,19,435,290,555,16,536,,,,,,,,,,,,,,,,,
708824,"CZK 57,750",50.0895437,14.4260543,"Rybná, Prague - Staré Město",3 bedroom,86 m²,"CZK 19,250",Furnished,3,No,No,No,No,No,No,No,01. 04. 2022,138,70,36,61,45,257,146,128,234,214,,,,,,,,,,,,,,,,,
708823,"CZK 48,750",50.0875896,14.4153411,"Křižovnická, Prague - Staré Město",2 bedroom,71 m²,"CZK 16,250",Furnished,2,No,No,No,No,No,Yes,No,01. 04. 2022,84,268,232,146,18,496,135,652,432,207,,,,,,,,,,,,,,,,,
708822,"CZK 41,250",50.0895308,14.4237131,"Masná, Prague - Staré Město",1 bedroom,38 m²,"CZK 13,750",Furnished,4,No,No,No,No,No,Yes,No,24. 03. 2022,69,269,125,89,15,106,70,52,156,144,,,,,,,,,,,,,,,,,
708821,"CZK 57,375",50.0906989,14.4202425,"Dušní, Prague - Josefov",3 bedroom,97 m²,"CZK 19,125",Furnished,3,Yes,No,No,No,No,No,No,20. 04. 2022,103,449,207,253,71,270,138,381,247,455,,,,,,,,,,,,,,,,,
704192,"CZK 10,000",50.1017643,14.5389258,"Šestajovická, Prague - Hloubětín",Studio,30 m²,"CZK 2,600",Furnished,10,No,No,No,No,Yes,Yes,No,01. 02. 2022,424,509,485,491,137,455,257,286,431,330,Excellent,"CZK 20,000",Personal,Prefab concrete building,,,,G,,,,,,,,,
708817,"CZK 14,490",50.08962055555,14.47229694444,"Ambrožova, Prague - Žižkov",2 bedroom,52 m²,"CZK 1,409",Unfurnished,1,Yes,No,Yes,No,No,Yes,No,,262,866,58,258,76,285,186,141,550,295,Good,"CZK 15,899",Personal,Brick building,,,,G,,,,,"CZK 15,899

                                
                                
                
i",,,,
708173,"CZK 17,000",50.0736283,14.4448958,"Lužická, Prague - Vinohrady",1 bedroom with open-plan kitchen,49 m²,CZK 600,Partially furnished,4,No,No,No,No,No,No,No,01. 03. 2022,272,238,225,742,189,508,415,388,606,359,Excellent,"CZK 17,000",Personal,Brick building,,,,G,,,,,,,,,
708812,"CZK 12,000",50.0126,14.42221,"Kutilova, Prague - Modřany",1 bedroom with open-plan kitchen,47 m²,"CZK 4,000",Partially furnished,6,No,No,No,No,No,Yes,No,02. 03. 2022,212,"1,279",157,"1,181",828,"1,206",131,412,"1,015",170,Good,"CZK 16,000",Personal,Prefab concrete building,,,,G,,,,,,,,,
708822,"CZK 41,250",50.0895308,14.4237131,"Masná, Prague - Staré Město",1 bedroom,38 m²,"CZK 13,750",Furnished,4,No,No,No,No,No,Yes,No,24. 03. 2022,69,269,125,89,15,106,70,52,156,144,,,,,,,,,,,,,,,,,
708821,"CZK 57,375",50.0906989,14.4202425,"Dušní, Prague - Josefov",3 bedroom,97 m²,"CZK 19,125",Furnished,3,Yes,No,No,No,No,No,No,20. 04. 2022,103,449,207,253,71,270,138,381,247,455,,,,,,,,,,,,,,,,,
704192,"CZK 10,000",50.1017643,14.5389258,"Šestajovická, Prague - Hloubětín",Studio,30 m²,"CZK 2,600",Furnished,10,No,No,No,No,Yes,Yes,No,01. 02. 2022,424,509,485,491,137,455,257,286,431,330,Excellent,"CZK 20,000",Personal,Prefab concrete building,,,,G,,,,,,,,,
708817,"CZK 14,490",50.08962055555,14.47229694444,"Ambrožova, Prague - Žižkov",2 bedroom,52 m²,"CZK 1,409",Unfurnished,1,Yes,No,Yes,No,No,Yes,No,,262,866,58,258,76,285,186,141,550,295,Good,"CZK 15,899",Personal,Brick building,,,,G,,,,,"CZK 15,899

                                
                                
                
i",,,,
708173,"CZK 17,000",50.0736283,14.4448958,"Lužická, Prague - Vinohrady",1 bedroom with open-plan kitchen,49 m²,CZK 600,Partially furnished,4,No,No,No,No,No,No,No,01. 03. 2022,272,238,225,742,189,508,415,388,606,359,Excellent,"CZK 17,000",Personal,Brick building,,,,G,,,,,,,,,
708812,"CZK 12,000",50.0126,14.42221,"Kutilova, Prague - Modřany",1 bedroom with open-plan kitchen,47 m²,"CZK 4,000",Partially furnished,6,No,No,No,No,No,Yes,No,02. 03. 2022,212,"1,279",157,"1,181",828,"1,206",131,412,"1,015",170,Good,"CZK 16,000",Personal,Prefab concrete building,,,,G,,,,,,,,,
588747,"CZK 39,500",50.04959,14.366934,"Butovická, Prague - Jinonice",3 bedroom with open-plan kitchen,115 m²,"CZK 8,000",Partially furnished,2,No,Yes,Yes,No,Yes,No,Yes,01. 04. 2022,267,843,820,305,879,89,"1,246",111,465,,New build,"CZK 72,000",Personal,Other,Premium materials and solutions,,,B,1 to 10 years years,Middle floor,,,,,,,
708811,"CZK 74,250",50.0822546,14.4142748,"Krocínova, Prague - Staré Město",3 bedroom,125 m²,"CZK 24,750",Furnished,6,Yes,No,No,No,No,Yes,No,01. 04. 2022,284,987,183,230,26,119,417,373,329,411,,,,,,,,,,,,,,,,,
708810,"CZK 46,500",50.0882058,14.4262315,"Rybná, Prague - Staré Město",1 bedroom with open-plan kitchen,53 m²,"CZK 15,500",Furnished,3,No,No,No,No,No,Yes,No,10. 04. 2022,281,192,58,183,11,368,315,297,289,305,,,,,,,,,,,,,,,,,
708809,"CZK 60,000",50.0882058,14.4262315,"Rybná, Prague - Staré Město",3 bedroom with open-plan kitchen,150 m²,"CZK 20,000",Furnished,4,No,No,No,No,No,No,No,01. 04. 2022,281,192,58,183,11,368,315,297,289,305,,,,,,,,,,,,,,,,,
708806,"CZK 10,990",50.11637666666,14.50491361111,"Nad Krocínkou, Prague - Prosek",Studio,34 m²,"CZK 1,222",Unfurnished,1,No,No,Yes,No,No,No,No,,155,941,491,534,308,611,838,588,581,359,Good,"CZK 12,212",Personal,Brick building,,,,G,,,,,"CZK 12,212

                                
                                
                
i",,,,
708804,"CZK 13,000",50.05702105,14.292262248137,"Do Zahrádek I, Prague - Třebonice",Studio,30 m²,"CZK 2,000",Partially furnished,1,No,Yes,Yes,No,No,Yes,No,01. 04. 2022,289,"1,204",586,530,842,640,640,864,481,,New build,"CZK 13,000",Personal,Other,,,,G,,,,,,,,,
708803,"CZK 15,000",50.1067552,14.567027,"Volkova, Prague - Černý Most",1 bedroom with open-plan kitchen,60 m²,"CZK 3,000",Furnished,9,Yes,Yes,No,No,No,No,No,01. 04. 2022,215,783,266,"1,035",723,436,534,465,"1,468",193,Excellent,"CZK 30,000",Other,Other,,,,G,,Top floor,,,,,,,
642558,"CZK 27,000",50.085989,14.450022,"Dalimilova, Prague - Žižkov",2 bedroom with open-plan kitchen,56 m²,"CZK 2,900",Furnished,6,Yes,Yes,No,No,Yes,Yes,No,01. 03. 2022,201,328,174,335,112,296,40,351,40,677,Excellent,"CZK 29,900",Personal,Brick building,Premium materials and solutions,Gas boiler,Overall,C,1 to 10 years years,Top floor,,,,,,,
386060,"CZK 13,500",50.0224,14.5125759,"Zdiměřická, Prague - Chodov",3 bedroom,70 m²,"CZK 4,000",Unfurnished,10,No,No,No,Yes,No,No,No,01. 04. 2022,356,"1,338",218,610,213,312,893,138,,,Good,"CZK 13,500",Personal,Prefab concrete building,,District heating,Exterior,,,Middle floor,,,,,,,
708629,"CZK 21,000",50.10353,14.43548,"Šimáčkova, Prague - Holešovice",2 bedroom with open-plan kitchen,72 m²,CZK 600,Unfurnished,5,Yes,No,Yes,No,No,Yes,No,01. 03. 2022,286,942,177,454,144,191,476,349,848,,Excellent,"CZK 30,000",Personal,Brick building,,,,G,,,,,,,,,
708791,"CZK 67,500",50.0895991,14.4216596,"V Kolkovně, Prague - Staré Město",3 bedroom,125 m²,"CZK 22,500",Furnished,6,Yes,No,No,No,No,Yes,No,01. 04. 2022,94,433,53,88,14,105,82,217,292,309,,,,,,,,,,,,,,,,,
708790,"CZK 48,750",50.0894663,14.4240032,"Masná, Prague - Staré Město",Studio,46 m²,"CZK 16,250",Furnished,6,No,No,No,No,No,Yes,No,01. 04. 2022,62,263,122,95,13,113,64,46,150,138,,,,,,,,,,,,,,,,,
708789,"CZK 47,250",50.0894663,14.4240032,"Masná, Prague - Staré Město",Studio,43 m²,"CZK 15,750",Furnished,6,No,No,No,No,No,Yes,No,01. 04. 2022,62,263,122,95,13,113,64,46,150,138,,,,,,,,,,,,,,,,,
708788,"CZK 47,250",50.0894663,14.4240032,"Masná, Prague - Staré Město",Studio,65 m²,"CZK 15,750",Furnished,6,Yes,Yes,No,No,No,Yes,No,10. 03. 2022,62,263,122,95,13,113,64,46,150,138,,,,,,,,,,,,,,,,,
708786,"CZK 19,990",50.07866083333,14.42345777777,"Navrátilova, Prague - Nové Město",1 bedroom with open-plan kitchen,54 m²,"CZK 3,949",Furnished,3,No,No,No,No,No,Yes,No,,161,630,144,170,10,330,214,535,575,472,Excellent,"CZK 23,939",Personal,Brick building,,,,D,,,,,"CZK 23,939

                                
                                
                
i",,,,
14575,"CZK 13,000",50.0635787763,14.4423168898,"Nuselská, u náměstí Bratří Synků, Prague - Nusle",1 bedroom,35 m²,CZK 700,Furnished,4,No,No,No,No,No,No,No,,117,338,33,44,56,117,321,609,520,449,,"CZK 13,700",Other,Brick building,,,,,,,,,,,,,
612739,"CZK 24,000",50.086026,14.450557,"Cimburkova, Prague - Žižkov",1 bedroom with open-plan kitchen,55 m²,"CZK 5,700",,4,No,No,No,No,No,Yes,No,05. 03. 2022,149,310,156,317,114,277,13,366,14,659,Excellent,"CZK 50,000",Personal,Brick building,,,,B,,,,,,,,,
708779,"CZK 13,000",50.0357487,14.4120848,"Ke Krči, Prague - Braník",2 bedroom,46 m²,CZK 500,Partially furnished,2,Yes,No,No,No,No,No,No,01. 04. 2022,82,333,116,142,268,314,208,"1,326",340,,Excellent,"CZK 20,000",Personal,Brick building,,,,G,,,,,,,,,
708777,"CZK 82,500",50.0909662,14.4174193,"Břehová, Prague - Josefov",5 bedroom,222 m²,"CZK 27,500",Furnished,6,Yes,Yes,No,No,No,Yes,No,23. 04. 2022,60,336,266,417,6,503,391,634,138,634,,,,,,,,,,,,,,,,,
708774,"CZK 12,500",50.04542,14.40434,"Nad Zlíchovem, Prague - Hlubočepy",1 bedroom with open-plan kitchen,41 m²,"CZK 2,500",Unfurnished,,No,No,Yes,No,No,No,No,01. 03. 2022,14,367,519,867,335,"1,262",449,,,,Excellent,"CZK 12,500",Personal,Brick building,,,,B,,,,,,,,,
657246,"CZK 17,000",50.10609,14.44962,"U Měšťanského pivovaru, Prague - Holešovice",1 bedroom with open-plan kitchen,50 m²,"CZK 5,000",Furnished,2,Yes,No,Yes,No,No,Yes,No,01. 05. 2022,143,332,40,145,1,149,305,607,318,364,Excellent,"CZK 20,000",Personal,Brick building,,Other,Interior,G,1 to 10 years years,Middle floor,,,,,,,
153344,"CZK 11,000",50.1430636628,14.4346721135,"Křivenická, Prague - Čimice",Studio,45 m²,"CZK 3,500",Partially furnished,1,No,No,Yes,No,No,No,No,,322,641,675,355,658,764,711,186,,,Excellent,"CZK 14,000",Personal,Brick building,Standard materials and solutions,Central heating,,,10 to 30 years years,,,,,,,,
708587,"CZK 14,500",50.06126,14.45014,"Kloboučnická, Prague - Nusle",1 bedroom,29 m²,"CZK 2,000",Furnished,-1,No,No,No,No,No,Yes,No,01. 03. 2022,144,"1,031",218,438,142,726,466,462,945,420,Excellent,"CZK 15,000",Personal,Brick building,,,,G,,,,,,,,,
594681,"CZK 24,000",50.054429,14.367641,"U Kříže, Prague - Jinonice",2 bedroom,69 m²,"CZK 4,500",Partially furnished,3,Yes,No,No,No,No,Yes,Yes,01. 04. 2022,236,281,437,333,536,245,781,823,218,,Excellent,"CZK 24,000",Personal,Brick building,Premium materials and solutions,Gas boiler,Interior,C,1 to 10 years years,Top floor,,,,,,,
706911,"CZK 14,900",50.03934,14.32273,"Kakosova, Prague - Řeporyje",Studio,43 m²,"CZK 3,089",Furnished,2,Yes,No,Yes,No,No,Yes,No,01. 03. 2022,246,"1,135",780,964,603,"1,028",665,"1,075",672,112,New build,"CZK 29,800",Personal,Brick building,Standard materials and solutions,Central heating,,G,1 to 10 years years,,Yes,,,,,,
708760,"CZK 43,875",50.0840648,14.4187033,"Jilská, Prague - Staré Město",1 bedroom with open-plan kitchen,53 m²,"CZK 14,625",Furnished,3,No,No,No,No,No,Yes,No,01. 04. 2022,298,541,99,261,14,253,193,593,251,217,,,,,,,,,,,,,,,,,
600056,"CZK 13,990",50.09405,14.45357,"Sokolovská, Prague - Karlín",Studio,33 m²,"CZK 2,900",Furnished,6,No,No,No,No,No,Yes,No,01. 04. 2022,426,551,90,195,17,158,343,"1,253",209,430,New build,,Personal,Brick building,,,,B,,,,,,,,,
283915,"CZK 11,500",50.1005785,14.3954363,Prague - Bubeneč,Studio,33 m²,"CZK 2,500",Furnished,1,No,No,No,No,No,Yes,No,,92,355,186,123,201,138,475,531,186,226,Excellent,"CZK 22,000",Cooperative,Prefab concrete building,,District heating,Overall,B,1 to 10 years years,Middle floor,,,,,,,
553540,"CZK 22,000",50.1074434,14.3253147,"Nad Želivkou, Prague - Nebušice",3 bedroom,90 m²,"CZK 5,000",Partially furnished,1,Yes,No,No,No,No,No,No,Ihned,616,635,679,601,597,633,102,,,,,"CZK 25,000",Personal,Brick building,,,,C,,,,,,,,,
66020,"CZK 18,500",50.0866182,14.4531338,"Roháčova, Prague - Žižkov",2 bedroom,74 m²,CZK 810,Partially furnished,1,No,No,No,Yes,No,No,No,01. 05. 2022,120,255,151,447,58,317,291,355,291,496,Excellent,"CZK 37,000",,Brick building,Premium materials and solutions,Gas boiler,Overall,D,1 to 10 years years,Middle floor,,,,,,,
188676,"CZK 10,000",50.0727944,14.5477211,"Andersenova, Prague - Štěrboholy",Studio,37 m²,"CZK 5,000",Partially furnished,2,Yes,No,No,No,Yes,No,No,01. 04. 2022,459,540,505,544,486,"1,017","1,064","1,037",,,Excellent,"CZK 15,000",Personal,Brick building,Standard materials and solutions,Central heating,,,,Middle floor,,,,,,,
708753,"CZK 12,000",50.10907,14.5569,"Za černým mostem, Prague - Kyje",Studio,27 m²,"CZK 1,900",Partially furnished,2,Yes,No,Yes,No,Yes,Yes,No,01. 03. 2022,176,800,136,48,754,418,"1,323","1,438",483,,New build,"CZK 12,000",Personal,Brick building,,,,B,,,,,,,,,
514636,"CZK 14,000",50.0861821,14.448717,"Dalimilova, Prague - Žižkov",Studio,47 m²,"CZK 3,500",Partially furnished,1,No,No,No,No,No,No,No,ihned,210,387,202,394,7,354,121,246,145,732,,"CZK 17,500",Personal,Brick building,,,,,,,,,,,,,
582869,"CZK 16,000",50.130171,14.493349,"Makedonská, Prague - Střížkov",1 bedroom with open-plan kitchen,58 m²,"CZK 3,500",Unfurnished,3,Yes,No,No,No,No,Yes,Yes,15. 03. 2022,340,"1,042",186,967,614,460,541,418,"1,167",108,New build,"CZK 25,000",Personal,Prefab concrete building,Standard materials and solutions,District heating,,B,1 to 10 years years,Middle floor,Yes,,,,,,
708125,"CZK 22,500",50.08885,14.38529,"Hládkov, Prague - Střešovice",4 bedroom with open-plan kitchen,108 m²,"CZK 4,200",Partially furnished,4,Yes,No,No,No,No,Yes,No,01. 04. 2022,138,196,384,"1,295",78,"1,376",269,165,484,247,Excellent,"CZK 22,500",Personal,Brick building,,,Interior,G,,Middle floor,,,,,,,
708745,"CZK 8,690",50.07716,14.49625,"Černokostelecká, Prague - Strašnice",Studio,29 m²,"CZK 1,900",Partially furnished,3,No,No,No,No,No,Yes,No,01. 04. 2022,130,297,88,562,325,596,605,313,"1,038",165,Excellent,"CZK 10,590",Personal,Brick building,,,,G,,,,,,,,,
626037,"CZK 11,000",50.0002,14.406567,"K Vystrkovu, Prague - Modřany",Studio,26 m²,"CZK 1,500",Furnished,3,No,No,No,No,No,Yes,No,31. 03. 2022,92,"1,353",650,"1,472",393,498,635,606,383,532,New build,"CZK 12,500",Personal,Brick building,Standard materials and solutions,Central heating,,B,1 to 10 years years,Top floor,Yes,,,,,,
694966,"CZK 13,000",50.0123751,14.4000073,"Vrátnická, Prague - Modřany",Studio,42 m²,"CZK 2,500",Partially furnished,1,Yes,Yes,Yes,No,Yes,Yes,No,31. 03. 2022,197,"1,078",373,"1,322",740,"1,383","1,378",662,,,New build,"CZK 15,500",Personal,Brick building,,Central heating,,A,1 to 10 years years,Ground floor,Yes,20 m²,,,,,
427407,"CZK 15,500",50.1091682,14.5338204,"Zelenečská, Prague - Hloubětín",1 bedroom with open-plan kitchen,52 m²,"CZK 2,450",Furnished,1,No,No,Yes,No,No,No,No,,356,656,311,637,553,473,465,269,766,276,Excellent,"CZK 31,000",Personal,Brick building,Premium materials and solutions,District heating,Interior,C,1 to 10 years years,Raised ground floor,,,,,,,
428451,"CZK 10,500",50.0669491,14.3686364,"Cetyňská, Prague - Košíře",Small studio,25 m²,"CZK 1,500",Furnished,2,No,No,No,No,No,No,No,,418,786,264,596,450,507,477,971,342,454,,"CZK 12,000",Personal,Brick building,,,Overall,,,Middle floor,,,,,,,
655768,"CZK 14,000",50.06344,14.45338,"Petrohradská, Prague - Vršovice",2 bedroom,53 m²,"CZK 4,500",Partially furnished,4,No,No,Yes,No,No,Yes,No,01. 04. 2022,157,614,155,737,26,597,398,363,402,420,Excellent,"CZK 20,000",Cooperative,Brick building,Standard materials and solutions,Gas boiler,,G,,Middle floor,,,,,,,
107657,"CZK 23,500",50.08938,14.44505,"Pernerova, Prague - Karlín",2 bedroom with open-plan kitchen,70 m²,"CZK 4,500",Furnished,1,No,No,No,No,Yes,Yes,No,01. 04. 2022,179,725,364,602,58,577,278,881,688,225,Good,"CZK 30,000",Personal,Brick building,,,,A,,,,,,,,,
708120,"CZK 13,600",50.13991,14.52038,"Miroslava Hajna, Prague - Letňany",Studio,34 m²,"CZK 2,400",Furnished,3,Yes,No,Yes,No,Yes,Yes,Yes,01. 05. 2022,445,572,"1,075","1,158",291,696,972,"1,102","1,234",252,New build,"CZK 18,000",Personal,Brick building,,,,B,,,,,,,,,
611912,"CZK 13,900",50.060864,14.449321,"Kloboučnická, Prague - Nusle",1 bedroom with open-plan kitchen,33 m²,"CZK 3,200",,3,No,No,No,No,No,Yes,No,08. 06. 2020,74,991,145,363,55,645,436,432,914,327,Excellent,"CZK 15,000",Personal,Brick building,,,,F,,,,,,,,,
242371,"CZK 16,000",50.0764113,14.4569736,"Slezská, Prague - Vinohrady",1 bedroom with open-plan kitchen,54 m²,"CZK 1,500",Furnished,2,No,No,Yes,No,No,Yes,No,,166,470,133,154,179,372,252,456,839,375,,"CZK 20,000",Personal,Brick building,,,,C,,,,,,,,,
708734,"CZK 23,500",50.09891,14.42388,"Dobrovského, Prague - Holešovice",2 bedroom with open-plan kitchen,86 m²,"CZK 2,114",Partially furnished,2,Yes,No,Yes,No,No,Yes,No,01. 03. 2022,202,233,97,164,127,198,275,387,563,,Excellent,"CZK 25,000",Personal,Brick building,Standard materials and solutions,Central heating,Interior,G,1 to 10 years years,Middle floor,,,,,,,
397958,"CZK 14,000",50.1169133,14.4984247,"Cihlářská, Prague - Prosek",1 bedroom with open-plan kitchen,39 m²,"CZK 5,000",Furnished,1,No,Yes,No,No,No,No,No,01. 03. 2022,150,916,113,275,223,408,491,449,837,94,Excellent,"CZK 19,000",Personal,Brick building,,,,,1 to 10 years years,Ground floor,,64 m²,,,,,
708115,"CZK 20,500",50.11285,14.39231,"Máslova, Prague - Dejvice",1 bedroom with open-plan kitchen,80 m²,"CZK 4,000",Furnished,4,Yes,No,Yes,No,No,Yes,No,14. 03. 2022,311,221,"1,247",390,"1,022",952,452,539,598,,Excellent,"CZK 40,000",Personal,Brick building,,Central heating,,G,,,,,,,,,
581453,"CZK 8,000",50.058519,14.377489,"Peroutkova, Prague - Jinonice",Studio,16 m²,"CZK 3,000",Furnished,1,No,No,No,No,No,Yes,No,01. 04. 2022,268,604,268,"1,017",406,800,"1,195",497,"1,194",159,New build,"CZK 11,000",Personal,Other,,Central heating,Overall,G,1 to 10 years years,Ground floor,Yes,,,,,,
499094,"CZK 18,000",50.0708431,14.4501547,"Charkovská, Prague - Vršovice",2 bedroom with open-plan kitchen,76 m²,"CZK 1,500",Unfurnished,4,No,No,No,No,No,No,No,,135,648,146,195,73,510,187,447,378,363,,"CZK 18,000",Personal,Brick building,,,,,,,,,,,,,
708724,"CZK 17,625",50.1245336,14.4947443,"Jablonecká, Prague - Střížkov",1 bedroom with open-plan kitchen,45 m²,"CZK 5,875",Furnished,10,Yes,No,No,No,No,Yes,No,01. 04. 2022,258,317,139,255,130,153,532,446,849,24,,,,,,,,,,,,,,,,,
671640,"CZK 14,500",50.0789,14.4987,"V Úžlabině, Prague - Strašnice",1 bedroom with open-plan kitchen,35 m²,"CZK 1,340",Furnished,2,No,No,Yes,No,No,No,No,01. 04. 2022,265,500,203,343,252,297,473,612,"1,125",114,Excellent,"CZK 15,000",Personal,Prefab concrete building,,,,D,,,,,,,,,
588117,"CZK 14,500",50.057065,14.430227,"Na Dolinách, Prague - Nusle",1 bedroom,33 m²,"CZK 2,000",Furnished,3,No,No,No,No,No,Yes,No,01. 04. 2022,76,770,301,305,11,278,712,492,107,150,Excellent,"CZK 16,500",Personal,Brick building,Standard materials and solutions,Central heating,Interior,F,30 to 50 years years,Middle floor,,,,,,,
648537,"CZK 19,500",50.078549,14.456946,"Přemyslovská, Prague - Žižkov",2 bedroom,52 m²,"CZK 3,000",Furnished,,No,No,No,No,Yes,Yes,No,01. 04. 2022,122,379,81,141,42,364,508,568,896,215,Excellent,"CZK 22,500",Personal,Brick building,,,,G,,,,,,,,,
588123,"CZK 23,000",50.075306,14.41547,"Dittrichova, Prague - Nové Město",1 bedroom with open-plan kitchen,69 m²,"CZK 4,000",Furnished,,No,No,No,No,No,No,No,01. 03. 2022,117,263,234,291,45,337,175,523,739,462,Excellent,"CZK 27,000",Cooperative,Brick building,Standard materials and solutions,Gas boiler,Interior,G,30 to 50 years years,Ground floor,,,,,,,
656249,"CZK 8,500",50.07128,14.45162,"Kodaňská, Prague - Vršovice",Studio,19 m²,"CZK 2,000",Furnished,1,No,No,No,No,Yes,No,No,01. 04. 2022,29,628,29,211,0,483,70,355,283,305,Excellent,"CZK 10,500",Personal,Brick building,,,,G,,,,,,,,,
707836,"CZK 16,200",50.05704,14.43038,"Na Dolinách, Prague - Nusle",1 bedroom,28 m²,"CZK 2,300",Furnished,3,No,No,Yes,Yes,Yes,Yes,No,20. 03. 2022,65,781,290,294,0,266,723,481,96,162,Excellent,"CZK 18,500",Personal,Brick building,,,,G,,,,,,,,,
707951,"CZK 20,500",50.08013,14.45882,"Sudoměřská, Prague - Žižkov",1 bedroom with open-plan kitchen,50 m²,"CZK 2,500",Furnished,5,No,Yes,Yes,No,Yes,Yes,No,01. 04. 2022,292,578,395,418,20,396,577,454,619,207,New build,"CZK 23,000",Personal,Brick building,,,,C,,,,,,,,,
694503,"CZK 13,500",50.1064196,14.5318267,"Kbelská, Prague - Hloubětín",Studio,35 m²,"CZK 2,500",Furnished,4,Yes,No,No,No,No,Yes,No,03. 03. 2022,175,646,208,628,397,472,663,428,560,268,New build,"CZK 13,500",Personal,Brick building,,,,G,,,,,,,,,
708718,"CZK 12,500",50.09031,14.49512,"Pod Lipami, Prague - Žižkov",2 bedroom,53 m²,"CZK 4,000",Partially furnished,2,Yes,No,Yes,No,No,Yes,No,01. 04. 2022,316,550,261,792,211,554,703,261,642,230,Excellent,"CZK 12,500",Personal,Brick building,,,,G,,,,,,,,,
708719,"CZK 17,000",50.0585,14.42011,"Vodárenská, Prague - Podolí",1 bedroom with open-plan kitchen,56 m²,"CZK 4,000",Furnished,2,Yes,No,Yes,No,No,No,No,01. 03. 2022,84,76,84,217,147,188,262,689,569,167,Excellent,"CZK 21,000",Personal,Brick building,,,,G,,,,,,,,,
149785,"CZK 14,000",50.0947483,14.3561901,"Na dlouhém lánu, Prague - Vokovice",1 bedroom with open-plan kitchen,43 m²,"CZK 1,000",Furnished,2,No,No,No,No,No,No,No,01. 03. 2022,419,521,337,494,365,347,274,616,"1,157",136,,"CZK 17,500",Personal,Brick building,,,,,,,,,,,,,
707496,"CZK 17,500",50.05346,14.54576,"Kytínská, Prague - Hostivař",1 bedroom with open-plan kitchen,61 m²,"CZK 4,050",Furnished,7,Yes,No,No,No,Yes,Yes,No,01. 04. 2022,557,610,552,525,622,"1,079",348,515,153,,New build,"CZK 35,000",Personal,Brick building,,,,G,,,,,,,,,
708715,"CZK 14,500",50.0574,14.44181,"V Zálomu, Prague - Nusle",1 bedroom with open-plan kitchen,51 m²,"CZK 1,730",Partially furnished,3,No,No,Yes,No,No,No,No,01. 05. 2022,90,"1,164",306,784,284,702,480,455,686,199,Excellent,"CZK 28,000",Cooperative,Brick building,,Gas boiler,,G,,,,,,,,,
626356,"CZK 18,000",50.052159,14.337469,"Kodymova, Prague - Stodůlky",2 bedroom with open-plan kitchen,75 m²,"CZK 3,750",Unfurnished,3,Yes,No,No,Yes,No,Yes,No,01. 06. 2021,116,419,253,384,372,278,310,336,983,179,Excellent,"CZK 18,000",Personal,Brick building,,District heating,,G,10 to 30 years years,Middle floor,,,,,,,
708711,"CZK 20,000",50.08567,14.56351,"U Hostavického potoka, Prague - Hostavice",2 bedroom with open-plan kitchen,70 m²,"CZK 5,000",Furnished,,No,Yes,Yes,No,No,Yes,Yes,01. 03. 2022,287,259,630,96,,,,,,,Excellent,"CZK 40,000",Personal,Brick building,,,,C,,Ground floor,,,,,,,
708190,"CZK 14,000",50.0526728,14.5442451,"Bělinského, Prague - Hostivař",2 bedroom,61 m²,"CZK 3,500",Partially furnished,5,No,No,Yes,Yes,No,Yes,No,30. 04. 2022,383,435,308,404,578,856,305,471,255,,Good,"CZK 20,000",Personal,Prefab concrete building,Standard materials and solutions,District heating,,C,,Middle floor,,,,,,,
699391,"CZK 13,000",50.10558,14.54778,"Rochovská, Prague - Hloubětín",1 bedroom with open-plan kitchen,43 m²,"CZK 5,000",Furnished,2,No,No,No,No,Yes,Yes,No,01. 03. 2022,147,924,268,942,552,930,275,668,946,205,Excellent,"CZK 24,000",Personal,Prefab concrete building,,District heating,,G,,,,,,,,,
708290,"CZK 20,000",50.07264,14.3888,"Holečkova, Prague - Smíchov",3 bedroom,84 m²,"CZK 5,000",Partially furnished,3,No,No,No,No,No,No,No,01. 05. 2022,205,"1,222",188,961,230,"1,108",467,760,"1,277",223,Excellent,"CZK 20,000",Personal,Brick building,,,,B,,,,,,,,,
707391,"CZK 88,613",50.079282,14.4274522,"Ve Smečkách, Prague - Nové Město",3 bedroom with open-plan kitchen,82 m²,"CZK 29,537",Furnished,6,No,Yes,No,No,No,Yes,No,05. 03. 2022,262,583,62,229,43,244,476,576,376,483,,,,,,,,,,,,,,,,,
707384,"CZK 25,500",50.0901585,14.3426685,"Na Okraji, Prague - Veleslavín",1 bedroom with open-plan kitchen,90 m²,"CZK 8,500",Furnished,1,No,No,No,No,No,No,No,05. 03. 2022,142,547,112,211,216,280,208,0,878,210,,,,,,,,,,,,,,,,,
707342,"CZK 36,000",50.079465,14.4353199,"Mánesova, Prague - Vinohrady",2 bedroom,46 m²,"CZK 12,000",Furnished,5,No,No,No,No,No,Yes,No,05. 03. 2022,156,408,244,342,59,242,281,281,533,788,,,,,,,,,,,,,,,,,
707308,"CZK 37,500",50.073194,14.4364932,"Uruguayská, Prague - Vinohrady",2 bedroom,65 m²,"CZK 12,500",Furnished,4,No,No,No,No,No,Yes,No,05. 03. 2022,271,101,117,353,35,204,64,230,885,796,,,,,,,,,,,,,,,,,
707258,"CZK 45,000",50.082182161145,14.415757035582,"Karoliny Světlé, Prague - Staré Město",2 bedroom,72 m²,"CZK 15,000",Furnished,3,No,No,No,No,No,Yes,No,01. 04. 2022,186,811,109,132,85,110,274,275,231,398,,,,,,,,,,,,,,,,,
707402,"CZK 22,500",50.0723554,14.4069173,"Lidická, Prague - Smíchov",1 bedroom,,"CZK 7,500",Furnished,3,No,No,No,No,No,No,No,06. 04. 2022,25,378,16,198,26,271,471,963,"1,249",622,,,,,,,,,,,,,,,,,
707399,"CZK 28,688",50.077834,14.422878,"Příčná, Prague - Nové Město",Studio,26 m²,"CZK 9,562",Furnished,2,No,No,No,No,No,No,No,18. 04. 2022,224,529,123,232,36,222,310,471,467,408,,,,,,,,,,,,,,,,,
707345,"CZK 39,750",50.079465,14.4353199,"Mánesova, Prague - Vinohrady",1 bedroom with open-plan kitchen,75 m²,"CZK 13,250",Furnished,3,No,No,No,No,No,Yes,No,05. 03. 2022,156,408,244,342,59,242,281,281,533,788,,,,,,,,,,,,,,,,,
707374,"CZK 30,000",50.0372353,14.482405,"Hněvkovská, Prague - Chodov",1 bedroom with open-plan kitchen,40 m²,"CZK 10,000",Furnished,2,Yes,No,No,No,No,No,No,05. 03. 2022,469,"1,480",408,"1,340",370,"1,305",889,"1,194",334,309,,,,,,,,,,,,,,,,,
707324,"CZK 30,000",50.0771423,14.417396,"Na Zbořenci, Prague - Nové Město",1 bedroom,35 m²,"CZK 10,000",Furnished,1,No,No,No,No,No,No,No,05. 03. 2022,127,382,112,188,72,409,281,298,590,484,,,,,,,,,,,,,,,,,
707348,"CZK 36,000",50.079465,14.4353199,"Mánesova, Prague - Vinohrady",Studio,45 m²,"CZK 12,000",Furnished,3,No,No,No,No,No,Yes,No,05. 03. 2022,156,408,244,342,59,242,281,281,533,788,,,,,,,,,,,,,,,,,
707353,"CZK 44,925",50.0873557,14.4001355,"Vlašská, Prague - Malá Strana",2 bedroom with open-plan kitchen,90 m²,"CZK 14,975",Furnished,2,No,No,No,No,No,No,No,05. 03. 2022,171,434,49,337,17,310,367,699,784,255,,,,,,,,,,,,,,,,,
707341,"CZK 32,250",50.079465,14.4353199,"Mánesova, Prague - Vinohrady",1 bedroom,57 m²,"CZK 10,750",Furnished,5,No,No,No,No,No,Yes,No,05. 03. 2022,156,408,244,342,59,242,281,281,533,788,,,,,,,,,,,,,,,,,
707297,"CZK 39,600",50.0876118,14.4080467,"Míšeňská, Prague - Malá Strana",1 bedroom with open-plan kitchen,46 m²,"CZK 13,200",Furnished,2,No,No,No,No,No,No,No,09. 03. 2022,249,259,109,237,65,537,295,274,806,231,,,,,,,,,,,,,,,,,
707276,"CZK 22,800",50.0717643,14.4385436,"Americká, Prague - Vinohrady",Studio,27 m²,"CZK 7,600",Furnished,4,No,No,No,No,No,Yes,No,27. 03. 2022,272,322,70,607,60,509,83,250,792,565,,,,,,,,,,,,,,,,,
707287,"CZK 37,425",50.0643299,14.4102127,"Strakonická, Prague - Smíchov",1 bedroom with open-plan kitchen,45 m²,"CZK 12,475",Furnished,2,No,No,No,No,No,Yes,No,14. 03. 2022,211,382,250,989,170,745,812,"1,050",387,543,,,,,,,,,,,,,,,,,
707254,"CZK 20,175",50.0564738,14.5142373,"Švehlova, Prague - Záběhlice",1 bedroom with open-plan kitchen,65 m²,"CZK 6,725",Furnished,4,No,Yes,No,No,No,Yes,Yes,07. 04. 2022,88,519,253,482,504,524,542,798,830,228,,,,,,,,,,,,,,,,,
707290,"CZK 26,925",50.0643299,14.4102127,"Strakonická, Prague - Smíchov",Studio,30 m²,"CZK 8,975",Furnished,3,No,No,No,No,No,Yes,No,07. 03. 2022,211,382,250,989,170,745,812,"1,050",387,543,,,,,,,,,,,,,,,,,
707376,"CZK 37,500",50.0372353,14.482405,"Hněvkovská, Prague - Chodov",3 bedroom,80 m²,"CZK 12,500",Furnished,2,Yes,No,No,No,No,No,No,05. 03. 2022,469,"1,480",408,"1,340",370,"1,305",889,"1,194",334,309,,,,,,,,,,,,,,,,,
707386,"CZK 27,158",50.0925135,14.4556107,"Šaldova, Prague - Karlín",1 bedroom,40 m²,"CZK 9,053",Furnished,2,No,Yes,No,No,No,Yes,No,18. 04. 2022,367,716,142,317,156,180,346,"1,276",231,204,,,,,,,,,,,,,,,,,
707403,"CZK 22,500",50.0723918,14.4059555,"Lidická, Prague - Smíchov",1 bedroom,,"CZK 7,500",Furnished,4,No,No,No,No,No,No,No,07. 04. 2022,100,437,82,124,1,340,531,"1,038","1,232",691,,,,,,,,,,,,,,,,,
707363,"CZK 13,823",50.1044601,14.5518792,"Slévačská, Prague - Hloubětín",1 bedroom,54 m²,"CZK 4,607",Furnished,2,No,No,No,No,No,Yes,No,05. 03. 2022,256,674,499,"1,325",205,584,277,"1,192",804,230,,,,,,,,,,,,,,,,,
707380,"CZK 60,000",50.0757302,14.4269087,"Ječná, Prague - Nové Město",1 bedroom with open-plan kitchen,,"CZK 20,000",Furnished,3,No,No,No,No,No,No,No,05. 03. 2022,177,647,182,40,38,122,28,102,350,194,,,,,,,,,,,,,,,,,
707368,"CZK 33,750",50.0790219,14.4245347,"Školská, Prague - Nové Město",Studio,26 m²,"CZK 11,250",Furnished,1,Yes,No,No,No,No,Yes,No,13. 03. 2022,326,716,122,141,29,217,161,519,502,456,,,,,,,,,,,,,,,,,
707334,"CZK 26,006",50.0684378,14.4104352,"Hořejší nábřeží, Prague - Smíchov",2 bedroom,80 m²,"CZK 8,669",Furnished,4,No,No,No,No,No,Yes,No,11. 03. 2022,435,892,279,490,236,702,754,992,495,60,,,,,,,,,,,,,,,,,
707361,"CZK 28,350",50.0987973,14.42253,"Nad štolou, Prague - Holešovice",1 bedroom with open-plan kitchen,58 m²,"CZK 9,450",Furnished,3,Yes,No,No,No,No,Yes,No,05. 03. 2022,203,173,192,194,67,259,186,499,403,,,,,,,,,,,,,,,,,,
707352,"CZK 36,000",50.079465,14.4353199,"Mánesova, Prague - Vinohrady",1 bedroom with open-plan kitchen,59 m²,"CZK 12,000",Furnished,-1,No,No,No,No,No,No,No,05. 03. 2022,156,408,244,342,59,242,281,281,533,788,,,,,,,,,,,,,,,,,
707315,"CZK 20,790",50.0710848,14.4324122,"Lublaňská, Prague - Vinohrady",2 bedroom,60 m²,"CZK 6,930",Furnished,1,No,No,No,No,No,No,No,31. 03. 2022,226,415,211,417,137,461,362,345,557,644,,,,,,,,,,,,,,,,,
707318,"CZK 28,253",50.0940007,14.4535929,"Sokolovská a, Prague - Karlín",Studio,36 m²,"CZK 9,418",Furnished,4,No,Yes,No,No,No,Yes,Yes,05. 03. 2022,109,421,13,160,21,228,518,"1,364",384,467,,,,,,,,,,,,,,,,,
707310,"CZK 65,250",50.0822886,14.4155231,"Karoliny Světlé, Prague - Staré Město",2 bedroom with open-plan kitchen,90 m²,"CZK 21,750",Furnished,3,No,No,No,No,No,Yes,No,26. 03. 2022,462,817,70,468,89,510,489,683,411,400,,,,,,,,,,,,,,,,,
707312,"CZK 48,750",50.0908563,14.4202783,"Dušní, Prague - Josefov",1 bedroom with open-plan kitchen,80 m²,"CZK 16,250",Furnished,6,No,Yes,No,No,No,Yes,No,01. 04. 2022,120,466,224,270,88,288,156,399,230,467,,,,,,,,,,,,,,,,,
707303,"CZK 20,160",50.0631412,14.4044623,"Radlická, Prague - Smíchov",Studio,35 m²,"CZK 6,720",Furnished,2,No,No,No,No,No,No,No,05. 03. 2022,28,453,78,852,18,206,643,616,794,538,,,,,,,,,,,,,,,,,
707294,"CZK 39,971",50.0877117,14.4091678,"U Lužického semináře, Prague - Malá Strana",2 bedroom,56 m²,"CZK 13,324",Furnished,1,No,Yes,No,No,No,No,No,13. 03. 2022,337,356,19,335,43,634,392,362,865,215,,,,,,,,,,,,,,,,,
707289,"CZK 48,750",50.0844534,14.4142848,"Náprstkova, Prague - Staré Město",1 bedroom with open-plan kitchen,72 m²,"CZK 16,250",Furnished,2,No,No,No,No,No,No,No,18. 04. 2022,81,691,54,466,24,287,520,610,545,144,,,,,,,,,,,,,,,,,
707269,"CZK 18,000",50.101287,14.4274794,"Veletržní, Prague - Holešovice",1 bedroom,,"CZK 6,000",Furnished,1,No,No,No,No,No,No,No,01. 04. 2022,159,212,112,187,64,141,210,116,549,,,,,,,,,,,,,,,,,,
708703,"CZK 18,500",50.11712,14.51092,"Klíčovská, Prague - Vysočany",1 bedroom with open-plan kitchen,68 m²,"CZK 3,700",Partially furnished,2,Yes,No,No,No,No,No,Yes,01. 03. 2022,245,"1,350",551,869,296,867,"1,033",163,"1,041",297,New build,"CZK 25,000",Personal,Brick building,,,,C,,,,,,,,,
