Listing ID,Price,Latitude,Longitude,District,Layout,Floor Space,Fees,Furnishing and Fittings,Floor,Balcony,Terrace,Cellar,Loggia,Parking,Lift,Garage,Available from,Public transport stop,Post office,Shop,Bank,Restaurant,Pharmacy,School,Kindergarten,Sports field,Playground,Condition,Refundable security deposit,Ownership Type,Building Type,Heating,Total number of floors,Renovation,PENB,New building,Age,Design,Front garden,Administration fee,Developer name,Project name,Kód jednotky
708810,"CZK 49,650",50.0882058,14.4262315,"Rybná, Prague - Staré Město",1 bedroom with open-plan kitchen,53 m²,"CZK 16,550",Furnished,3,No,No,No,No,No,Yes,No,15. 04. 2022,281,192,58,183,11,368,315,297,289,305,,,,,,,,,,,,,,,,
713381,"CZK 21,000",50.0705847,14.4064774,"Jindřicha Plachty, Prague - Smíchov",3 bedroom,130 m²,"CZK 7,000",Furnished,3,No,No,No,No,No,Yes,No,07. 06. 2022,185,620,138,274,86,216,657,"1,148","1,019",505,,,,,,,,,,,,,,,,
712465,"CZK 45,000",50.0795975,14.4273504,"Ve Smečkách, Prague - Nové Město",1 bedroom with open-plan kitchen,70 m²,"CZK 15,000",Furnished,4,No,No,No,No,No,Yes,No,31. 05. 2022,285,548,70,207,10,222,245,618,370,524,,,,,,,,,,,,,,,,
712596,"CZK 37,500",50.0633339,14.4440155,"Mečislavova, Prague - Nusle",1 bedroom with open-plan kitchen,56 m²,"CZK 12,500",Furnished,5,No,No,No,No,No,Yes,No,01. 06. 2022,243,541,100,272,177,315,457,820,635,594,,,,,,,,,,,,,,,,
620115,"CZK 25,000",50.045603,14.436493,"Horáčkova, Prague - Krč",3 bedroom,86 m²,"CZK 3,000",Partially furnished,3,Yes,No,Yes,No,No,No,No,01. 04. 2022,231,623,130,701,373,724,205,154,376,81,Excellent,"CZK 24,000",Personal,Brick building,Gas boiler,Top floor,Overall,G,,,,,,,,
713379,"CZK 16,000",50.12931,14.49382,"Makedonská, Prague - Střížkov",Studio,42 m²,"CZK 2,600",Partially furnished,6,Yes,No,No,No,Yes,No,No,18. 04. 2022,208,909,53,834,481,327,408,285,"1,035",155,New build,"CZK 30,000",Personal,Brick building,District heating,Top floor,Overall,D,Yes,1 to 10 years years,Premium materials and solutions,,,,,
597106,"CZK 22,400",50.066866,14.387701,"Na Cihlářce, Prague - Smíchov",3 bedroom,75 m²,CZK 600,Unfurnished,1,Yes,Yes,Yes,No,No,No,No,23. 04. 2022,343,"1,045",257,"1,235",353,"1,132","1,022",702,655,612,Excellent,"CZK 30,000",Personal,Brick building,Gas boiler,Ground floor,Interior,G,,,,35 m²,,,,
209991,"CZK 11,900",50.0839945,14.4485314,"Vlkova, Prague - Žižkov",Studio,18 m²,CZK 900,Unfurnished,3,No,No,No,No,No,No,No,10. 04. 2022,298,136,126,163,118,157,80,230,296,462,Excellent,"CZK 14,100",Personal,Brick building,Central heating,Middle floor,Overall,,,1 to 10 years years,Standard materials and solutions,,,,,
550879,"CZK 13,900",50.0639544,14.2854037,"Lačnovská, Prague - Zličín",Studio,36 m²,"CZK 2,839",Furnished,2,No,Yes,No,No,Yes,No,No,01. 05. 2022,304,361,"1,215","1,060",875,"1,338",551,,,,New build,"CZK 27,800",Personal,Low-energy building,Other,Ground floor,,B,Yes,1 to 10 years years,Premium materials and solutions,30 m²,,,,
713368,"CZK 8,000",50.0879644,14.3055575,"Ciolkovského, Prague - Ruzyně",1 bedroom with open-plan kitchen,47 m²,"CZK 2,500",Furnished,12,No,No,No,No,No,Yes,No,15. 04. 2022,262,505,484,471,483,528,488,"1,295",34,,Good,"CZK 8,000",Personal,Prefab concrete building,,,,G,,,,,,,,
661288,"CZK 16,000",50.06703,14.55347,"Honzíkova, Prague - Dolní Měcholupy",1 bedroom with open-plan kitchen,54 m²,"CZK 4,000",Partially furnished,2,Yes,No,No,No,No,Yes,No,01. 06. 2022,487,"1,181",396,315,575,"1,077","1,145",334,,,New build,"CZK 32,000",Personal,Brick building,,,,B,Yes,1 to 10 years years,,,,,,
673571,"CZK 15,000",50.07159,14.40686,"Staropramenná, Prague - Smíchov",1 bedroom with open-plan kitchen,35 m²,"CZK 2,000",Furnished,3,No,No,No,Yes,No,No,No,01. 04. 2022,119,466,30,128,37,308,560,"1,040","1,081",506,Excellent,"CZK 17,000",Personal,Brick building,Gas boiler,,Interior,G,,,,,,,,
712666,"CZK 35,000",50.13003,14.49452,"Zakšínská, Prague - Střížkov",3 bedroom with open-plan kitchen,100 m²,"CZK 6,000",Partially furnished,1,No,Yes,No,No,No,No,No,02. 04. 2022,405,"1,030",257,"1,004",641,531,529,455,"1,222",75,New build,,Personal,Brick building,,,,C,,,,,,,,
713356,"CZK 15,000",50.04745,14.44346,"Humpolecká, Prague - Krč",1 bedroom with open-plan kitchen,44 m²,"CZK 3,000",Furnished,5,No,No,No,No,No,No,No,10. 05. 2022,265,280,114,263,194,220,335,736,621,243,Excellent,"CZK 18,000",Cooperative,Brick building,,,,G,,,,,,,,
711506,"CZK 16,000",50.00861,14.42885,"Rilská, Prague - Modřany",2 bedroom,56 m²,"CZK 8,000",Partially furnished,10,No,No,No,Yes,No,Yes,No,15. 04. 2022,299,934,97,923,125,"1,013",314,360,338,165,Excellent,"CZK 30,000",Personal,Prefab concrete building,,,,G,,,,,,,,
607392,"CZK 16,000",50.067695,14.396304,"Tomkova, Prague - Smíchov",1 bedroom,63 m²,"CZK 2,950",Furnished,4,No,No,Yes,No,Yes,Yes,Yes,01. 06. 2022,327,276,269,665,71,363,416,628,481,420,Excellent,"CZK 25,000",Personal,Brick building,Central heating,Middle floor,,C,,10 to 30 years years,Premium materials and solutions,,,,,
712913,"CZK 14,000",50.07101,14.38412,"Plzeňská, Prague - Košíře",Studio,30 m²,"CZK 2,200",Partially furnished,2,No,No,No,No,Yes,Yes,No,05. 04. 2022,205,828,259,"1,203",272,"1,311",202,505,"1,046",502,New build,"CZK 28,000",Personal,Brick building,,,,G,,,,,,,,
713350,"CZK 16,000",50.04735,14.44738,"Přímětická, Prague - Michle",2 bedroom with open-plan kitchen,70 m²,"CZK 5,500",Furnished,5,No,No,No,No,Yes,Yes,No,01. 05. 2022,258,578,113,103,92,146,307,736,709,395,Good,"CZK 21,500",Personal,Prefab concrete building,,,,G,,,,,,,,
712039,"CZK 16,000",50.10579,14.37746,"Fetrovská, Prague - Dejvice",1 bedroom with open-plan kitchen,55 m²,"CZK 4,000",Partially furnished,1,No,Yes,No,No,No,No,No,01. 05. 2022,433,504,"1,328",544,520,152,29,239,92,,Excellent,"CZK 16,000",Personal,Brick building,Central heating,Ground floor,Overall,G,,1 to 10 years years,Standard materials and solutions,16 m²,,,,
552412,"CZK 32,000",50.10777,14.52681,"Saarinenova, Prague - Hloubětín",2 bedroom with open-plan kitchen,80 m²,"CZK 4,000",Unfurnished,1,No,Yes,Yes,No,Yes,Yes,Yes,01. 06. 2022,117,"1,157",556,"1,138",820,954,"1,104",903,"1,030",363,New build,"CZK 32,000",Personal,Brick building,District heating,Ground floor,,A,Yes,1 to 10 years years,Premium materials and solutions,70 m²,,,,
713346,"CZK 14,990",50.01205444444,14.39988166666,"Vrátnická, Prague - Modřany",Studio,40 m²,"CZK 2,047",Unfurnished,3,Yes,No,Yes,No,No,Yes,No,,198,"1,078",373,"1,322",740,"1,383","1,378",662,,,New build,"CZK 17,037",Personal,Other,,,,A,Yes,,,,"CZK 17,037

                                
                                
                
i",,,
713340,"CZK 14,500",50.10526,14.51782,"Sousedíkova, Prague - Vysočany",Studio,31 m²,"CZK 2,900",Partially furnished,5,Yes,No,Yes,No,Yes,Yes,No,01. 05. 2022,367,619,"1,082",628,"1,294","1,097",890,112,,,New build,"CZK 15,000",Personal,Brick building,,,,C,,,,,,,,
713338,"CZK 19,900",50.05831,14.37501,"Nyklíčkova, Prague - Jinonice",1 bedroom with open-plan kitchen,42 m²,"CZK 4,000",Furnished,2,Yes,No,No,No,No,Yes,Yes,25. 04. 2022,141,358,416,"1,145",318,444,949,267,"1,321",184,New build,CZK 2,Personal,Other,,,,C,,,,,,,,
621379,"CZK 9,800",50.056553,14.495605,"Jabloňová, Prague - Záběhlice",Small studio,25 m²,"CZK 3,200",Furnished,8,No,No,No,No,No,Yes,No,11. 04. 2022,59,616,149,989,200,50,166,658,166,283,Excellent,"CZK 18,000",Personal,Prefab concrete building,,,,,,,,,,,,
713335,"CZK 18,950",50.10608,14.4905,"Drahobejlova, Prague - Libeň",2 bedroom,50 m²,CZK 950,Furnished,1,No,No,No,No,No,No,No,11. 04. 2022,184,143,6,326,135,425,130,356,84,98,Good,"CZK 30,000",Personal,Brick building,,,,C,,,,,,,,
713115,"CZK 19,294",50.0804954,14.4261817,"Štepánská, Prague - Nové Město",2 bedroom,60 m²,"CZK 2,141",,1,No,Yes,No,No,No,No,No,31. 03. 2022,266,558,224,105,0,261,240,664,247,505,Good,"CZK 21,435",Personal,Other,,,,,,,,,"CZK 2,894",,,
713140,"CZK 15,000",50.0933254,14.5130686,"U Smetánky, Prague - Hrdlořezy",1 bedroom with open-plan kitchen,56 m²,"CZK 2,016",,1,No,No,No,No,No,No,No,04. 04. 2022,181,397,174,187,"1,492",322,"1,461",637,394,,Good,"CZK 17,000",Personal,Other,,,,,,,,,"CZK 2,206",,,
713328,"CZK 19,000",50.0997147,14.4323015,"Podplukovníka Sochora, Prague - Holešovice",1 bedroom with open-plan kitchen,42 m²,"CZK 4,000",Partially furnished,2,No,No,No,No,No,No,No,01. 05. 2022,121,765,108,49,106,138,306,220,515,,Excellent,"CZK 19,000",Personal,Brick building,,,,G,,,,,,,,
712652,"CZK 13,000",50.02923,14.48587,"Petýrkova, Prague - Chodov",2 bedroom with open-plan kitchen,71 m²,"CZK 3,800",Furnished,6,No,No,No,Yes,No,Yes,No,02. 04. 2022,252,431,162,595,403,325,455,608,576,198,Good,"CZK 33,600",Personal,Prefab concrete building,,,,G,,,,,,,,
713326,"CZK 60,244",50.0906989,14.4202425,"Dušní, Prague - Josefov",3 bedroom,97 m²,"CZK 20,081",Furnished,3,Yes,No,No,No,No,No,No,20. 04. 2022,103,449,207,253,71,270,138,381,247,455,,,,,,,,,,,,,,,,
713325,"CZK 27,225",50.0739894,14.440101,"Francouzská, Prague - Vinohrady",1 bedroom with open-plan kitchen,45 m²,"CZK 9,075",Furnished,6,No,No,No,No,No,Yes,No,19. 04. 2022,149,274,60,441,20,421,59,552,690,457,,,,,,,,,,,,,,,,
422745,"CZK 15,000",50.071390200853,14.387711758752,"Plzeňská, Prague - Košíře",1 bedroom with open-plan kitchen,63 m²,"CZK 4,596",Unfurnished,2,Yes,No,No,Yes,Yes,Yes,Yes,01. 05. 2022,40,"1,169",11,917,53,"1,068",542,782,"1,139",263,Excellent,"CZK 20,000",Personal,Brick building,,Middle floor,,C,,10 to 30 years years,,,,,,
712651,"CZK 15,000",50.06768,14.45982,"Moskevská, Prague - Vršovice",1 bedroom with open-plan kitchen,52 m²,"CZK 3,000",Partially furnished,1,No,No,Yes,No,No,No,No,01. 05. 2022,63,594,103,254,44,362,453,355,326,251,Excellent,"CZK 20,000",Personal,Brick building,Gas boiler,Raised ground floor,Interior,G,,1 to 10 years years,Standard materials and solutions,,,,,
690553,"CZK 13,990",50.0851483,14.4512417,"Štítného, Prague - Žižkov",Studio,30 m²,CZK 760,Partially furnished,1,No,No,No,No,No,Yes,No,29. 04. 2022,173,144,56,115,75,165,167,383,199,457,Excellent,"CZK 25,000",Personal,Other,Central heating,Middle floor,Overall,B,,1 to 10 years years,Premium materials and solutions,,,,,
713317,"CZK 23,000",50.08855,14.48348,"Olgy Havlové, Prague - Žižkov",1 bedroom with open-plan kitchen,52 m²,"CZK 3,167",Unfurnished,1,No,Yes,Yes,No,No,Yes,No,07. 05. 2022,369,861,465,630,188,673,497,363,360,142,New build,"CZK 30,000",Personal,Brick building,,,,B,,,,,,,,
664283,"CZK 15,900",50.1294079,14.4512939,Prague - Kobylisy,2 bedroom,58 m²,"CZK 3,000",Partially furnished,6,No,No,No,Yes,No,Yes,No,01. 06. 2022,143,6,689,299,350,768,507,"1,366",185,,Excellent,"CZK 31,800",Personal,Prefab concrete building,,,,G,,,,,,,,
516267,"CZK 16,900",50.0067804,14.4354836,Prague - Modřany,2 bedroom with open-plan kitchen,64 m²,"CZK 5,500",Furnished,8,Yes,No,Yes,No,No,Yes,No,01. 01. 1970,245,"1,432",771,"1,421",406,"1,249",897,332,705,154,Excellent,"CZK 30,000",Personal,Prefab concrete building,District heating,Middle floor,Overall,C,,1 to 10 years years,Premium materials and solutions,,,,,
712740,"CZK 31,425",50.0643299,14.4102127,"Strakonická, Prague - Smíchov",Studio,30 m²,"CZK 10,475",Furnished,2,No,No,No,No,No,Yes,No,19. 04. 2022,211,382,250,989,170,745,812,"1,050",387,543,,,,,,,,,,,,,,,,
713311,"CZK 25,000",50.09075,14.42626,"Dlouhá, Prague - Staré Město",1 bedroom with open-plan kitchen,75 m²,"CZK 3,000",Furnished,3,No,No,Yes,No,No,No,No,01. 06. 2022,55,233,30,96,7,184,186,258,152,202,Excellent,"CZK 30,000",Personal,Brick building,,,,G,,,,,,,,
547428,"CZK 16,000",50.108529,14.4738525,"Na Rokytce, Prague - Libeň",2 bedroom,54 m²,"CZK 1,500",Furnished,2,Yes,No,Yes,No,No,Yes,No,11. 04. 2022,163,856,135,412,327,213,265,686,232,223,Excellent,"CZK 16,000",Personal,Brick building,Electric boiler,Middle floor,Interior,C,,,,,,,,
710907,"CZK 15,000",50.0897,14.46926,"Biskupcova, Prague - Žižkov",1 bedroom with open-plan kitchen,40 m²,"CZK 3,600",Unfurnished,1,No,No,Yes,No,No,Yes,No,18. 03. 2022,89,751,57,96,32,69,373,378,454,390,Excellent,"CZK 30,000",Personal,Brick building,,,,E,,,,,,,,
713303,"CZK 13,000",50.10745,14.44647,"Osadní, Prague - Holešovice",1 bedroom,45 m²,"CZK 4,000",Furnished,1,No,No,Yes,No,No,Yes,No,01. 06. 2022,73,462,168,475,205,330,259,815,385,187,Excellent,"CZK 17,000",Personal,Brick building,,,,G,,,,,,,,
503703,"CZK 14,000",50.0716385,14.4535707,"Estonská, Prague - Vršovice",1 bedroom,34 m²,"CZK 2,006",Unfurnished,5,No,No,No,No,No,No,No,,196,708,196,352,163,483,119,252,413,204,Excellent,"CZK 18,000",Personal,Brick building,Gas boiler,Middle floor,Interior,,,1 to 10 years years,Standard materials and solutions,,,,,
713301,"CZK 15,000",50.09695,14.40419,"Milady Horákové, Prague - Hradčany",1 bedroom,52 m²,"CZK 3,100",Partially furnished,4,Yes,No,No,No,No,Yes,No,01. 06. 2022,59,807,119,24,0,147,131,"1,138",204,434,Excellent,"CZK 19,000",Personal,Brick building,,,,G,,,,,,,,
707379,"CZK 60,000",50.0757302,14.4269087,"Ječná, Prague - Nové Město",1 bedroom with open-plan kitchen,,"CZK 20,000",Furnished,3,No,No,No,No,No,No,No,15. 05. 2022,177,647,182,40,38,122,28,102,350,194,,,,,,,,,,,,,,,,
705725,"CZK 150,000",50.09114,14.41807,"Pařížská, Prague - Josefov",6 bedroom with open-plan kitchen,322 m²,"CZK 15,000",Unfurnished,6,No,Yes,No,No,No,Yes,No,09. 02. 2022,50,344,274,458,40,435,343,586,60,470,Excellent,"CZK 165,000",Personal,Brick building,,,,G,,,,,,,,
563249,"CZK 16,000",50.0623095,14.3256648,"5. máje, Prague - Stodůlky",1 bedroom with open-plan kitchen,60 m²,"CZK 4,000",Partially furnished,1,Yes,No,No,No,Yes,No,No,01. 05. 2022,485,"1,479","1,251",799,"1,296","1,308","1,488",572,,,Excellent,"CZK 21,000",Personal,Brick building,Gas boiler,Ground floor,Overall,,,,Standard materials and solutions,,,,,
712632,"CZK 30,000",50.0795183,14.4256008,"Štěpánská, Prague - Nové Město",3 bedroom,106 m²,CZK 800,Unfurnished,4,No,No,No,No,No,Yes,No,04. 04. 2022,252,745,218,228,59,227,265,537,518,474,Excellent,"CZK 60,000",Personal,Brick building,,,,F,,,,,,,,
711683,"CZK 22,313",50.0699993,14.3820262,"Hlaváčkova, Prague - Košíře",Studio,35 m²,"CZK 7,437",Furnished,6,Yes,No,No,No,No,Yes,Yes,28. 05. 2022,202,523,119,828,248,936,219,756,"1,073",529,,,,,,,,,,,,,,,,
443850,"CZK 12,500",50.0517995,14.3653519,"Polívkova, Prague - Jinonice",1 bedroom with open-plan kitchen,45 m²,"CZK 4,000",Unfurnished,2,No,No,No,No,No,No,No,,245,401,719,361,790,326,"1,046",459,201,,,"CZK 12,500",Personal,Prefab concrete building,District heating,Middle floor,,,,,,,,,,
640142,"CZK 1,000",50.104144,14.549458,"Kukelská, Prague - Hloubětín",2 bedroom,107 m²,"CZK 3,900",Furnished,5,Yes,No,Yes,No,Yes,Yes,No,07. 04. 2022,137,942,134,960,611,909,186,827,731,76,Good,,Personal,Prefab concrete building,,,,G,,,,,,,,
446124,"CZK 19,500",50.0058372,14.4149292,"Soukalova, Prague - Modřany",1 bedroom with open-plan kitchen,49 m²,"CZK 3,500",Unfurnished,2,Yes,No,Yes,No,Yes,Yes,Yes,01. 03. 2022,246,257,379,339,405,40,617,740,869,72,,"CZK 19,500",Personal,Brick building,District heating,Middle floor,,B,Yes,1 to 10 years years,Premium materials and solutions,,,,,
671001,"CZK 17,000",50.10294,14.55224,"Sklenská, Prague - Kyje",1 bedroom with open-plan kitchen,56 m²,"CZK 4,000",Furnished,1,Yes,No,No,No,Yes,Yes,No,01. 05. 2022,259,742,402,"1,228",354,643,425,"1,074",601,344,Excellent,"CZK 17,000",Personal,Other,District heating,Middle floor,,B,,1 to 10 years years,Standard materials and solutions,,,,,
704676,"CZK 14,500",50.10365925,14.496393654922,"Lisabonská, Prague - Libeň",Studio,25 m²,"CZK 3,000",Furnished,1,No,No,No,No,No,Yes,No,15. 04. 2022,259,641,512,240,238,214,699,"1,065",467,443,New build,"CZK 17,500",Personal,Brick building,Central heating,,Overall,G,,,,,,,,
713265,"CZK 12,900",50.05891,14.49887,"Ostružinová, Prague - Záběhlice",1 bedroom with open-plan kitchen,51 m²,"CZK 2,400",Partially furnished,2,No,No,No,Yes,No,Yes,No,15. 04. 2022,349,430,336,639,658,403,483,637,577,225,Good,,Personal,Prefab concrete building,,,,G,,,,,,,,
707284,"CZK 33,750",50.0718291,14.4385892,"Americká, Prague - Vinohrady",1 bedroom,43 m²,"CZK 11,250",Furnished,4,No,No,No,No,No,Yes,No,16. 05. 2022,274,300,81,587,69,312,103,253,793,568,,,,,,,,,,,,,,,,
713263,"CZK 35,475",50.0795659,14.4357789,"Balbínova, Prague - Vinohrady",1 bedroom with open-plan kitchen,60 m²,"CZK 11,825",Furnished,3,No,No,No,No,No,Yes,No,01. 05. 2022,134,417,252,351,68,251,205,205,457,712,,,,,,,,,,,,,,,,
704555,"CZK 18,000",50.1037268,14.4539924,"V Háji, Prague - Holešovice",1 bedroom with open-plan kitchen,51 m²,"CZK 4,000",Partially furnished,1,No,No,Yes,No,No,No,No,01. 02. 2022,60,629,33,219,91,134,665,627,217,509,Excellent,"CZK 25,000",Personal,Brick building,,,,G,,,,,,,,
713261,"CZK 14,500",50.13373,14.51058,"Chlebovická, Prague - Letňany",1 bedroom with open-plan kitchen,45 m²,"CZK 3,000",Furnished,10,No,No,Yes,No,No,Yes,No,01. 05. 2022,97,753,403,335,416,420,281,383,249,43,New build,"CZK 14,500",Personal,Brick building,,,,C,,,,,,,,
713260,"CZK 13,500",50.0995426,14.3993071,"Kyjevská, Prague - Bubeneč",1 bedroom with open-plan kitchen,47 m²,"CZK 4,000",Furnished,4,No,No,No,No,No,Yes,No,01. 05. 2022,246,303,106,114,25,199,299,630,280,265,Excellent,"CZK 20,000",Personal,Brick building,Gas boiler,Middle floor,,G,,,Standard materials and solutions,,,,,
556880,"CZK 25,500",50.0775372,14.4192713,"Karlovo náměstí, Prague - Nové Město",3 bedroom,83 m²,"CZK 6,500",Partially furnished,3,No,No,No,No,No,Yes,No,01. 07. 2022,76,276,60,33,22,244,199,387,508,418,Good,"CZK 30,000",Personal,Brick building,Central heating,Middle floor,,D,,,,,,,,
653924,"CZK 16,500",50.06578,14.46399,"Baškirská, Prague - Vršovice",1 bedroom with open-plan kitchen,61 m²,"CZK 5,500",Furnished,9,Yes,Yes,Yes,No,Yes,Yes,No,01. 06. 2022,309,593,321,558,302,809,742,158,257,524,Excellent,"CZK 20,000",Personal,Prefab concrete building,,,,C,,,,,,,,
695859,"CZK 20,000",50.02611,14.44741,"Mezilesní, Prague - Lhotka",3 bedroom with open-plan kitchen,68 m²,"CZK 4,500",Partially furnished,3,No,No,Yes,No,Yes,No,No,07. 04. 2022,182,987,554,"1,186",580,899,337,703,659,352,Excellent,"CZK 40,000",Personal,Prefab concrete building,District heating,Top floor,Interior,B,,,,,,,,
465966,"CZK 19,000",50.0931427,14.4569598,"Březinova, Prague - Karlín",1 bedroom with open-plan kitchen,49 m²,"CZK 2,000",Partially furnished,2,Yes,No,No,No,No,No,No,01. 02. 2022,314,772,119,373,54,236,192,"1,340",287,436,,"CZK 20,000",Personal,Brick building,,Middle floor,Overall,A,,,Standard materials and solutions,50 m²,,,,
642598,"CZK 12,100",50.125077,14.485276,"Teplická, Prague - Střížkov",Studio,36 m²,"CZK 2,000",Partially furnished,11,No,No,No,No,No,Yes,No,01. 04. 2022,53,"1,190",195,"1,090",226,365,261,218,292,133,New build,"CZK 24,000",Personal,Brick building,District heating,Middle floor,,B,Yes,1 to 10 years years,Premium materials and solutions,,,,,
710246,"CZK 9,000",50.07342,14.50766,"V Olšinách, Prague - Strašnice",Studio,30 m²,"CZK 2,000",Furnished,1,No,No,No,No,No,No,No,01. 05. 2022,130,"1,413",284,"1,266",254,664,373,764,"1,235",451,Excellent,"CZK 21,000",Personal,Brick building,,,,G,,,,,,,,
651361,"CZK 11,000",50.021488,14.42656,"Klánova, Prague - Braník",Small studio,15 m²,,Partially furnished,2,Yes,No,No,No,No,No,No,22. 02. 2021,157,728,443,720,565,596,212,673,741,355,Good,"CZK 11,000",Personal,Prefab concrete building,,,,C,,,,,,,,
664249,"CZK 10,500",50.08677,14.46824,"Malešická, Prague - Žižkov",Small studio,33 m²,CZK 720,Unfurnished,2,No,No,No,No,No,No,No,01. 05. 2022,177,465,110,256,134,400,433,319,335,358,Excellent,"CZK 10,500",Personal,Brick building,,,,G,,,,,,,,
713109,"CZK 18,000",50.10684,14.60743,"Bříšťanská, Prague - Horní Počernice",3 bedroom,115 m²,"CZK 6,000",Furnished,1,Yes,No,No,No,Yes,No,No,07. 04. 2022,286,"1,098","1,057",349,886,283,,,,,Excellent,"CZK 45,000",Personal,Brick building,,,,C,,,,,,,,
589375,"CZK 25,000",50.090582,14.450551,"Pernerova, Prague - Karlín",2 bedroom,97 m²,"CZK 2,000",Partially furnished,1,No,No,Yes,No,Yes,No,No,01. 01. 1970,327,394,162,391,192,458,44,"1,048",452,353,Excellent,"CZK 25,000",Cooperative,Brick building,Gas boiler,Middle floor,Overall,G,,,Standard materials and solutions,,,,,
451896,"CZK 15,900",50.126435629706,14.420373201575,"Hnězdenská, Prague - Troja",1 bedroom with open-plan kitchen,42 m²,"CZK 3,000",Furnished,11,Yes,No,No,No,No,No,No,01. 06. 2022,235,250,263,320,114,264,771,961,"1,239",392,Excellent,"CZK 25,000",Personal,Other,Central heating,Middle floor,,C,,1 to 10 years years,,,,,,
712821,"CZK 25,000",50.09093,14.41747,"Břehová, Prague - Josefov",2 bedroom,73 m²,"CZK 6,000",Unfurnished,2,Yes,No,No,No,No,Yes,No,04. 04. 2022,65,331,261,422,0,508,385,628,143,640,Excellent,"CZK 31,000",Personal,Brick building,,,,G,,,,,,,,
519620,"CZK 17,000",50.0610745,14.4381486,Prague - Nusle,1 bedroom with open-plan kitchen,57 m²,"CZK 2,500",Partially furnished,2,Yes,No,Yes,No,No,No,No,10. 04. 2022,134,655,158,471,93,382,369,753,93,202,Excellent,"CZK 25,000",Personal,Brick building,,,,,,,,20 m²,,,,
708824,"CZK 63,000",50.0895437,14.4260543,"Rybná, Prague - Staré Město",3 bedroom,86 m²,"CZK 21,000",Furnished,3,No,No,No,No,No,No,No,01. 06. 2022,138,70,36,61,45,257,146,128,234,214,,,,,,,,,,,,,,,,
713250,"CZK 15,000",50.0701838,14.4021308,"Karla Engliše, Prague - Smíchov",1 bedroom with open-plan kitchen,64 m²,"CZK 3,000",Furnished,4,Yes,No,Yes,No,Yes,Yes,Yes,01. 06. 2022,125,373,219,81,55,115,351,847,"1,021",405,New build,"CZK 20,000",,Brick building,Gas boiler,Middle floor,,,,10 to 30 years years,Standard materials and solutions,,,,,
712185,"CZK 59,100",50.0882082,14.4262296,"Rybná, Prague - Staré Město",2 bedroom with open-plan kitchen,86 m²,"CZK 19,700",Furnished,2,Yes,No,No,No,No,No,No,29. 05. 2022,281,192,58,183,11,369,315,297,289,305,,,,,,,,,,,,,,,,
713249,"CZK 20,250",50.0922767,14.4324355,"Klimentská, Prague - Nové Město",Studio,30 m²,"CZK 6,750",Furnished,1,No,No,No,No,No,No,No,06. 06. 2022,132,502,36,412,20,262,31,217,579,177,,,,,,,,,,,,,,,,
713248,"CZK 18,000",50.1000121,14.3916447,"Banskobystrická, Prague - Dejvice",Studio,45 m²,"CZK 6,000",Furnished,8,No,Yes,No,No,No,No,No,06. 06. 2022,100,451,101,8,68,482,829,164,567,82,,,,,,,,,,,,,,,,
713245,"CZK 18,720",50.0713305,14.4638794,"Na Míčánkách, Prague - Vršovice",1 bedroom with open-plan kitchen,49 m²,"CZK 6,240",Furnished,2,No,No,No,No,No,Yes,No,06. 06. 2022,84,743,87,659,277,595,408,307,678,198,,,,,,,,,,,,,,,,
301142,"CZK 19,000",50.1273445,14.5029602,"Bechlínská, Prague - Letňany",1 bedroom with open-plan kitchen,58 m²,"CZK 2,500",Furnished,2,Yes,No,No,No,No,Yes,No,01. 05. 2022,229,845,111,874,564,811,345,568,253,,Excellent,"CZK 25,000",Personal,Brick building,District heating,,,C,,1 to 10 years years,Premium materials and solutions,,,,,
713216,"CZK 16,000",50.03495,14.38949,"Devonská, Prague - Hlubočepy",Studio,60 m²,"CZK 6,000",Partially furnished,2,Yes,No,Yes,No,No,Yes,No,14. 05. 2022,202,"1,286",669,"1,194",642,"1,252","1,272","1,272","1,205",91,New build,"CZK 44,000",Personal,Brick building,,,,G,,,,,,,,
590616,"CZK 14,000",50.008984,14.429712,"Levského, Prague - Modřany",1 bedroom with open-plan kitchen,47 m²,"CZK 3,000",Partially furnished,4,Yes,No,No,Yes,No,Yes,No,01. 05. 2022,328,"1,048",142,"1,032",169,"1,022",284,384,179,171,Excellent,"CZK 20,000",Personal,Prefab concrete building,,,,G,,,,,,,,
290009,"CZK 10,500",50.0780988,14.5007519,"Kounická, Prague - Strašnice",1 bedroom,45 m²,"CZK 2,660",Partially furnished,,No,No,No,No,No,No,No,,227,556,213,533,215,487,530,568,"1,315",304,,"CZK 15,000",Personal,Brick building,,Ground floor,,,,,,,,,,
713214,"CZK 20,000",50.12435,14.48724,"Rumburská, Prague - Střížkov",2 bedroom with open-plan kitchen,58 m²,"CZK 4,500",Partially furnished,2,No,No,Yes,Yes,No,Yes,No,01. 05. 2022,206,"1,039",386,977,405,361,397,242,200,139,Excellent,"CZK 30,000",Personal,Prefab concrete building,,,,G,,,,,,,,
448384,"CZK 16,500",50.0453146,14.5146362,"Přeštická, Prague - Hostivař",1 bedroom with open-plan kitchen,85 m²,"CZK 4,000",Furnished,8,No,Yes,No,Yes,No,Yes,No,01. 05. 2022,165,329,302,291,"1,060",398,"1,325",135,,,,"CZK 20,000",Personal,Brick building,District heating,Top floor,,,,,Standard materials and solutions,,,,,
602963,"CZK 14,500",50.070717,14.446995,"Donská, Prague - Vršovice",Studio,34 m²,"CZK 2,500",Furnished,2,No,Yes,No,No,No,Yes,No,01. 05. 2022,148,677,142,462,0,498,447,535,324,290,Good,"CZK 15,000",Personal,Brick building,Central heating,Middle floor,,C,,1 to 10 years years,,,,,,
712580,"CZK 13,700",50.12639,14.42051,"Hnězdenská, Prague - Troja",1 bedroom with open-plan kitchen,51 m²,"CZK 3,500",Partially furnished,2,No,No,No,No,No,Yes,No,01. 04. 2022,231,254,267,324,118,268,776,965,"1,244",396,Excellent,"CZK 20,000",Personal,Prefab concrete building,,,,G,,,,,,,,
713205,"CZK 24,000",50.08554,14.44835,"Blahníkova, Prague - Žižkov",2 bedroom with open-plan kitchen,85 m²,"CZK 1,600",Partially furnished,5,No,No,No,No,No,No,No,01. 06. 2022,237,333,118,340,77,301,68,161,205,648,New build,"CZK 39,000",Personal,Brick building,,,,C,,,,,,,,
443504,"CZK 18,000",50.060275596721,14.288100429608,"Mladých, Prague - Zličín",3 bedroom,70 m²,"CZK 2,000",Partially furnished,1,No,No,No,No,No,No,No,01. 05. 2022,249,431,949,940,317,"1,051",250,650,194,,,,Personal,Brick building,,,,,,,,50 m²,,,,
641426,"CZK 18,000",50.054874,14.525425,"Rychtáře Petříka, Prague - Hostivař",1 bedroom with open-plan kitchen,46 m²,"CZK 3,500",Partially furnished,1,No,Yes,No,No,Yes,Yes,Yes,11. 04. 2022,287,755,238,717,532,759,"1,182",642,491,399,New build,"CZK 21,500",Personal,Brick building,,Ground floor,,B,Yes,1 to 10 years years,,75 m²,,,,
712143,"CZK 21,019",50.1080609,14.4828384,"Nad Kolčavkou A, Prague - Libeň",Studio,32 m²,"CZK 7,006",Furnished,1,No,No,No,No,No,No,No,31. 05. 2022,420,741,425,495,194,893,285,624,454,365,,,,,,,,,,,,,,,,
713199,"CZK 9,990",50.10572333333,14.547835,"Rochovská, Prague - Hloubětín",Studio,29 m²,"CZK 1,646",Furnished,2,No,No,No,No,No,Yes,No,,124,832,279,864,474,918,287,590,958,217,Excellent,"CZK 11,636",Personal,Prefab concrete building,,,,B,,,,,"CZK 11,636

                                
                                
                
i",,,
561147,"CZK 16,500",50.1029879,14.5116326,"Poděbradská, Prague - Vysočany",1 bedroom with open-plan kitchen,50 m²,"CZK 4,900",Furnished,2,Yes,No,Yes,No,No,Yes,Yes,30. 09. 2021,139,409,"1,153",768,448,535,"1,267",990,382,,,"CZK 21,000",Personal,Other,District heating,Middle floor,,C,,10 to 30 years years,Premium materials and solutions,,,,,
713192,"CZK 14,000",50.05011,14.54659,"Tenisová, Prague - Hostivař",1 bedroom with open-plan kitchen,45 m²,"CZK 3,195",Partially furnished,14,No,No,Yes,Yes,No,Yes,No,07. 04. 2022,271,269,294,275,118,704,235,586,174,,Excellent,"CZK 27,000",Personal,Prefab concrete building,Gas boiler,Top floor,Overall,G,,,,,,,,
375346,"CZK 14,200",50.1031123,14.4490865,"Dělnická, Prague - Holešovice",1 bedroom with open-plan kitchen,42 m²,"CZK 2,800",Partially furnished,2,No,No,No,No,No,No,No,01. 04. 2022,119,210,62,80,36,153,312,328,465,310,Excellent,"CZK 28,000",Personal,Brick building,District heating,Middle floor,Overall,,,1 to 10 years years,Standard materials and solutions,,,,,
711865,"CZK 19,000",50.06205,14.40525,"Křížová, Prague - Smíchov",1 bedroom with open-plan kitchen,55 m²,"CZK 3,750",Partially furnished,5,No,Yes,Yes,No,No,No,No,01. 06. 2022,71,459,153,"1,020",161,86,819,792,799,648,Excellent,"CZK 38,000",Personal,Brick building,Gas boiler,Top floor,,G,,,,,,,,
712154,"CZK 20,000",50.07146,14.44815,"Krymská, Prague - Vršovice",1 bedroom with open-plan kitchen,59 m²,"CZK 2,840",Partially furnished,5,No,No,No,No,No,No,No,01. 04. 2022,135,665,130,370,71,629,313,580,182,300,Excellent,"CZK 20,000",Personal,Brick building,,,,G,,,,,,,,
400010,"CZK 20,000",50.0773435,14.4009876,"Holečkova, Prague - Smíchov",2 bedroom with open-plan kitchen,98 m²,CZK 600,Partially furnished,3,No,No,No,Yes,No,No,No,01. 06. 2022,188,514,319,533,229,506,480,942,762,354,,"CZK 30,000",Personal,Brick building,,,,,,,,,,,,
712262,"CZK 42,075",50.0739894,14.440101,"Francouzská, Prague - Vinohrady",2 bedroom,80 m²,"CZK 14,025",Furnished,6,No,No,No,No,No,Yes,No,19. 04. 2022,149,274,60,441,20,421,59,552,690,457,,,,,,,,,,,,,,,,
713184,"CZK 8,500",50.06934,14.3734,"Pod Kavalírkou, Prague - Košíře",Small studio,16 m²,CZK 820,Partially furnished,1,No,No,No,No,No,No,No,06. 04. 2022,201,251,239,215,276,322,483,965,829,163,Excellent,"CZK 10,000",Personal,Brick building,Electric boiler,Ground floor,,D,,1 to 10 years years,Standard materials and solutions,,,,,
646971,"CZK 16,500",50.069361,14.457193,"Holandská, Prague - Vršovice",1 bedroom with open-plan kitchen,45 m²,"CZK 1,500",Furnished,3,No,No,No,No,No,Yes,No,01. 06. 2022,172,367,79,144,97,142,224,244,442,203,Excellent,"CZK 20,000",Personal,Brick building,Gas boiler,Middle floor,Overall,G,,,Standard materials and solutions,,,,,
711727,"CZK 21,038",50.088447,14.458108,"Koněvova, Prague - Žižkov",Studio,35 m²,"CZK 7,012",Furnished,3,Yes,No,No,No,No,Yes,Yes,24. 05. 2022,202,261,167,291,120,196,324,494,176,433,,,,,,,,,,,,,,,,
713167,"CZK 30,000",50.13974,14.4451,"K Beranovu, Prague - Dolní Chabry",2 bedroom with open-plan kitchen,82 m²,"CZK 2,000",Furnished,2,Yes,No,Yes,No,Yes,Yes,Yes,01. 05. 2022,582,"1,226",420,954,802,757,"1,281",280,,,New build,"CZK 60,000",Personal,Brick building,District heating,,,B,Yes,1 to 10 years years,Standard materials and solutions,,,,,
582426,"CZK 21,000",50.07266,14.477987,"Omská, Prague - Vršovice",1 bedroom with open-plan kitchen,55 m²,"CZK 2,000",Unfurnished,2,No,No,No,No,No,No,No,01. 05. 2022,222,213,331,458,208,260,156,189,588,435,New build,"CZK 30,000",Personal,Brick building,Gas boiler,Middle floor,,B,,,,,,,,
711999,"CZK 43,350",50.0894289,14.423732,"Masná, Prague - Staré Město",Studio,46 m²,"CZK 14,450",Furnished,3,No,No,No,No,No,Yes,No,25. 04. 2022,68,269,126,89,16,107,70,52,156,144,,,,,,,,,,,,,,,,
713163,"CZK 16,000",50.09833,14.37579,"Velvarská, Prague - Dejvice",2 bedroom,60 m²,CZK 800,Partially furnished,1,No,Yes,No,No,No,No,No,15. 04. 2022,156,"1,047",127,923,318,517,933,339,811,106,Excellent,"CZK 32,000",Personal,Brick building,,,,G,,,,,,,,
571007,"CZK 14,000",50.0480462,14.4424127,"Humpolecká, Prague - Krč",1 bedroom with open-plan kitchen,40 m²,"CZK 2,000",Partially furnished,3,No,No,Yes,No,No,No,No,01. 05. 2022,166,180,105,363,172,320,435,773,521,343,Excellent,"CZK 20,000",Personal,Brick building,Gas boiler,Middle floor,Overall,C,,10 to 30 years years,Standard materials and solutions,,,,,
661549,"CZK 26,500",50.09369,14.4555,"Šaldova, Prague - Karlín",1 bedroom with open-plan kitchen,68 m²,"CZK 2,500",Partially furnished,4,No,Yes,Yes,No,No,Yes,No,01. 05. 2022,335,642,2,270,74,133,283,"1,339",184,325,New build,"CZK 45,000",Personal,Brick building,,,,F,,,,,,,,
594087,"CZK 18,600",50.059241,14.434281,"5. Května, Prague - Nusle",1 bedroom with open-plan kitchen,60 m²,CZK 650,Furnished,2,Yes,Yes,No,No,No,Yes,No,01. 05. 2022,358,"1,074",217,530,170,478,463,658,451,647,Excellent,"CZK 36,000",Personal,Brick building,Gas boiler,Middle floor,,G,,1 to 10 years years,Premium materials and solutions,,,,,
713155,"CZK 23,000",50.07849,14.45635,"Přemyslovská, Prague - Vinohrady",2 bedroom,82 m²,"CZK 1,200",Partially furnished,6,No,No,No,No,No,Yes,No,11. 04. 2022,127,336,85,145,47,342,467,581,922,219,Excellent,"CZK 23,000",Cooperative,Brick building,,,,G,,,,,,,,
466224,"CZK 13,000",50.0855445,14.3729816,"Mládeže, Prague - Břevnov",1 bedroom with open-plan kitchen,42 m²,"CZK 3,000",Partially furnished,3,No,No,Yes,No,No,No,No,30. 04. 2022,229,745,314,504,225,206,234,245,512,394,,"CZK 16,000",Personal,Brick building,,,,,,,,,,,,
569904,"CZK 12,800",50.0789302,14.457653,"Baranova, Prague - Žižkov",1 bedroom with open-plan kitchen,48 m²,"CZK 3,000",Partially furnished,5,No,No,Yes,No,No,Yes,No,01. 02. 2022,194,505,65,266,61,335,483,442,771,198,Excellent,"CZK 12,800",Personal,Brick building,Gas boiler,Middle floor,,,,,Standard materials and solutions,,,,,
9448,"CZK 16,900",50.0554029275,14.4239115715,"Pod Klaudiánkou, Prague - Podolí",1 bedroom with open-plan kitchen,33 m²,"CZK 2,900",Furnished,,No,Yes,No,No,No,No,Yes,23. 04. 2022,296,647,467,506,392,644,447,807,207,410,Excellent,"CZK 33,000",Personal,Brick building,Other,Ground floor,,B,,10 to 30 years years,Premium materials and solutions,41 m²,,,,
713146,"CZK 19,166",50.0500223,14.3484607,"Seydlerova, Prague - Stodůlky",1 bedroom with open-plan kitchen,53 m²,"CZK 6,389",Furnished,6,No,No,No,No,No,No,No,02. 05. 2022,318,610,145,217,138,324,226,91,"1,397",179,,,,,,,,,,,,,,,,
713145,"CZK 19,000",50.10882,14.52671,"Granitova, Prague - Hloubětín",1 bedroom with open-plan kitchen,49 m²,"CZK 3,800",Partially furnished,4,Yes,No,No,No,Yes,Yes,Yes,11. 04. 2022,209,"1,249",648,"1,230",912,"1,023","1,174",994,"1,121",457,New build,"CZK 38,000",Personal,Prefab concrete building,,,,A,,,,,,,,
712506,"CZK 35,000",50.0762,14.44983,"Slezská, Prague - Vinohrady",3 bedroom,95 m²,"CZK 5,000",Furnished,1,No,No,Yes,No,No,No,No,01. 05. 2022,144,329,135,144,57,216,290,180,632,156,Excellent,"CZK 30,000",Personal,Brick building,,,,E,,,,,,,,
713144,"CZK 13,000",50.09004,14.4675,"Koněvova, Prague - Žižkov",1 bedroom with open-plan kitchen,43 m²,CZK 535,Partially furnished,1,No,No,No,No,No,Yes,No,06. 04. 2022,62,793,5,91,38,122,453,562,485,204,Excellent,"CZK 26,000",Personal,Brick building,,,,G,,,,,,,,
713143,"CZK 24,000",50.08531,14.34044,"Plojharova, Prague - Břevnov",3 bedroom,70 m²,"CZK 5,000",Partially furnished,4,No,No,Yes,No,No,No,No,01. 05. 2022,192,884,534,587,289,570,226,375,881,372,Excellent,"CZK 48,000",Personal,Brick building,,,,G,,,,,,,,
711712,"CZK 55,000",50.07202,14.44518,"Francouzská, Prague - Vinohrady",1 bedroom with open-plan kitchen,101 m²,CZK 133,Furnished,4,Yes,No,No,No,No,No,No,01. 04. 2022,,,,,,,,,,,Excellent,"CZK 110,000",Personal,Brick building,District heating,Top floor,Overall,B,Yes,1 to 10 years years,Premium materials and solutions,,,Luka Residential s.r.o.,Luka Living Rental apartments,F401
712518,"CZK 36,000",50.04595,14.32223,"Mukařovského, Prague - Stodůlky",1 bedroom with open-plan kitchen,81 m²,CZK 133,Furnished,3,No,Yes,No,No,No,No,No,01. 05. 2022,,,,,,,,,,,New build,"CZK 72,000",Personal,Other,,,,A,Yes,,,,,Luka Residential s.r.o.,Luka Living Rental apartments,309
704537,"CZK 35,000",50.07621,14.42885,"Hálkova, Prague - Nové Město",4 bedroom,114 m²,CZK 500,Partially furnished,1,No,No,No,No,No,No,No,01. 01. 1970,158,603,131,173,31,68,243,317,159,223,Excellent,"CZK 40,000",Personal,Brick building,Gas boiler,Middle floor,Overall,B,,1 to 10 years years,Premium materials and solutions,,,,,
661029,"CZK 6,000",50.068585,14.4713735,"Vladivostocká, Prague - Vršovice",Small studio,20 m²,"CZK 3,000",Furnished,3,No,No,No,No,No,Yes,No,03. 05. 2021,137,233,164,167,282,552,245,363,313,352,Excellent,"CZK 9,000",,Other,District heating,Middle floor,,D,,,Standard materials and solutions,,,,,
707313,"CZK 39,015",50.0882058,14.4262315,"Rybná, Prague - Staré Město",1 bedroom with open-plan kitchen,44 m²,"CZK 13,005",Furnished,3,No,No,No,No,No,No,No,09. 04. 2022,281,192,58,183,11,368,315,297,289,305,,,,,,,,,,,,,,,,
655768,"CZK 15,500",50.06344,14.45338,"Petrohradská, Prague - Vršovice",2 bedroom,53 m²,"CZK 3,500",Furnished,4,No,No,Yes,No,No,Yes,No,01. 04. 2022,157,614,155,737,26,597,398,363,402,420,Excellent,"CZK 20,000",Cooperative,Brick building,Gas boiler,Middle floor,,G,,,Standard materials and solutions,,,,,
478334,"CZK 11,000",50.0297479,14.4497107,"Štúrova, Prague - Krč",1 bedroom with open-plan kitchen,54 m²,"CZK 3,500",Furnished,5,No,No,No,No,Yes,Yes,No,01. 05. 2022,307,"1,478",6,6,757,"1,026","1,353",743,564,,Excellent,"CZK 20,000",Personal,Prefab concrete building,Central heating,Middle floor,,C,,10 to 30 years years,Standard materials and solutions,,,,,
713125,"CZK 16,700",50.046597,14.4482347,"Přímětická, Prague - Michle",2 bedroom with open-plan kitchen,70 m²,"CZK 2,800",Partially furnished,4,No,No,No,No,No,Yes,No,07. 04. 2022,222,622,143,187,156,230,221,764,623,436,Good,"CZK 29,000",Personal,Prefab concrete building,,,,G,,,,,,,,
713122,"CZK 14,000",50.10641,14.447,"Osadní, Prague - Holešovice",Studio,33 m²,"CZK 2,650",Partially furnished,1,No,No,No,No,No,Yes,No,01. 05. 2022,168,326,170,339,84,232,357,686,350,284,Excellent,"CZK 28,000",Personal,Brick building,,,,G,,,,,,,,
430813,"CZK 19,900",50.1262741,14.4319591,"Velká skála, Prague - Troja",2 bedroom with open-plan kitchen,80 m²,"CZK 5,000",Partially furnished,2,No,Yes,No,No,Yes,No,No,01. 04. 2022,361,626,69,"1,243",574,"1,042",547,475,481,469,Excellent,"CZK 35,000",Personal,Brick building,District heating,,,A,,,,,,,,
713119,"CZK 20,000",50.0758076,14.419087,"Karlovo náměstí, Prague - Nové Město",1 bedroom,58 m²,"CZK 1,900",Partially furnished,1,No,No,No,No,No,No,No,06. 04. 2022,64,90,87,106,154,99,118,495,711,218,New build,"CZK 20,000",Personal,Brick building,,,,C,,,,,,,,
713118,"CZK 18,000",50.1237664,14.4396098,"K Sadu, Prague - Troja",3 bedroom with open-plan kitchen,72 m²,"CZK 6,000",Partially furnished,1,Yes,No,Yes,Yes,Yes,No,No,01. 01. 1970,367,"1,332",96,971,384,334,454,249,271,243,Excellent,"CZK 24,000",Personal,Brick building,,,,G,,,,,,,,
111639,"CZK 11,000",50.0908705,14.4234615,"Haštalská, Prague - Staré Město",Studio,25 m²,"CZK 1,500",Furnished,5,No,No,No,No,No,Yes,No,11. 04. 2022,60,394,36,180,50,197,274,320,164,166,Excellent,"CZK 25,000",Personal,Brick building,Other,Middle floor,Interior,,,,Standard materials and solutions,,,,,
177743,"CZK 14,500",50.1110331231,14.4889452368,"Podvinný mlýn, Prague - Libeň",Studio,55 m²,"CZK 4,500",Furnished,1,No,Yes,No,No,No,Yes,Yes,01. 06. 2022,572,936,718,782,252,650,624,730,449,360,Excellent,"CZK 20,000",Personal,Brick building,Central heating,Middle floor,,,,10 to 30 years years,Standard materials and solutions,,,,,
602617,"CZK 21,500",50.084122,14.431357,"U Půjčovny, Prague - Nové Město",1 bedroom with open-plan kitchen,42 m²,"CZK 3,500",Furnished,2,Yes,No,No,No,No,No,No,01. 05. 2022,205,267,329,176,129,314,42,854,288,369,Good,"CZK 25,000",Personal,Brick building,Gas boiler,Middle floor,,G,,over 50 years years,Standard materials and solutions,,,,,
713110,"CZK 23,000",50.1056794,14.4916437,"Kovářská, Prague - Libeň",2 bedroom with open-plan kitchen,80 m²,"CZK 5,000",Furnished,7,No,No,Yes,No,No,Yes,No,15. 05. 2022,59,268,110,330,11,423,6,380,151,122,New build,,Personal,Brick building,,,,G,,,,,,,,
573663,"CZK 19,900",50.0899503,14.3420175,"Na Okraji, Prague - Veleslavín",1 bedroom with open-plan kitchen,65 m²,"CZK 3,900",Partially furnished,4,Yes,No,Yes,No,No,Yes,No,11. 04. 2022,188,582,118,232,196,272,254,118,913,245,New build,"CZK 30,000",Personal,Brick building,Central heating,Top floor,,C,Yes,1 to 10 years years,Premium materials and solutions,,,,,
410319,"CZK 13,500",50.1302363,14.4221293,Prague - Bohnice,1 bedroom with open-plan kitchen,49 m²,"CZK 3,500",Furnished,2,No,No,Yes,No,Yes,Yes,Yes,22. 04. 2022,182,821,184,751,469,197,386,924,"1,037",185,Excellent,"CZK 35,000",Cooperative,Prefab concrete building,District heating,Middle floor,Overall,,,1 to 10 years years,Premium materials and solutions,,,,,
577002,"CZK 16,000",50.1171669,14.4317465,"Trojská, Prague - Troja",1 bedroom with open-plan kitchen,43 m²,"CZK 3,500",Unfurnished,1,No,No,No,No,No,No,No,01. 01. 2022,399,778,398,794,980,582,"1,071",806,,,,"CZK 48,000",Personal,Brick building,,,,C,,,,,,,,
188871,"CZK 12,600",50.1050543,14.4879604,"Kurta Konráda, Prague - Libeň",1 bedroom with open-plan kitchen,45 m²,CZK 500,Furnished,3,Yes,No,No,No,No,No,No,01. 05. 2022,200,80,119,118,164,278,337,564,180,47,,"CZK 13,100",Personal,Brick building,,,,,,,,,,,,
709382,"CZK 50,250",50.0710929,14.4032595,"Stroupežnického, Prague - Smíchov",3 bedroom with open-plan kitchen,90 m²,"CZK 16,750",Furnished,2,No,No,No,No,No,Yes,No,05. 05. 2022,140,528,224,126,38,67,511,"1,001","1,181",559,,,,,,,,,,,,,,,,
710752,"CZK 39,000",50.0739894,14.440101,"Francouzská, Prague - Vinohrady",2 bedroom,80 m²,"CZK 13,000",Furnished,3,No,No,No,No,No,Yes,No,16. 05. 2022,149,274,60,441,20,421,59,552,690,457,,,,,,,,,,,,,,,,
711822,"CZK 41,250",50.0912734,14.4238585,"Haštalské náměstí, Prague - Staré Město",2 bedroom,50 m²,"CZK 13,750",Furnished,-1,No,Yes,No,No,No,No,No,26. 05. 2022,55,370,51,238,66,242,352,396,158,122,,,,,,,,,,,,,,,,
711531,"CZK 37,125",50.0739894,14.440101,"Francouzská, Prague - Vinohrady",2 bedroom,90 m²,"CZK 12,375",Furnished,2,No,No,No,No,No,Yes,No,23. 05. 2022,149,274,60,441,20,421,59,552,690,457,,,,,,,,,,,,,,,,
711821,"CZK 70,875",50.0822886,14.4155231,"Karoliny Světlé, Prague - Staré Město",2 bedroom with open-plan kitchen,90 m²,"CZK 23,625",Furnished,3,No,No,No,No,No,Yes,No,26. 05. 2022,462,817,70,468,89,510,489,683,411,400,,,,,,,,,,,,,,,,
712600,"CZK 23,625",50.0984636,14.4253146,"Ovenecká, Prague - Holešovice",1 bedroom with open-plan kitchen,55 m²,"CZK 7,875",Furnished,5,No,No,No,No,No,Yes,No,01. 06. 2022,220,310,47,185,156,218,202,"1,485",496,451,,,,,,,,,,,,,,,,
711820,"CZK 31,875",50.0902753,14.4260311,"Rybná, Prague - Staré Město",Studio,40 m²,"CZK 10,625",Furnished,1,No,No,No,No,No,No,No,26. 05. 2022,124,153,54,67,17,194,209,158,151,202,,,,,,,,,,,,,,,,
713014,"CZK 19,000",50.0204964,14.4029624,"Šífařská, Prague - Hodkovičky",1 bedroom with open-plan kitchen,38 m²,"CZK 2,000",Furnished,1,No,No,Yes,No,No,No,Yes,11. 04. 2022,456,622,"1,217",407,"1,143",,,,,,New build,"CZK 19,000",Personal,Low-energy building,Central heating,Raised ground floor,,B,,1 to 10 years years,Standard materials and solutions,35 m²,,,,
689606,"CZK 20,000",50.08066,14.42627,"Štěpánská, Prague - Nové Město",1 bedroom,45 m²,"CZK 4,500",Furnished,1,Yes,No,Yes,No,Yes,Yes,No,01. 05. 2022,247,539,205,85,19,242,259,683,228,486,Excellent,"CZK 40,000",Personal,Brick building,Central heating,Middle floor,Interior,G,,,Standard materials and solutions,,,,,
712442,"CZK 11,900",50.12727,14.37914,"Sídlištní, Prague - Lysolaje",Studio,41 m²,"CZK 2,950",Partially furnished,2,Yes,No,No,No,Yes,Yes,No,01. 04. 2022,126,"1,314",590,803,617,"1,295",774,"1,304",577,113,Excellent,"CZK 15,000",Personal,Brick building,,,,C,,,,,,,,
713095,"CZK 11,500",50.02428,14.51511,"Ke Kateřinkám, Prague - Chodov",Studio,42 m²,"CZK 3,900",Furnished,2,No,No,Yes,No,No,Yes,No,01. 05. 2022,14,969,166,"1,452",268,216,136,524,"1,472",265,Excellent,"CZK 20,000",Personal,Prefab concrete building,,,,G,,,,,,,,
708777,"CZK 110,250",50.0909662,14.4174193,"Břehová, Prague - Josefov",5 bedroom,222 m²,"CZK 36,750",Furnished,6,Yes,Yes,No,No,No,Yes,No,21. 04. 2022,60,336,266,417,6,503,391,634,138,634,,,,,,,,,,,,,,,,
713094,"CZK 18,000",50.0992269,14.3632307,"Arabská, Prague - Vokovice",2 bedroom,53 m²,"CZK 6,000",Furnished,9,No,No,No,No,No,Yes,No,05. 06. 2022,126,352,449,240,383,460,336,130,"1,420",331,,,,,,,,,,,,,,,,
685295,"CZK 11,000",50.05645,14.44464,"Sdružení, Prague - Nusle",Studio,37 m²,CZK 607,Partially furnished,3,No,No,No,No,No,No,No,20. 10. 2021,224,"1,091",49,601,269,836,251,224,887,174,Excellent,"CZK 11,000",Personal,Brick building,,Middle floor,Overall,G,,,,,,,,
713073,"CZK 16,000",50.07784,14.49749,"Vrátkovská, Prague - Strašnice",2 bedroom,52 m²,"CZK 7,600",Partially furnished,2,No,No,Yes,No,No,No,No,01. 05. 2022,242,489,146,575,314,529,552,469,"1,195",154,Excellent,"CZK 40,000",Cooperative,Prefab concrete building,District heating,,,D,,,,,,,,
713068,"CZK 35,000",50.08278,14.46698,"Olšanská, Prague - Žižkov",2 bedroom with open-plan kitchen,95 m²,"CZK 5,700",Furnished,10,No,No,Yes,No,Yes,Yes,Yes,05. 04. 2022,204,333,457,738,437,363,634,596,440,514,New build,"CZK 50,000",Personal,Prefab concrete building,,,,B,Yes,,,,,,,
712448,"CZK 16,000",50.04115,14.56562,"Janovská, Prague - Horní Měcholupy",2 bedroom with open-plan kitchen,67 m²,"CZK 4,000",Partially furnished,2,No,No,Yes,Yes,No,Yes,No,01. 07. 2022,176,602,276,414,330,131,264,273,997,316,Good,,Personal,Prefab concrete building,,,,G,,,,,,,,
647743,"CZK 24,500",50.0814214,14.4299039,"Opletalova, Prague - Nové Město",1 bedroom with open-plan kitchen,52 m²,"CZK 3,500",,6,No,Yes,No,No,Yes,Yes,No,01. 06. 2022,322,273,32,180,43,69,245,976,163,571,Excellent,"CZK 55,000",Personal,Brick building,Central heating,Top floor,Overall,G,,,Premium materials and solutions,,,,,
713058,"CZK 9,000",50.05977,14.32688,"V Borovičkách, Prague - Stodůlky",1 bedroom with open-plan kitchen,56 m²,"CZK 4,000",Partially furnished,,No,No,No,No,No,No,No,11. 04. 2022,162,840,388,"1,477","1,077",162,,,,,Good,"CZK 13,000",Personal,Brick building,Gas boiler,Ground floor,,D,,,Standard materials and solutions,,,,,
713054,"CZK 13,400",50.09402,14.46499,"U Sluncové, Prague - Karlín",1 bedroom with open-plan kitchen,45 m²,"CZK 2,300",Partially furnished,7,No,No,No,Yes,No,Yes,No,06. 04. 2022,450,"1,455",473,961,375,928,232,647,979,410,Excellent,"CZK 12,000",Cooperative,Prefab concrete building,,,,G,,,,,,,,
587162,"CZK 14,000",50.043447,14.454778,"Pelhřimovská, Prague - Michle",Studio,57 m²,CZK 600,Partially furnished,5,No,Yes,No,No,No,No,No,01. 05. 2022,183,789,420,473,89,245,193,614,700,165,Excellent,"CZK 14,000",Personal,Brick building,Other,,,D,,,,,,,,
547560,"CZK 20,000",50.1019705,14.426384,"U Studánky, Prague - Bubeneč",1 bedroom with open-plan kitchen,40 m²,"CZK 4,000",Furnished,3,No,No,Yes,No,No,Yes,No,01. 06. 2022,253,536,18,254,136,284,164,41,406,,Excellent,"CZK 20,000",Personal,Brick building,Electric boiler,Middle floor,Overall,G,,,Premium materials and solutions,,,,,
713052,"CZK 11,400",50.04374,14.51342,"Bratislavská, Prague - Hostivař",Small studio,31 m²,"CZK 2,500",Furnished,3,Yes,No,No,No,No,Yes,No,06. 04. 2022,178,355,421,403,"1,191",556,"1,036",237,,,New build,"CZK 25,000",Personal,Prefab concrete building,,,,C,,,,,,,,
673009,"CZK 13,500",49.99559,14.47109,"Švihovská, Prague - Písnice",1 bedroom with open-plan kitchen,47 m²,"CZK 3,500",Partially furnished,2,Yes,No,No,No,Yes,No,Yes,01. 04. 2022,272,"1,265",731,"1,059","1,054",661,,,,,Excellent,"CZK 20,000",Personal,Brick building,District heating,Top floor,,A,,1 to 10 years years,Standard materials and solutions,,,,,
692679,"CZK 20,000",50.05736,14.50355,"Malinová, Prague - Záběhlice",2 bedroom with open-plan kitchen,59 m²,"CZK 5,000",Partially furnished,4,Yes,No,Yes,No,No,No,No,01. 12. 2021,198,116,421,589,295,522,439,409,719,56,Excellent,"CZK 20,000",Personal,Brick building,District heating,Top floor,Interior,C,,1 to 10 years years,Premium materials and solutions,,,,,
498863,"CZK 9,000",50.0236749,14.4397152,"Novodvorská, Prague - Braník",1 bedroom with open-plan kitchen,40 m²,"CZK 4,000",Partially furnished,2,No,No,No,No,No,Yes,No,16. 04. 2022,126,579,143,551,626,603,615,113,967,108,,"CZK 14,000",Personal,Prefab concrete building,District heating,Middle floor,Overall,,,,,,,,,
326394,"CZK 24,000",50.0781506,14.4073683,"Zborovská, Prague - Smíchov",2 bedroom with open-plan kitchen,130 m²,"CZK 6,000",Partially furnished,4,No,No,No,No,No,No,No,,220,382,201,295,102,380,263,906,726,411,,"CZK 48,000",Personal,Brick building,Gas boiler,,,,,,,,,,,
693907,"CZK 9,999",50.08737,14.46042,"Ostromečská, Prague - Žižkov",2 bedroom,52 m²,"CZK 7,999",Furnished,3,Yes,No,No,No,No,Yes,No,07. 12. 2021,50,386,148,485,177,358,375,450,277,170,Excellent,"CZK 27,999",Personal,Prefab concrete building,District heating,,,G,,,,,,,,
584586,"CZK 28,000",50.105532,14.392401,"Nikoly Tesly, Prague - Dejvice",2 bedroom,92 m²,"CZK 2,000",Furnished,4,Yes,No,No,No,No,Yes,No,01. 07. 2022,239,994,265,389,186,190,442,489,776,345,Excellent,"CZK 30,000",Personal,Brick building,Central heating,Middle floor,Overall,G,,1 to 10 years years,Standard materials and solutions,,,,,
713039,"CZK 9,500",50.09229,14.48014,"Koněvova, Prague - Žižkov",Studio,44 m²,CZK 800,Unfurnished,5,No,Yes,No,No,No,Yes,No,06. 04. 2022,94,825,43,388,14,447,314,269,382,310,Excellent,"CZK 9,800",Personal,Brick building,,,,G,,,,,,,,
666783,"CZK 26,000",50.035755,14.524528,Prague - Háje,4 bedroom,100 m²,"CZK 4,500",Partially furnished,1,Yes,No,Yes,No,Yes,Yes,No,01. 05. 2022,265,946,677,707,245,503,639,566,290,234,Excellent,"CZK 26,000",Personal,Prefab concrete building,District heating,Middle floor,Overall,B,,,Premium materials and solutions,,,,,
632492,"CZK 16,000",50.111335,14.39601,"Šestidomí, Prague - Bubeneč",1 bedroom with open-plan kitchen,45 m²,"CZK 3,500",Furnished,3,No,No,Yes,No,No,No,Yes,04. 04. 2022,181,258,998,393,773,866,558,647,331,,Excellent,"CZK 19,500",Personal,Brick building,District heating,Middle floor,Overall,G,,,Standard materials and solutions,,,,,
553703,"CZK 11,500",50.1265799,14.4350459,"Vřesová, Prague - Troja",Studio,25 m²,"CZK 2,500",Furnished,5,Yes,No,No,No,No,Yes,No,06. 04. 2022,135,685,252,"1,387",528,784,745,630,383,503,,"CZK 14,000",Personal,Prefab concrete building,District heating,Middle floor,,,Yes,1 to 10 years years,Standard materials and solutions,,,,,
616335,"CZK 50,000",50.104941,14.371193,Prague - Dejvice,4 bedroom,150 m²,"CZK 7,000",Partially furnished,1,Yes,Yes,No,No,No,No,No,01. 05. 2022,182,"1,435",159,"1,072",168,149,446,579,420,195,Excellent,"CZK 50,000",Personal,Brick building,Gas boiler,Raised ground floor,Overall,A,,,Premium materials and solutions,150 m²,,,,
658019,"CZK 16,400",50.07553,14.43414,"Jugoslávská, Prague - Vinohrady",1 bedroom with open-plan kitchen,42 m²,CZK 790,Partially furnished,4,No,No,Yes,No,No,No,No,12. 04. 2021,179,156,122,27,16,195,294,371,535,668,Excellent,"CZK 20,000",Personal,Brick building,Gas boiler,Top floor,Overall,G,,1 to 10 years years,Premium materials and solutions,,,,,
712399,"CZK 10,000",50.0257,14.43628,"Nad Lesním divadlem, Prague - Braník",Studio,28 m²,"CZK 2,013",Partially furnished,2,No,No,Yes,No,No,Yes,No,10. 04. 2022,228,270,228,241,317,296,690,373,901,378,Excellent,"CZK 10,000",Personal,Prefab concrete building,,,,G,,,,,,,,
713032,"CZK 14,000",50.10102,14.42628,"Veletržní, Prague - Bubeneč",1 bedroom with open-plan kitchen,42 m²,"CZK 1,000",Partially furnished,,No,No,Yes,No,No,Yes,No,07. 04. 2022,251,309,119,188,72,50,302,115,497,,Excellent,"CZK 14,000",Personal,Brick building,,,,G,,,,,,,,
712211,"CZK 22,000",50.07286,14.43954,"Záhřebská, Prague - Vinohrady",2 bedroom,58 m²,CZK 450,Partially furnished,6,Yes,Yes,No,No,No,No,No,01. 05. 2022,201,358,94,578,109,482,159,401,728,541,Excellent,"CZK 22,000",Personal,Brick building,Gas boiler,,,G,,,,,,,,
551494,"CZK 13,000",50.1333894,14.3750452,"Vysokoškolská, Prague - Suchdol",1 bedroom,40 m²,"CZK 3,000",Furnished,2,No,No,No,No,No,No,No,10. 03. 2019,185,587,183,222,120,568,"1,096",577,603,211,Excellent,"CZK 16,000",Personal,Brick building,Other,Attic,Interior,C,,,Standard materials and solutions,,,,,
699009,"CZK 17,000",50.10109,14.42392,"Ovenecká, Prague - Bubeneč",Studio,31 m²,"CZK 3,200",Furnished,4,No,No,No,No,No,Yes,No,01. 05. 2022,153,201,31,125,44,158,406,275,237,,Excellent,,Personal,Brick building,,,,G,,,,,,,,
613883,"CZK 13,000",50.11935,14.461455,"Zenklova, Prague - Libeň",1 bedroom with open-plan kitchen,45 m²,CZK 800,,3,No,No,No,No,No,No,No,01. 05. 2022,139,159,174,608,271,210,849,528,"1,036",594,Excellent,"CZK 26,000",Personal,Brick building,,,,G,,,,,,,,
518153,"CZK 12,000",50.1193528,14.4614637,Prague - Libeň,2 bedroom,53 m²,CZK 800,Unfurnished,-1,No,No,No,No,No,No,No,01. 06. 2022,139,159,174,608,272,210,849,528,"1,037",595,,"CZK 20,000",Personal,Brick building,,,,,,,,,,,,
712727,"CZK 20,000",50.05563,14.42088,"Podolská, Prague - Podolí",1 bedroom with open-plan kitchen,50 m²,"CZK 4,000",Partially furnished,,No,No,Yes,No,No,No,No,04. 04. 2022,238,486,271,285,309,483,254,835,279,151,Excellent,"CZK 40,000",Personal,Brick building,,,,G,,,,,,,,
213488,"CZK 15,000",50.0686763,14.3091212,"Žufanova, Prague - Řepy",1 bedroom with open-plan kitchen,72 m²,"CZK 4,500",Furnished,1,No,No,No,Yes,No,No,No,01. 06. 2022,227,598,447,816,474,336,342,438,"1,207",51,,"CZK 20,000",Other,Prefab concrete building,,,,,,,,,,,,
328663,"CZK 14,000",50.071252,14.464839,"Na Míčánkách, Prague - Vršovice",1 bedroom,42 m²,"CZK 1,500",Partially furnished,2,No,No,No,No,No,No,No,01. 05. 2022,2,708,126,624,266,585,373,276,760,245,,"CZK 14,000",Personal,Brick building,Electric boiler,,Interior,,,,,,,,,
707326,"CZK 48,000",50.0718291,14.4385892,"Americká, Prague - Vinohrady",3 bedroom,72 m²,"CZK 16,000",Furnished,5,No,No,No,No,No,Yes,No,16. 05. 2022,274,300,81,587,69,312,103,253,793,568,,,,,,,,,,,,,,,,
709041,"CZK 74,850",50.090911,14.4295366,"Soukenická, Prague - Nové Město",2 bedroom with open-plan kitchen,90 m²,"CZK 24,950",Furnished,4,Yes,Yes,No,No,No,Yes,Yes,12. 05. 2022,144,325,176,152,60,230,49,259,388,439,,,,,,,,,,,,,,,,
385565,"CZK 17,200",50.1242673,14.503465,"Měšická, Prague - Prosek",1 bedroom with open-plan kitchen,68 m²,"CZK 2,800",Partially furnished,1,No,Yes,No,No,No,Yes,No,,250,490,232,751,190,868,334,362,"1,492",65,New build,,Personal,Brick building,,,,A,,,,,,,,
531471,"CZK 21,000",50.096959526367,14.467719815344,"Nekvasilova, Prague - Karlín",1 bedroom with open-plan kitchen,57 m²,"CZK 3,900",Partially furnished,5,Yes,No,No,No,No,No,No,01. 10. 2018,279,"1,043",216,989,290,777,560,515,748,157,New build,"CZK 21,000",Personal,Low-energy building,,,,B,Yes,,,,,,,
545954,"CZK 17,800",50.0929923,14.5636808,Prague - Hostavice,1 bedroom with open-plan kitchen,62 m²,"CZK 6,500",Partially furnished,2,Yes,No,Yes,No,Yes,Yes,Yes,01. 06. 2022,299,"1,492",825,"1,107",247,,,,,,Excellent,"CZK 50,600",Personal,Brick building,,,,,,,,,,,,
712997,"CZK 11,500",50.11286,14.47262,"Primátorská, Prague - Libeň",1 bedroom,40 m²,"CZK 2,400",Furnished,1,No,No,No,No,Yes,No,No,20. 04. 2022,215,"1,304",143,892,186,461,273,"1,238",538,89,Good,"CZK 11,500",Personal,Brick building,,,,G,,,,,,,,
712995,"CZK 17,000",50.09048,14.4696,"Koněvova, Prague - Žižkov",2 bedroom with open-plan kitchen,69 m²,"CZK 3,600",Partially furnished,6,Yes,No,No,No,No,Yes,No,05. 04. 2022,41,885,69,200,41,172,482,436,589,477,Good,"CZK 20,000",Personal,Brick building,Central heating,Top floor,Interior,G,,,Standard materials and solutions,,,,,
184951,"CZK 23,000",50.0416085,14.4283705,"U družstva Práce, Prague - Braník",3 bedroom,100 m²,"CZK 5,000",Unfurnished,2,No,No,No,Yes,No,No,No,01. 05. 2022,326,"1,141",338,980,237,"1,204",939,470,666,427,Good,,Personal,Brick building,Gas boiler,Middle floor,,,,,,,,,,
432359,"CZK 18,000",50.0696377,14.4876275,"Gutova, Prague - Strašnice",2 bedroom,55 m²,"CZK 2,000",Partially furnished,2,No,No,No,No,No,No,No,03. 04. 2022,159,934,615,686,150,372,433,790,396,327,,"CZK 20,000",Personal,Brick building,,,,A,,,,,,,,
698894,"CZK 15,000",50.012400271582,14.401224848854,"Vrátnická, Prague - Modřany",Studio,42 m²,"CZK 3,100",Partially furnished,,No,Yes,Yes,No,No,Yes,No,21. 03. 2022,117,991,328,"1,235",653,"1,296","1,298",575,,,New build,"CZK 20,000",Personal,Low-energy building,Central heating,Ground floor,,B,Yes,,Premium materials and solutions,20 m²,,,,
707325,"CZK 44,973",50.1025661,14.4522431,"Na Maninách, Prague - Holešovice",1 bedroom with open-plan kitchen,69 m²,"CZK 14,991",Furnished,6,Yes,Yes,No,No,No,Yes,No,09. 04. 2022,105,350,144,146,109,151,432,394,290,329,,,,,,,,,,,,,,,,
712986,"CZK 16,000",50.05311,14.33451,"Nárožní, Prague - Stodůlky",1 bedroom with open-plan kitchen,53 m²,"CZK 4,000",Partially furnished,4,Yes,No,Yes,No,No,Yes,No,05. 04. 2022,326,689,159,654,642,209,622,604,946,558,New build,"CZK 20,000",Personal,Brick building,,,,C,,,,,,,,
712988,"CZK 41,250",50.0643299,14.4102127,"Strakonická, Prague - Smíchov",2 bedroom,50 m²,"CZK 13,750",Furnished,-1,No,No,No,No,No,No,No,19. 04. 2022,211,382,250,989,170,745,812,"1,050",387,543,,,,,,,,,,,,,,,,
711305,"CZK 32,250",50.0717643,14.4385436,"Americká, Prague - Vinohrady",Studio,27 m²,"CZK 10,750",Furnished,4,No,No,No,No,No,Yes,No,16. 05. 2022,272,322,70,607,60,509,83,250,792,565,,,,,,,,,,,,,,,,
712987,"CZK 41,250",50.0643299,14.4102127,"Strakonická, Prague - Smíchov",2 bedroom,50 m²,"CZK 13,750",Furnished,-1,No,No,No,No,No,Yes,No,17. 04. 2022,211,382,250,989,170,745,812,"1,050",387,543,,,,,,,,,,,,,,,,
21516,"CZK 11,900",50.0694717,14.3743535,"Na Zámyšli, Prague - Košíře",Studio,29 m²,"CZK 1,200",Partially furnished,3,No,No,No,No,No,No,No,15. 04. 2022,236,169,275,250,175,357,472,882,803,245,,"CZK 15,000",Other,Brick building,Other,,,,,,Standard materials and solutions,,,,,
712978,"CZK 11,500",50.07602,14.33295,"Bělohorská, Prague - Břevnov",Studio,40 m²,"CZK 2,000",Partially furnished,1,No,No,No,No,No,Yes,No,01. 05. 2022,26,556,383,651,330,"1,494",168,,,,New build,"CZK 11,500",Personal,Brick building,,,,A,,,,,,,,
587796,"CZK 28,500",50.013689,14.400643,"Pískařská, Prague - Modřany",1 bedroom with open-plan kitchen,95 m²,"CZK 4,000",Furnished,1,Yes,Yes,No,No,No,Yes,Yes,01. 05. 2022,196,"1,129",313,"1,425",843,"1,434","1,179",765,,,New build,"CZK 32,500",Personal,Brick building,Central heating,Middle floor,,C,,1 to 10 years years,Premium materials and solutions,,,,,
603343,"CZK 45,000",50.085203,14.428022,"Nekázanka, Prague - Nové Město",Other,114 m²,"CZK 5,000",Furnished,5,No,No,No,No,No,Yes,No,01. 05. 2022,232,136,116,213,140,227,297,701,403,667,Excellent,"CZK 50,000",Personal,Brick building,Central heating,Top floor,Overall,G,,30 to 50 years years,Premium materials and solutions,,,,,
169558,"CZK 12,000",50.0847006,14.5116856,"Malešické náměstí, Prague - Malešice",1 bedroom,60 m²,"CZK 4,000",Partially furnished,1,No,No,No,No,No,No,No,,83,936,377,955,220,465,817,793,312,189,,,Personal,Brick building,,,,,,,,,,,,
712698,"CZK 32,175",50.0643299,14.4102127,"Strakonická, Prague - Smíchov",Studio,30 m²,"CZK 10,725",Furnished,3,No,No,No,No,No,Yes,No,27. 04. 2022,211,382,250,989,170,745,812,"1,050",387,543,,,,,,,,,,,,,,,,
708290,"CZK 20,000",50.07264,14.3888,"Holečkova, Prague - Smíchov",3 bedroom,84 m²,"CZK 5,000",Partially furnished,3,No,No,No,No,No,No,No,01. 05. 2022,205,"1,222",188,961,230,"1,108",467,760,"1,277",223,Excellent,"CZK 20,000",Personal,Brick building,,,,B,,,,,,,,
494972,"CZK 22,000",50.0886626,14.4840047,"Olgy Havlové, Prague - Žižkov",2 bedroom with open-plan kitchen,74 m²,"CZK 6,300",Unfurnished,2,Yes,No,No,No,No,No,No,01. 05. 2022,389,818,431,631,145,673,498,365,363,121,,,Personal,Brick building,,,,B,,,,,,,,
712962,"CZK 20,000",50.06434,14.3123,"Nevanova, Prague - Řepy",4 bedroom,100 m²,"CZK 5,000",Partially furnished,1,No,No,Yes,Yes,No,No,No,11. 04. 2022,311,505,402,572,613,678,374,496,"1,328",319,Good,"CZK 40,000",Personal,Prefab concrete building,District heating,Middle floor,,,,,,,,,,
342199,"CZK 11,800",50.0584062,14.4233332,Prague - Podolí,Studio,33 m²,"CZK 2,200",Partially furnished,3,No,No,No,No,Yes,Yes,Yes,01. 05. 2022,197,274,211,252,137,251,271,506,365,255,New build,"CZK 23,600",Personal,Other,Central heating,Middle floor,Overall,C,Yes,1 to 10 years years,Premium materials and solutions,,,,,
547868,"CZK 22,000",50.0862258,14.4593371,Prague - Žižkov,1 bedroom with open-plan kitchen,62 m²,"CZK 2,200",Partially furnished,3,No,No,Yes,No,No,Yes,No,01. 06. 2022,186,307,58,537,346,280,213,249,381,105,,"CZK 40,000",Personal,Brick building,Gas boiler,Middle floor,,,Yes,,Premium materials and solutions,,,,,
624813,"CZK 17,000",50.088739,14.459929,"Koněvova, Prague - Žižkov",1 bedroom with open-plan kitchen,45 m²,"CZK 3,500",Furnished,3,No,No,Yes,No,No,Yes,Yes,01. 05. 2022,69,391,237,352,57,326,454,624,141,458,New build,"CZK 34,000",Personal,Brick building,Central heating,Middle floor,,A,Yes,1 to 10 years years,Premium materials and solutions,,,,,
354702,"CZK 16,500",50.0887467765,14.4096580943,"U lužického semináře, Prague - Malá Strana",1 bedroom with open-plan kitchen,45 m²,"CZK 1,000",Partially furnished,2,No,Yes,No,No,No,No,No,01. 06. 2022,307,449,122,428,10,727,485,332,967,185,Excellent,"CZK 35,000",Personal,Brick building,Gas boiler,Middle floor,Overall,G,,,Standard materials and solutions,,,,,
712607,"CZK 57,000",50.0859057,14.4200254,"Michalská, Prague - Staré Město",3 bedroom,130 m²,"CZK 19,000",Furnished,3,No,No,No,No,No,No,Yes,01. 06. 2022,314,347,72,145,13,210,197,621,445,403,,,,,,,,,,,,,,,,
712186,"CZK 30,000",50.0771423,14.417396,"Na Zbořenci, Prague - Nové Město",1 bedroom,35 m²,"CZK 10,000",Furnished,1,No,No,No,No,No,No,No,29. 05. 2022,127,382,112,188,72,409,281,298,590,484,,,,,,,,,,,,,,,,
708822,"CZK 38,625",50.0895308,14.4237131,"Masná, Prague - Staré Město",1 bedroom,38 m²,"CZK 12,875",Furnished,4,No,No,No,No,No,Yes,No,09. 05. 2022,69,269,125,89,15,106,70,52,156,144,,,,,,,,,,,,,,,,
712609,"CZK 22,950",50.0719498,14.4319499,"Koubkova, Prague - Nové Město",1 bedroom,39 m²,"CZK 7,650",Furnished,2,No,No,No,No,No,Yes,No,01. 06. 2022,203,332,57,333,25,268,328,262,694,682,,,,,,,,,,,,,,,,
712603,"CZK 36,338",50.0183023,14.5625656,"Ibišková, Prague - Křeslice",4 bedroom with open-plan kitchen,180 m²,"CZK 12,112",Furnished,1,Yes,Yes,No,No,No,No,Yes,01. 06. 2022,695,843,921,,,,,,,,,,,,,,,,,,,,,,,
712606,"CZK 27,900",50.0471114,14.4429584,"Krchlebská, Prague - Krč",1 bedroom with open-plan kitchen,41 m²,"CZK 9,300",Furnished,5,No,No,No,No,No,No,No,01. 06. 2022,394,499,253,432,280,389,317,725,696,412,,,,,,,,,,,,,,,,
712605,"CZK 25,459",50.0720218,14.4618189,"Bulharská, Prague - Vršovice",1 bedroom with open-plan kitchen,54 m²,"CZK 8,486",Furnished,5,No,No,No,No,No,No,No,01. 06. 2022,222,829,176,605,99,603,417,336,724,245,,,,,,,,,,,,,,,,
708790,"CZK 49,650",50.0894663,14.4240032,"Masná, Prague - Staré Město",Studio,46 m²,"CZK 16,550",Furnished,6,No,No,No,No,No,Yes,No,12. 04. 2022,62,263,122,95,13,113,64,46,150,138,,,,,,,,,,,,,,,,
712597,"CZK 17,213",50.0529811,14.5019574,"Práčská   f, Prague - Záběhlice",1 bedroom,40 m²,"CZK 5,737",Furnished,4,Yes,Yes,No,No,No,Yes,Yes,01. 06. 2022,117,763,781,"1,230",239,789,727,207,"1,037",659,,,,,,,,,,,,,,,,
712182,"CZK 18,500",50.09333,14.44922,"Sokolovská, Prague - Karlín",1 bedroom with open-plan kitchen,54 m²,,Furnished,5,No,No,Yes,No,No,Yes,No,01. 05. 2022,102,101,146,164,17,266,443,"1,402",421,147,Excellent,"CZK 18,500",Cooperative,Brick building,Central heating,,,G,,,,,,,,
712043,"CZK 33,675",50.0749602,14.4305105,"Legerova, Prague - Vinohrady",1 bedroom,30 m²,"CZK 11,225",Furnished,2,No,No,No,No,No,Yes,No,04. 05. 2022,22,463,81,96,72,158,361,436,384,451,,,,,,,,,,,,,,,,
375504,"CZK 16,600",50.0678382,14.3706854,Prague - Košíře,1 bedroom with open-plan kitchen,58 m²,"CZK 2,773",Partially furnished,2,No,No,No,No,Yes,Yes,No,21. 05. 2022,348,583,98,393,284,341,406,"1,061",433,249,Excellent,"CZK 16,600",Personal,Brick building,,Middle floor,,,,1 to 10 years years,,,,,,
709921,"CZK 32,175",50.0643299,14.4102127,"Strakonická, Prague - Smíchov",Studio,30 m²,"CZK 10,725",Furnished,3,No,No,No,No,No,Yes,No,18. 04. 2022,211,382,250,989,170,745,812,"1,050",387,543,,,,,,,,,,,,,,,,
708760,"CZK 46,103",50.0840648,14.4187033,"Jilská, Prague - Staré Město",1 bedroom with open-plan kitchen,53 m²,"CZK 15,367",Furnished,3,No,No,No,No,No,Yes,No,02. 05. 2022,298,541,99,261,14,253,193,593,251,217,,,,,,,,,,,,,,,,
661279,"CZK 7,700",49.98329,14.36373,"Zbynická, Prague - Radotín",Studio,21 m²,"CZK 2,000",Unfurnished,2,No,No,No,No,No,No,No,08. 04. 2022,146,619,156,211,205,137,438,809,626,265,Good,"CZK 9,700",Personal,Brick building,,,,,,,,,,,,
712923,"CZK 10,500",50.04567,14.43783,"Stallichova, Prague - Krč",1 bedroom,32 m²,"CZK 3,410",Partially furnished,2,No,No,Yes,Yes,No,No,No,05. 04. 2022,144,609,218,714,399,739,179,252,249,125,Excellent,"CZK 20,000",Cooperative,Brick building,,,,G,,,,,,,,
4555,"CZK 12,000",50.0295782115,14.6062803268,"Uhříněves, Prague - Uhříněves",Studio,30 m²,"CZK 2,500",Partially furnished,1,No,No,Yes,No,Yes,No,No,06. 04. 2022,124,651,324,660,101,604,231,661,264,442,Excellent,"CZK 12,000",Personal,Brick building,Central heating,Raised ground floor,,,,10 to 30 years years,,,,,,
712918,"CZK 12,000",50.07794,14.47652,"Vinohradská, Prague - Vinohrady",Studio,32 m²,"CZK 2,300",Furnished,1,No,No,No,No,No,No,No,15. 04. 2022,10,965,32,465,31,2,720,876,154,132,Excellent,"CZK 12,000",Personal,Brick building,,,,G,,,,,,,,
578495,"CZK 17,000",50.151005,14.536383,"Vrátenská, Prague - Miškovice",1 bedroom with open-plan kitchen,52 m²,"CZK 5,500",Furnished,2,Yes,No,No,No,No,No,No,25. 04. 2022,615,"1,408",706,812,484,"1,495","1,407",943,,,New build,"CZK 34,000",Personal,Brick building,Gas boiler,Middle floor,,C,,1 to 10 years years,Standard materials and solutions,,,,,
712915,"CZK 12,500",50.0714,14.44025,"Máchova, Prague - Vinohrady",1 bedroom,41 m²,"CZK 2,500",Partially furnished,1,No,No,No,No,No,No,No,08. 04. 2022,291,490,137,748,93,652,269,188,652,460,Excellent,"CZK 15,000",Personal,Brick building,,,,G,,,,,,,,
510434,"CZK 8,700",50.0781421,14.3026439,"Pod Karlovarskou silnicí, Prague - Ruzyně",Small studio,22 m²,"CZK 2,700",Partially furnished,2,No,No,No,No,No,No,No,,262,963,691,842,,,,,,,,"CZK 10,800",Personal,Brick building,Central heating,Middle floor,,F,,,Standard materials and solutions,,,,,
707989,"CZK 20,000",50.07247,14.40411,"Štefánikova, Prague - Smíchov",1 bedroom with open-plan kitchen,66 m²,"CZK 4,500",Partially furnished,1,No,No,Yes,No,No,No,No,11. 04. 2022,73,468,151,4,31,15,550,"1,212","1,222",459,New build,"CZK 40,000",Personal,Brick building,,,,G,,,,,,,,
709919,"CZK 18,000",50.04828,14.30227,"Svitákova, Prague - Stodůlky",1 bedroom with open-plan kitchen,65 m²,"CZK 4,500",Furnished,1,No,No,No,Yes,No,Yes,No,01. 05. 2022,419,363,210,351,"1,148","1,116",743,904,84,,New build,"CZK 18,000",Personal,Brick building,,,,G,,,,,,,,
299755,"CZK 12,000",50.106866,14.502587,"Freyova, Prague - Vysočany",Small studio,33 m²,"CZK 3,000",Partially furnished,11,Yes,No,Yes,No,No,Yes,No,,419,570,412,204,72,523,405,328,647,151,,,Personal,Other,District heating,,,B,,,,,,,,
551287,"CZK 15,500",50.070071111253,14.382951626459,Prague - Košíře,1 bedroom with open-plan kitchen,53 m²,"CZK 3,000",Furnished,5,Yes,No,No,No,No,Yes,Yes,01. 04. 2022,264,583,183,763,311,870,175,727,"1,010",466,New build,"CZK 20,000",Personal,Other,Central heating,Middle floor,,,Yes,1 to 10 years years,,,,,,
588563,"CZK 19,000",50.050294,14.365574,"Butovická, Prague - Jinonice",1 bedroom with open-plan kitchen,47 m²,"CZK 3,874",Furnished,2,No,Yes,No,No,Yes,No,No,01. 07. 2022,139,715,954,"1,458",448,"1,022",232,"1,299",156,436,New build,"CZK 38,000",Personal,Other,Other,Middle floor,,B,Yes,1 to 10 years years,,,,,,
712911,"CZK 15,990",50.04725,14.32024222222,"Kettnerova, Prague - Stodůlky",1 bedroom with open-plan kitchen,46 m²,"CZK 4,189",Partially furnished,4,No,No,Yes,Yes,No,Yes,No,,198,"1,133",368,379,625,371,706,67,627,39,Excellent,"CZK 20,179",Personal,Prefab concrete building,,,,C,,,,,"CZK 20,179

                                
                                
                
i",,,
712275,"CZK 17,900",50.0948513,14.504276,"Nad Smetankou, Prague - Hrdlořezy",1 bedroom with open-plan kitchen,56 m²,"CZK 4,370",Partially furnished,2,No,Yes,Yes,No,Yes,Yes,Yes,01. 06. 2022,554,910,520,"1,455",731,567,847,884,"1,348",232,Excellent,"CZK 30,000",Personal,Brick building,,,,A,,,,,,,,
712907,"CZK 11,500",50.05362,14.54479,"Kytínská, Prague - Hostivař",Studio,34 m²,"CZK 4,300",Partially furnished,7,Yes,No,No,No,No,Yes,No,01. 05. 2022,448,717,533,544,729,755,456,622,324,,Excellent,"CZK 11,500",Personal,Brick building,,,,B,,,,,,,,
620984,"CZK 16,000",50.103043,14.51308,"Podkovářská, Prague - Vysočany",1 bedroom with open-plan kitchen,48 m²,"CZK 3,500",Furnished,6,Yes,No,Yes,No,Yes,Yes,Yes,01. 06. 2022,37,351,"1,305",864,353,687,"1,189",912,333,,Excellent,"CZK 20,000",Personal,Other,,Middle floor,Interior,,,,Premium materials and solutions,,,,,
707651,"CZK 13,500",50.12695,14.49098,"Jablonecká, Prague - Střížkov",1 bedroom with open-plan kitchen,49 m²,"CZK 4,000",Partially furnished,2,Yes,No,No,No,No,Yes,No,09. 04. 2022,183,701,364,601,216,257,696,537,752,20,Excellent,"CZK 27,000",Personal,Prefab concrete building,,,Overall,,,,,,,,,
712902,"CZK 14,990",50.13288388888,14.50686666666,"Tupolevova, Prague - Letňany",1 bedroom with open-plan kitchen,58 m²,"CZK 3,581",Partially furnished,3,Yes,No,Yes,No,No,Yes,No,,188,"1,145",308,470,487,624,402,216,307,472,New build,"CZK 18,571",Personal,Brick building,,,,B,Yes,,,,"CZK 18,571

                                
                                
                
i",,,
711098,"CZK 14,275",50.0478296,14.5599363,"Boloňská, Prague - Horní Měcholupy",1 bedroom with open-plan kitchen,45 m²,"CZK 1,949",,1,No,No,No,No,No,No,No,14. 03. 2022,348,959,491,"1,037",69,"1,104",231,238,749,85,Good,"CZK 16,224",Personal,Other,,,,,,,,,"CZK 2,341",,,
520854,"CZK 14,000",50.0382031,14.3889379,Prague - Hlubočepy,1 bedroom with open-plan kitchen,53 m²,"CZK 4,000",Partially furnished,1,Yes,No,No,No,No,No,No,01. 05. 2022,52,"1,149",940,"1,063",778,"1,094","1,024","1,021",956,632,,"CZK 5,000",Personal,Brick building,,,,C,,10 to 30 years years,,,,,,
542674,"CZK 13,000",50.0819649,14.5047324,Prague - Malešice,2 bedroom,56 m²,"CZK 3,500",Partially furnished,2,Yes,No,Yes,No,No,Yes,No,01. 05. 2022,171,446,367,403,300,401,586,521,"1,053",86,Excellent,"CZK 16,500",Cooperative,Prefab concrete building,District heating,,,G,,,,,,,,
712900,"CZK 14,500",50.04423,14.40009,"Žvahovská, Prague - Hlubočepy",1 bedroom with open-plan kitchen,56 m²,CZK 700,Partially furnished,1,No,No,Yes,No,Yes,No,No,01. 05. 2022,151,714,841,718,808,"1,202",386,,,,Excellent,,Personal,Brick building,,,,E,,,,,,,,
365812,"CZK 12,000",50.0992033,14.4269883,"Dobrovského, Prague - Holešovice",2 bedroom,38 m²,"CZK 5,000",Furnished,6,No,No,No,No,No,Yes,No,01. 05. 2022,178,405,38,125,111,313,364,"1,463",323,389,Excellent,,Personal,Brick building,Gas boiler,Middle floor,Interior,,,,Standard materials and solutions,,,,,
709327,"CZK 16,125",50.1138866,14.4798456,"U Pekařky, Prague - Libeň",Studio,30 m²,"CZK 5,375",Furnished,2,No,No,No,No,No,No,No,02. 05. 2022,185,178,"1,337",331,979,"1,134","1,351",938,317,,,,,,,,,,,,,,,,,
326108,"CZK 35,000",50.0899603,14.329462,"Naardenská, Prague - Liboc",3 bedroom with open-plan kitchen,144 m²,"CZK 7,280",Furnished,3,Yes,Yes,Yes,Yes,Yes,Yes,Yes,31. 05. 2022,315,296,"1,201",230,"1,240","1,061",179,588,23,,Excellent,CZK 3,Personal,Brick building,District heating,Middle floor,Interior,B,,1 to 10 years years,Premium materials and solutions,,,,,
712894,"CZK 18,000",50.0744,14.50464,Prague - Strašnice,1 bedroom with open-plan kitchen,76 m²,"CZK 2,000",Furnished,3,Yes,No,No,No,No,Yes,No,02. 05. 2022,225,"1,146",268,"1,059",536,955,321,714,"1,128",468,Excellent,"CZK 40,000",Personal,Other,Gas boiler,Middle floor,Overall,C,,10 to 30 years years,Premium materials and solutions,,,,,
712896,"CZK 12,990",50.12419944444,14.48515805555,"Teplická, Prague - Střížkov",1 bedroom with open-plan kitchen,41 m²,"CZK 2,290",Unfurnished,4,Yes,No,Yes,No,No,Yes,No,,123,"1,187",163,"1,125",250,459,241,204,211,152,Excellent,"CZK 15,280",Personal,Prefab concrete building,,,,G,,,,,"CZK 15,280

                                
                                
                
i",,,
70257,"CZK 17,000",50.0757383,14.440774,Prague - Vinohrady,1 bedroom with open-plan kitchen,40 m²,"CZK 1,000",Furnished,,No,No,No,No,No,No,No,01. 05. 2022,158,379,53,236,73,407,143,378,576,691,,"CZK 20,000",Personal,Brick building,,,,,,,,,,,,
709390,"CZK 109,910",50.0928722,14.4500782,"Křižíkova a, Prague - Karlín",4 bedroom with open-plan kitchen,219 m²,"CZK 36,636",Furnished,6,No,Yes,No,No,No,Yes,Yes,01. 05. 2022,123,293,167,222,66,246,411,"1,258",283,254,,,,,,,,,,,,,,,,
711334,"CZK 36,979",50.0928722,14.4500782,"Křižíkova a, Prague - Karlín",2 bedroom with open-plan kitchen,95 m²,"CZK 12,326",Furnished,3,No,Yes,No,No,No,Yes,Yes,02. 05. 2022,123,293,167,222,66,246,411,"1,258",283,254,,,,,,,,,,,,,,,,
712741,"CZK 33,000",50.0747395,14.424046,"Lípová, Prague - Nové Město",1 bedroom with open-plan kitchen,45 m²,"CZK 11,000",Furnished,5,No,No,No,No,No,No,No,02. 05. 2022,120,534,85,337,48,344,183,195,543,341,,,,,,,,,,,,,,,,
711728,"CZK 25,500",50.0876289,14.3978335,"Šporkova, Prague - Malá Strana",Studio,40 m²,"CZK 8,500",Furnished,1,No,No,No,No,No,No,No,01. 05. 2022,29,634,152,537,130,317,388,899,984,129,,,,,,,,,,,,,,,,
712244,"CZK 12,500",50.03834,14.51506,"Hekrova, Prague - Háje",1 bedroom with open-plan kitchen,42 m²,"CZK 2,300",Partially furnished,5,No,No,Yes,No,No,Yes,No,31. 03. 2022,443,"1,010",106,151,811,516,105,524,177,,Excellent,"CZK 12,500",Personal,Prefab concrete building,,,,C,,,,,,,,
117003,"CZK 12,500",50.0464088,14.3331737,"Zázvorkova, Prague - Stodůlky",1 bedroom with open-plan kitchen,45 m²,"CZK 3,500",Partially furnished,11,No,No,No,No,No,Yes,No,01. 06. 2022,365,362,267,391,264,383,639,209,391,221,,"CZK 15,000",Cooperative,Prefab concrete building,District heating,,,,,,,,,,,
692107,"CZK 20,000",50.07592,14.40553,"Arbesovo náměstí, Prague - Smíchov",Studio,28 m²,"CZK 3,200",Furnished,1,No,No,No,No,No,No,No,01. 07. 2022,77,64,152,107,11,143,97,"1,032",852,494,Excellent,"CZK 25,000",Personal,Brick building,,,,C,,,,,,,,
712876,"CZK 11,900",50.05454,14.4196,"Podolská, Prague - Podolí",Studio,24 m²,"CZK 4,500",Partially furnished,2,No,No,No,No,No,Yes,No,01. 05. 2022,220,619,96,401,134,598,382,"1,010",137,79,Excellent,"CZK 11,900",Personal,Brick building,,,,G,,,,,,,,
188676,"CZK 10,000",50.0727944,14.5477211,"Andersenova, Prague - Štěrboholy",Studio,37 m²,"CZK 5,000",Partially furnished,2,Yes,No,No,No,Yes,No,No,01. 01. 1970,459,540,505,544,486,"1,017","1,064","1,037",,,Excellent,"CZK 15,000",Personal,Brick building,Central heating,Middle floor,,,,,Standard materials and solutions,,,,,
707360,"CZK 60,289",50.0821872,14.4175604,"Národní, Prague - Staré Město",2 bedroom,,"CZK 20,096",Furnished,1,No,No,No,No,No,No,No,09. 04. 2022,198,801,15,163,39,141,121,304,55,465,,,,,,,,,,,,,,,,
700313,"CZK 16,000",50.0905,14.47422,"Biskupcova, Prague - Žižkov",1 bedroom with open-plan kitchen,45 m²,"CZK 3,000",Furnished,4,No,No,Yes,No,No,Yes,No,01. 01. 1970,169,"1,035",158,235,39,140,297,356,334,397,Excellent,"CZK 25,000",Personal,Brick building,Other,Middle floor,Overall,G,,1 to 10 years years,Standard materials and solutions,,,,,
712856,"CZK 15,000",50.0796,14.49353,"Hostýnská, Prague - Strašnice",2 bedroom,53 m²,"CZK 4,000",Partially furnished,4,No,No,Yes,Yes,No,No,No,04. 04. 2022,319,561,344,649,589,306,619,498,882,364,Excellent,"CZK 15,000",Cooperative,Prefab concrete building,District heating,Middle floor,Bathroom unit,G,,,,,,,,
712866,"CZK 24,800",50.11094,14.39438,"Podbabská, Prague - Bubeneč",2 bedroom with open-plan kitchen,87 m²,"CZK 3,500",Partially furnished,2,Yes,No,Yes,No,No,Yes,Yes,04. 04. 2022,199,"1,442",198,829,396,604,735,502,592,448,Excellent,"CZK 50,000",Personal,Brick building,,,,G,,,,,,,,
617411,"CZK 17,000",50.100593,14.488647,"Novovysočanská, Prague - Vysočany",2 bedroom,51 m²,CZK 500,Partially furnished,3,No,No,No,No,No,No,No,01. 04. 2022,9,"1,082",6,933,86,"1,250",154,209,467,248,Excellent,"CZK 35,000",Personal,Brick building,Other,Middle floor,Overall,G,,1 to 10 years years,Premium materials and solutions,,,,,
707377,"CZK 56,250",50.0766855,14.4294035,"Sokolská, Prague - Nové Město",1 bedroom with open-plan kitchen,45 m²,"CZK 18,750",Furnished,4,No,No,No,No,No,No,No,09. 04. 2022,212,525,185,151,68,162,317,392,109,262,,,,,,,,,,,,,,,,
707307,"CZK 53,550",50.090911,14.4295366,"Soukenická, Prague - Nové Město",1 bedroom with open-plan kitchen,50 m²,"CZK 17,850",Furnished,4,Yes,No,No,No,No,Yes,Yes,09. 04. 2022,144,325,176,152,60,230,49,259,388,439,,,,,,,,,,,,,,,,
52689,"CZK 12,000",50.0798736,14.4868594,"Počernická, Prague - Strašnice",Studio,36 m²,"CZK 2,215",Furnished,1,Yes,Yes,No,No,No,No,No,01. 05. 2022,133,695,208,479,369,294,718,599,359,290,,"CZK 20,000",Personal,Brick building,,,,,,,,,,,,
228019,"CZK 15,500",50.0363726,14.3282926,"Přeučilova, Prague - Stodůlky",1 bedroom with open-plan kitchen,55 m²,"CZK 2,800",Unfurnished,2,Yes,No,No,No,Yes,Yes,Yes,05. 04. 2022,414,"1,016",700,"1,094",389,967,743,866,595,139,New build,"CZK 18,300",Personal,Brick building,Central heating,Middle floor,,,,1 to 10 years years,Standard materials and solutions,,,,,
597076,"CZK 13,000",50.055288,14.441894,"Nad Studánkou, Prague - Nusle",1 bedroom with open-plan kitchen,58 m²,"CZK 3,900",Furnished,2,No,No,No,No,No,No,No,01. 04. 2020,110,"1,054",174,490,137,600,313,287,"1,006",261,,"CZK 26,000",Personal,Brick building,Gas boiler,Middle floor,,D,,,Standard materials and solutions,,,,,
596800,"CZK 11,500",50.100593,14.488647,"Novovysočanská, Prague - Vysočany",Studio,29 m²,CZK 490,Partially furnished,,No,No,Yes,No,No,No,No,01. 05. 2022,9,"1,082",6,933,86,"1,250",154,209,467,248,Excellent,"CZK 23,980",Personal,Brick building,Other,Raised ground floor,Overall,G,,1 to 10 years years,,,,,,
537538,"CZK 65,000",50.0794233,14.3794742,"Atletická, Prague - Břevnov",2 bedroom with open-plan kitchen,100 m²,"CZK 15,000",Furnished,1,Yes,Yes,Yes,No,Yes,No,Yes,01. 04. 2022,302,"1,223",778,"1,104",193,"1,214","1,134",989,377,610,,"CZK 70,000",,Other,,,,,,,Premium materials and solutions,50 m²,,,,
629592,"CZK 14,000",50.054874,14.525425,"Rychtáře Petříka, Prague - Hostivař",1 bedroom with open-plan kitchen,52 m²,"CZK 3,000",Partially furnished,3,No,No,Yes,Yes,Yes,Yes,No,01. 07. 2022,287,755,238,717,532,759,"1,182",642,491,399,New build,"CZK 28,000",Personal,Brick building,District heating,Middle floor,,B,Yes,,Standard materials and solutions,6 m²,,,,
630182,"CZK 17,500",50.055756,14.433425,"Dačického, Prague - Nusle",1 bedroom with open-plan kitchen,54 m²,"CZK 1,400",Partially furnished,2,No,No,Yes,Yes,No,Yes,No,15. 05. 2022,86,"1,182",26,252,263,280,586,312,216,97,Excellent,"CZK 17,500",Personal,Brick building,Gas boiler,Middle floor,Overall,C,,over 50 years years,Standard materials and solutions,,,,,
712844,"CZK 28,000",50.05301,14.49077,"Záběhlická, Prague - Záběhlice",2 bedroom with open-plan kitchen,130 m²,"CZK 4,800",Partially furnished,1,No,Yes,No,Yes,No,No,No,01. 07. 2022,255,"1,227",274,"1,200",287,700,476,882,518,332,Excellent,"CZK 28,000",Personal,Brick building,,,,,,,,,,,,
657178,"CZK 14,000",50.1105273,14.4507356,"Jankovcova, Prague - Holešovice",Studio,47 m²,"CZK 2,400",Partially furnished,5,No,No,No,No,Yes,Yes,No,01. 06. 2022,43,973,494,785,474,571,428,"1,247",701,348,New build,"CZK 16,000",Personal,Brick building,Central heating,Middle floor,Overall,G,Yes,1 to 10 years years,Standard materials and solutions,,,,,
670707,"CZK 25,000",50.07067,14.37649,"Plzeňská, Prague - Smíchov",1 bedroom with open-plan kitchen,67 m²,"CZK 4,000",Partially furnished,4,Yes,No,No,No,No,Yes,No,01. 05. 2022,218,64,199,439,230,546,213,620,691,325,Excellent,"CZK 40,000",Personal,Brick building,,,,B,,,,,,,,
709588,"CZK 17,000",50.044637241492,14.303398704245,Prague - Stodůlky,1 bedroom with open-plan kitchen,53 m²,"CZK 3,900",Partially furnished,2,Yes,No,No,No,Yes,No,No,16. 05. 2022,270,209,261,243,"1,040","1,137",743,903,196,,New build,"CZK 20,000",Cooperative,Brick building,,Middle floor,,G,Yes,1 to 10 years years,Standard materials and solutions,,,,,
707380,"CZK 60,000",50.0757302,14.4269087,"Ječná, Prague - Nové Město",1 bedroom with open-plan kitchen,,"CZK 20,000",Furnished,3,No,No,No,No,No,No,No,29. 05. 2022,177,647,182,40,38,122,28,102,350,194,,,,,,,,,,,,,,,,
168222,"CZK 7,000",50.0450408,14.4739278,"Severní IX, Prague - Záběhlice",Small studio,27 m²,"CZK 1,900",Furnished,1,Yes,No,No,No,No,No,No,,259,"1,134",267,221,370,"1,458",782,669,216,270,,"CZK 9,000",Personal,Brick building,,,,,,,,,,,,
496859,"CZK 18,000",50.0562016,14.3484456,Prague - Jinonice,1 bedroom with open-plan kitchen,53 m²,"CZK 3,834",Partially furnished,4,Yes,No,Yes,No,No,Yes,Yes,01. 04. 2022,305,"1,121",449,817,603,599,470,705,78,,New build,"CZK 18,000",Personal,Brick building,,,,B,Yes,,,,,,,
712080,"CZK 14,990",50.04684,14.44859,"Přímětická, Prague - Michle",1 bedroom with open-plan kitchen,41 m²,"CZK 1,637",Furnished,2,No,No,No,No,No,Yes,No,01. 06. 2022,191,585,180,225,193,267,184,801,586,282,Excellent,"CZK 30,000",Personal,Prefab concrete building,District heating,Middle floor,,G,,,,,,,,
712834,"CZK 10,000",50.11056,14.5041,"Prouzova, Prague - Vysočany",Small studio,30 m²,"CZK 3,000",Partially furnished,1,No,No,No,No,Yes,No,No,10. 04. 2022,91,311,66,207,108,271,165,494,286,262,Excellent,"CZK 20,000",Personal,Brick building,,,,G,,,,,,,,
712827,"CZK 13,900",50.01301,14.517,"Pod Vsí, Prague - Šeberov",1 bedroom with open-plan kitchen,44 m²,CZK 800,Partially furnished,2,Yes,No,Yes,No,No,No,Yes,24. 04. 2022,317,578,417,532,"1,078",354,,,,,Excellent,"CZK 27,800",Personal,Brick building,,,,G,,,,,,,,
712831,"CZK 14,500",50.07631,14.64919,"Račiněveská, Prague - Újezd nad Lesy",1 bedroom with open-plan kitchen,38 m²,"CZK 2,700",Partially furnished,1,Yes,No,No,No,Yes,No,No,01. 05. 2022,455,497,201,"1,008",267,408,675,864,697,,Excellent,"CZK 29,000",Personal,Brick building,Gas boiler,Middle floor,Interior,G,,1 to 10 years years,,,,,,
545164,"CZK 12,500",50.1105294,14.4507429,Prague - Holešovice,Studio,22 m²,"CZK 2,000",Furnished,2,No,No,No,No,No,Yes,No,01. 05. 2022,42,972,494,784,474,571,428,"1,247",701,348,New build,"CZK 12,500",Personal,Brick building,Central heating,Middle floor,,,Yes,1 to 10 years years,Premium materials and solutions,,,,,
639768,"CZK 14,900",50.105523,14.477794,"Pod Kotlaskou, Prague - Libeň",2 bedroom,77 m²,"CZK 3,293",Furnished,3,No,No,Yes,No,No,Yes,No,05. 07. 2021,169,438,221,438,118,390,487,194,461,156,Excellent,"CZK 19,000",Personal,Brick building,Electric boiler,Middle floor,Overall,G,,,,,,,,
576216,"CZK 31,000",50.0737075,14.4374755,"Uruguayská, Prague - Vinohrady",3 bedroom,104 m²,CZK 900,Partially furnished,1,Yes,No,No,No,No,Yes,No,04. 04. 2022,193,394,107,354,76,271,273,479,833,674,Excellent,"CZK 31,000",Personal,Brick building,Electric boiler,Middle floor,Overall,G,,,Premium materials and solutions,,,,,
530111,"CZK 15,000",50.0069043,14.4296917,"Vitošská, Prague - Modřany",3 bedroom,75 m²,"CZK 3,500",Partially furnished,5,No,No,Yes,Yes,Yes,Yes,No,11. 04. 2022,82,973,349,962,210,"1,046",512,194,478,87,,"CZK 30,000",Personal,Prefab concrete building,District heating,,,D,,,,,,,,
707297,"CZK 39,600",50.0876118,14.4080467,"Míšeňská, Prague - Malá Strana",1 bedroom with open-plan kitchen,46 m²,"CZK 13,200",Furnished,2,No,No,No,No,No,No,No,23. 04. 2022,249,259,109,237,65,537,295,274,806,231,,,,,,,,,,,,,,,,
539704,"CZK 22,000",50.0671146,14.5037186,Prague - Strašnice,2 bedroom,75 m²,"CZK 3,000",Partially furnished,1,Yes,Yes,No,No,No,No,No,01. 03. 2022,259,"1,403",423,"1,079",297,527,337,330,"1,102",173,,"CZK 44,000",Personal,Brick building,,,,E,,,,,,,,
661945,"CZK 20,950",50.06164,14.36178,"Naskové, Prague - Košíře",1 bedroom with open-plan kitchen,54 m²,"CZK 3,950",Partially furnished,5,Yes,Yes,Yes,No,Yes,Yes,Yes,16. 01. 2022,449,"1,154","1,147",965,"1,241",791,422,"1,082",653,,New build,"CZK 39,990",Personal,Brick building,,,,A,Yes,1 to 10 years years,,,,,,
707249,"CZK 51,225",50.090911,14.4295366,"Soukenická, Prague - Nové Město",1 bedroom with open-plan kitchen,50 m²,"CZK 17,075",Furnished,4,No,No,No,No,No,Yes,Yes,11. 04. 2022,144,325,176,152,60,230,49,259,388,439,,,,,,,,,,,,,,,,
710179,"CZK 47,025",50.0865843,14.4323212,"Dlážděná, Prague - Nové Město",1 bedroom with open-plan kitchen,64 m²,"CZK 15,675",Furnished,3,Yes,Yes,No,No,No,Yes,No,11. 05. 2022,110,274,157,129,77,143,300,496,282,367,,,,,,,,,,,,,,,,
244227,"CZK 7,000",50.0888925,14.4603288,"Koněvova, Prague - Žižkov",Small studio,27 m²,"CZK 2,000",Unfurnished,,No,No,No,No,No,No,No,04. 04. 2022,37,424,269,320,25,358,486,656,174,472,New build,"CZK 9,000",Personal,Brick building,Central heating,Ground floor,Overall,,Yes,1 to 10 years years,Standard materials and solutions,,,,,
709824,"CZK 39,971",50.0877117,14.4091678,"U Lužického semináře, Prague - Malá Strana",2 bedroom,56 m²,"CZK 13,324",Furnished,1,No,Yes,No,No,No,No,No,20. 05. 2022,337,356,19,335,43,634,392,362,865,215,,,,,,,,,,,,,,,,
712190,"CZK 10,300",50.09779,14.36641,"Kladenská, Prague - Vokovice",Small studio,20 m²,"CZK 1,900",Furnished,1,No,No,No,No,No,No,No,31. 03. 2022,469,373,470,378,43,249,762,600,911,94,Excellent,"CZK 12,200",Personal,Brick building,,,,,,,,,,,,
704205,"CZK 22,000",50.01239,14.40096,"Vrátnická, Prague - Modřany",1 bedroom with open-plan kitchen,60 m²,"CZK 3,100",Partially furnished,3,Yes,No,Yes,Yes,No,Yes,Yes,01. 04. 2022,426,"1,386",854,"1,481",703,"1,184","1,052","1,135",638,379,New build,"CZK 30,000",Personal,Low-energy building,Central heating,Middle floor,,B,,1 to 10 years years,,,,,,
494316,"CZK 8,500",50.1256878,14.4467673,"Přemyšlenská, Prague - Kobylisy",Studio,23 m²,"CZK 4,000",Furnished,,No,No,No,No,No,No,No,,171,"1,320",218,478,160,225,503,298,847,323,,CZK 1,Personal,Brick building,,Ground floor,,,,,,,,,,
712781,"CZK 16,500",50.03681,14.50131,"Benkova, Prague - Chodov",3 bedroom,68 m²,"CZK 2,500",Furnished,6,Yes,No,Yes,No,No,Yes,No,01. 06. 2022,222,461,587,"1,208",404,648,345,345,331,331,Excellent,"CZK 16,500",Personal,Prefab concrete building,,,,G,,,,,,,,
712777,"CZK 15,000",50.05797,14.32921,"Kejhova, Prague - Stodůlky",Studio,69 m²,"CZK 4,200",Furnished,1,No,Yes,No,No,Yes,Yes,No,01. 05. 2022,162,604,720,"1,264","1,241",841,180,,,,Excellent,"CZK 30,000",Personal,Prefab concrete building,,,,C,,,,,,,,
712778,"CZK 30,000",50.07667,14.35035,"Nad Motolskou nemocnicí, Prague - Břevnov",2 bedroom with open-plan kitchen,120 m²,"CZK 5,000",Partially furnished,3,No,Yes,Yes,No,Yes,No,Yes,04. 04. 2022,325,968,"1,401",611,829,"1,088","1,138","1,303",542,,New build,"CZK 27,000",Personal,Brick building,,,,G,,,,,,,,
588993,"CZK 25,349",50.0776403,14.4264665,"Ve Smečkách, Prague - Nové Město",2 bedroom,96 m²,"CZK 3,000",Partially furnished,2,No,No,No,No,No,Yes,Yes,01. 05. 2022,58,717,48,249,118,148,273,391,191,297,Excellent,"CZK 25,000",Personal,Brick building,Gas boiler,Middle floor,Overall,G,,1 to 10 years years,Premium materials and solutions,,,,,
712773,"CZK 14,000",50.0758546,14.5096395,"Třebohostická, Prague - Strašnice",1 bedroom with open-plan kitchen,39 m²,"CZK 3,100",Partially furnished,4,No,No,Yes,Yes,Yes,Yes,No,,381,"1,009",720,"1,141",405,990,791,957,718,,New build,"CZK 17,000",Personal,Brick building,District heating,Top floor,,B,,1 to 10 years years,,,,,,
712772,"CZK 14,000",50.10188,14.28815,"U letiště, Prague - Ruzyně",2 bedroom,60 m²,"CZK 3,000",Partially furnished,1,No,No,No,No,No,No,No,04. 04. 2022,136,704,898,"1,119",,,,,,,Excellent,"CZK 20,000",Personal,Brick building,,,,G,,,,,,,,
393876,"CZK 13,629",50.0190107,14.4377634,Prague - Kamýk,Studio,42 m²,"CZK 1,371",Furnished,4,No,No,No,No,No,No,No,01. 05. 2022,230,875,180,868,398,548,307,732,413,470,Excellent,"CZK 20,000",Personal,Brick building,,,,,,,,,,,,
22233,"CZK 9,000",50.115324,14.466482,"Bulovka P8 Liben, Prague - Libeň",Small studio,18 m²,"CZK 2,000",Furnished,2,No,No,No,No,No,No,No,01. 05. 2022,127,972,140,"1,393",12,195,119,"1,249","1,012",337,Good,"CZK 15,000",Personal,Brick building,Central heating,Middle floor,Interior,,,,Standard materials and solutions,,,,,
694325,"CZK 7,200",50.1018824,14.2881497,"U letiště, Prague - Ruzyně",Small studio,12 m²,CZK 800,Furnished,1,No,No,No,No,No,No,No,01. 12. 2021,136,704,898,"1,119",,,,,,,Excellent,"CZK 10,000",Personal,Brick building,,,,G,,,,,,,,
696066,"CZK 15,000",50.07027,14.40493,"Nádražní, Prague - Smíchov",1 bedroom with open-plan kitchen,44 m²,"CZK 2,900",Partially furnished,5,No,No,No,No,No,Yes,No,04. 04. 2022,89,569,28,167,0,101,552,"1,042","1,020",600,Good,"CZK 15,000",Personal,Brick building,District heating,Middle floor,,E,,,,,,,,
712770,"CZK 11,600",50.05818,14.28119,"Milotická, Prague - Zličín",Studio,30 m²,"CZK 2,800",Furnished,1,No,Yes,No,No,No,No,Yes,07. 04. 2022,408,871,944,874,923,998,345,"1,220",122,,New build,"CZK 20,000",Personal,Brick building,,,,C,,,,,,,,
712768,"CZK 12,000",50.10941,14.31908,"Sichrovského, Prague - Nebušice",1 bedroom with open-plan kitchen,55 m²,"CZK 4,500",Partially furnished,,No,No,No,No,No,No,No,04. 04. 2022,402,710,754,390,"1,064","1,100",624,,,,Excellent,"CZK 24,000",Personal,Other,,,,B,,,,,,,,
540588,"CZK 15,500",50.1008556,14.5281271,"Nademlejnská, Prague - Hloubětín",1 bedroom with open-plan kitchen,57 m²,"CZK 5,500",Furnished,2,No,Yes,Yes,No,No,Yes,No,01. 05. 2022,234,906,351,888,100,834,904,953,770,478,,"CZK 40,000",Personal,Other,,,,,,,,,,,,
712765,"CZK 15,500",50.01533,14.43272,"Seidlova, Prague - Kamýk",2 bedroom,66 m²,"CZK 3,100",Partially furnished,2,No,No,Yes,No,Yes,Yes,No,04. 04. 2022,383,"1,300",460,"1,292",730,451,122,556,745,287,Excellent,"CZK 20,000",Personal,Prefab concrete building,,,,G,,,,,,,,
222383,"CZK 24,000",50.0792487,14.4494301,Prague - Vinohrady,2 bedroom,104 m²,"CZK 3,000",Partially furnished,5,No,No,Yes,Yes,No,Yes,No,01. 05. 2022,271,335,101,334,95,363,204,204,554,231,Excellent,"CZK 23,000",Personal,Brick building,Electric boiler,Middle floor,Overall,,,1 to 10 years years,Standard materials and solutions,,,,,
712756,"CZK 16,000",50.04246,14.4442,"Kremličkova, Prague - Krč",2 bedroom,67 m²,"CZK 8,600",Unfurnished,2,No,No,Yes,No,No,No,No,01. 05. 2022,325,336,187,460,217,264,365,196,849,384,Good,"CZK 65,000",Cooperative,Brick building,,,,F,,,,,,,,
410422,"CZK 12,000",50.0714391,14.484256,"V Olšinách, Prague - Vršovice",1 bedroom,44 m²,"CZK 1,000",Partially furnished,4,No,Yes,No,No,No,No,No,04. 04. 2022,292,590,212,389,316,420,637,476,786,375,,CZK 20,Personal,Brick building,,Top floor,,C,,,,,,,,
712745,"CZK 20,000",50.01912,14.40123,"Šífařská, Prague - Hodkovičky",1 bedroom with open-plan kitchen,77 m²,"CZK 4,000",Furnished,4,No,Yes,Yes,No,No,Yes,Yes,01. 06. 2022,458,543,"1,446",669,"1,397",,,,,,New build,"CZK 24,000",Personal,Brick building,,,,B,,,,,,,,
712754,"CZK 20,000",50.12094,14.4904,"Veltruská, Prague - Prosek",2 bedroom with open-plan kitchen,61 m²,"CZK 5,500",Furnished,1,No,No,No,Yes,Yes,Yes,No,01. 05. 2022,346,675,41,614,582,292,312,236,526,149,Excellent,"CZK 50,000",Personal,Prefab concrete building,,,,C,,,,,,,,
379854,"CZK 11,000",50.0443978,14.5658065,"Na křečku, Prague - Horní Měcholupy",Studio,33 m²,"CZK 3,500",Partially furnished,4,Yes,No,No,No,No,No,No,11. 04. 2022,65,792,637,749,429,227,603,484,904,281,New build,"CZK 22,000",Personal,Brick building,District heating,Middle floor,,C,Yes,1 to 10 years years,,,,,,
645848,"CZK 19,000",50.121135,14.463286,"Na Okrouhlíku, Prague - Libeň",3 bedroom,71 m²,"CZK 3,900",Furnished,2,Yes,No,No,No,No,No,No,01. 05. 2022,373,344,395,681,492,430,559,227,660,301,Excellent,"CZK 22,900",Personal,Brick building,Gas boiler,Middle floor,Overall,C,,,Standard materials and solutions,,,,,
712751,"CZK 23,000",50.08737,14.34416,"Brunclíkova, Prague - Břevnov",2 bedroom,57 m²,"CZK 4,500",Partially furnished,6,No,No,Yes,No,No,No,No,05. 04. 2022,139,487,135,200,183,218,300,184,704,68,Excellent,"CZK 30,000",Personal,Prefab concrete building,District heating,Middle floor,Interior,E,,10 to 30 years years,Standard materials and solutions,,,,,
443559,"CZK 17,000",50.0675078,14.4582497,"Minská, Prague - Vršovice",1 bedroom with open-plan kitchen,65 m²,CZK 800,Furnished,1,No,No,Yes,No,No,No,No,17. 11. 2020,80,465,161,199,83,296,387,462,484,304,Excellent,"CZK 18,000",Personal,Brick building,Gas boiler,,,,,,,,,,,
668168,"CZK 7,800",50.12657,14.56602,"K Lindě, Prague - Satalice",Small studio,16 m²,"CZK 2,000",Furnished,1,No,No,No,No,No,No,No,01. 05. 2022,115,698,677,2,"1,402",790,815,667,763,,New build,"CZK 8,000",Personal,Brick building,,,,G,,,,,,,,
496356,"CZK 28,000",50.0896186,14.4324025,"Havlíčkova, Prague - Nové Město",2 bedroom with open-plan kitchen,164 m²,"CZK 3,000",Furnished,4,No,No,No,No,No,No,No,01. 07. 2022,212,199,123,98,33,92,321,131,259,513,,"CZK 31,000",Personal,Brick building,Gas boiler,Attic,,G,,,,,,,,
649051,"CZK 11,000",50.126573,14.566015,"K Lindě, Prague - Satalice",1 bedroom with open-plan kitchen,54 m²,"CZK 4,000",Furnished,2,No,No,No,No,Yes,No,No,04. 04. 2022,115,699,678,2,"1,402",790,815,667,763,,Excellent,"CZK 11,000",Personal,Brick building,,,,G,,,,,,,,
699045,"CZK 16,000",50.04112,14.56669,"Hornoměcholupská, Prague - Horní Měcholupy",1 bedroom with open-plan kitchen,45 m²,"CZK 4,000",Furnished,5,Yes,No,No,No,Yes,Yes,Yes,24. 01. 2022,82,709,316,521,441,224,371,380,"1,105",307,New build,"CZK 40,000",Personal,Brick building,,,,A,,1 to 10 years years,,,,,,
487772,"CZK 12,500",50.0597823,14.4948404,"Slívová, Prague - Záběhlice",1 bedroom with open-plan kitchen,47 m²,"CZK 4,000",Furnished,3,Yes,No,No,Yes,No,No,No,08. 04. 2022,213,752,264,892,632,418,548,918,381,264,,"CZK 16,000",Cooperative,Prefab concrete building,,,,,,,,,,,,
541309,"CZK 14,990",50.1155148,14.5655166,"Federova, Prague - Kyje",1 bedroom with open-plan kitchen,47 m²,"CZK 3,200",Partially furnished,2,Yes,No,No,No,Yes,Yes,Yes,30. 04. 2022,353,993,768,"1,362","1,242",780,,,,,New build,,Personal,Brick building,Central heating,Middle floor,,A,Yes,1 to 10 years years,Premium materials and solutions,,,,,
712743,"CZK 11,500",50.10449,14.4784,"Novákových, Prague - Libeň",1 bedroom with open-plan kitchen,35 m²,"CZK 1,750",Partially furnished,,No,No,No,No,No,No,No,01. 06. 2022,69,285,111,311,7,237,333,461,213,358,Excellent,"CZK 11,500",Personal,Brick building,,,,A,,,,,,,,
425445,"CZK 11,500",50.0582532,14.44353,"Na Jezerce, Prague - Nusle",Small studio,22 m²,"CZK 2,000",Furnished,1,No,No,No,No,No,No,No,01. 12. 2021,96,"1,112",343,721,186,792,491,465,675,180,Excellent,"CZK 13,500",Personal,Brick building,,,Overall,,,1 to 10 years years,,,,,,
511878,"CZK 24,000",50.0772731,14.4545539,"Vinohradská, Prague - Vinohrady",3 bedroom,104 m²,"CZK 5,000",Furnished,2,Yes,No,No,No,No,Yes,No,,207,217,10,27,71,369,212,536,997,339,,"CZK 24,000",Personal,Brick building,,,,,,,,,,,,
712736,"CZK 13,500",50.04537,14.51573,"Přeštická, Prague - Hostivař",1 bedroom with open-plan kitchen,62 m²,"CZK 3,700",Unfurnished,5,No,No,No,Yes,Yes,Yes,No,01. 05. 2022,264,289,263,252,962,300,"1,332",160,,,Excellent,"CZK 27,000",Personal,Brick building,,,,G,,,,,,,,
712729,"CZK 16,200",50.03251,14.60945,"K Netlukám, Prague - Uhříněves",1 bedroom with open-plan kitchen,58 m²,"CZK 4,700",Partially furnished,1,No,Yes,Yes,No,Yes,Yes,Yes,30. 04. 2022,175,"1,088",254,"1,096",595,"1,041",613,"1,116",758,357,Excellent,"CZK 40,000",Personal,Prefab concrete building,Central heating,Ground floor,,G,,10 to 30 years years,Standard materials and solutions,24 m²,,,,
712721,"CZK 36,000",50.07289,14.39336,"Grafická, Prague - Smíchov",2 bedroom with open-plan kitchen,83 m²,"CZK 7,200",Furnished,2,Yes,No,Yes,No,Yes,Yes,Yes,04. 04. 2022,86,928,26,619,47,746,105,930,957,229,New build,"CZK 43,000",Personal,Brick building,District heating,Top floor,,G,,1 to 10 years years,Premium materials and solutions,,,,,
712718,"CZK 17,000",50.0670831,14.362062,Prague - Košíře,2 bedroom with open-plan kitchen,67 m²,"CZK 4,500",Partially furnished,3,Yes,No,Yes,No,Yes,Yes,Yes,31. 05. 2022,134,"1,188",701,844,84,737,559,715,108,501,Excellent,"CZK 17,000",Personal,Brick building,,,,E,,,,,,,,
712089,"CZK 17,500",50.0775838,14.4184595,"Odborů, Prague - Nové Město",2 bedroom,81 m²,"CZK 1,900",Partially furnished,4,No,No,No,No,No,No,No,05. 04. 2022,73,348,60,86,70,316,227,312,536,491,Excellent,"CZK 17,500",Personal,Brick building,,,,C,,,,,,,,
712078,"CZK 12,000",50.10195,14.56331,"Cukrova, Prague - Černý Most",Small studio,35 m²,"CZK 3,000",Partially furnished,1,No,Yes,No,No,Yes,Yes,No,01. 05. 2022,155,654,422,939,719,628,297,872,98,,New build,"CZK 30,000",Personal,Low-energy building,,,,G,,,,,,,,
413854,"CZK 13,000",50.0652691,14.5053347,"Na Padesátém, Prague - Strašnice",1 bedroom with open-plan kitchen,57 m²,"CZK 8,200",,4,No,No,Yes,No,No,No,No,03. 04. 2022,99,"1,101",484,776,320,535,595,575,746,424,Excellent,"CZK 13,000",Personal,Prefab concrete building,District heating,Top floor,,C,,,Standard materials and solutions,,,,,
711694,"CZK 14,900",50.06918,14.43767,"Perucká, Prague - Vinohrady",Studio,46 m²,"CZK 2,980",Furnished,3,No,Yes,Yes,No,No,Yes,No,01. 04. 2022,699,818,597,886,615,859,685,606,752,906,New build,"CZK 20,000",Personal,Prefab concrete building,Central heating,,Overall,C,Yes,1 to 10 years years,Premium materials and solutions,,,,,
517158,"CZK 30,000",50.101426,14.3708397,Prague - Dejvice,3 bedroom,85 m²,"CZK 6,000",Unfurnished,3,Yes,No,No,Yes,No,No,No,13. 04. 2022,295,930,440,566,439,345,742,855,774,312,,"CZK 60,000",Personal,Brick building,Gas boiler,Attic,,G,,,,,,,,
680915,"CZK 28,500",50.09174,14.44246,"Prvního pluku, Prague - Karlín",1 bedroom with open-plan kitchen,60 m²,"CZK 3,500",Furnished,1,No,Yes,Yes,No,Yes,No,No,10. 04. 2022,208,408,151,207,58,181,363,930,293,284,Excellent,"CZK 32,000",Personal,Brick building,,,,G,,,,,,,,
704234,"CZK 20,000",50.09782,14.36655,"Kladenská, Prague - Vokovice",1 bedroom with open-plan kitchen,50 m²,"CZK 3,000",Partially furnished,3,No,No,Yes,No,No,No,No,01. 04. 2022,459,383,480,389,33,259,773,611,901,105,Excellent,"CZK 40,000",Personal,Brick building,Gas boiler,Middle floor,Overall,G,,,Premium materials and solutions,,,,,
613033,"CZK 25,500",50.129146,14.494609,"Makedonská, Prague - Střížkov",1 bedroom with open-plan kitchen,60 m²,"CZK 3,500",Furnished,3,Yes,No,No,No,No,Yes,Yes,01. 05. 2022,254,937,122,862,499,374,436,313,"1,081",232,New build,"CZK 29,000",Personal,Prefab concrete building,Central heating,Middle floor,Overall,G,,10 to 30 years years,Premium materials and solutions,,,,,
642288,"CZK 21,000",50.087518,14.402865,"Malostranské náměstí, Prague - Malá Strana",1 bedroom,31 m²,"CZK 3,000",Furnished,1,No,No,No,No,Yes,No,No,01. 05. 2022,99,223,61,126,22,188,156,493,579,503,Excellent,"CZK 24,000",Personal,Brick building,Gas boiler,Middle floor,Interior,G,,over 50 years years,Standard materials and solutions,,,,,
650271,"CZK 12,500",50.072818,14.46364,Prague - Vršovice,1 bedroom with open-plan kitchen,45 m²,"CZK 1,000",Partially furnished,1,No,No,No,No,No,Yes,No,01. 05. 2022,247,817,312,744,316,692,507,392,544,154,Excellent,"CZK 15,000",Personal,Brick building,,,,C,,,,,,,,
181837,"CZK 22,500",50.1015738,14.4253932,Prague - Bubeneč,2 bedroom,75 m²,"CZK 3,500",Partially furnished,1,No,No,No,No,No,No,No,01. 05. 2022,293,346,89,276,196,87,262,128,417,,Excellent,"CZK 22,500",Personal,Brick building,Gas boiler,Middle floor,Interior,,,1 to 10 years years,Premium materials and solutions,,,,,
712057,"CZK 16,500",50.02426,14.52633,"Loosova, Prague - Háje",1 bedroom with open-plan kitchen,50 m²,"CZK 3,600",Partially furnished,3,Yes,No,Yes,No,No,Yes,Yes,30. 03. 2022,514,"1,282",576,977,362,838,360,777,"1,073",198,New build,"CZK 33,000",Personal,Brick building,District heating,Middle floor,,B,,1 to 10 years years,Standard materials and solutions,,,,,
577787,"CZK 24,000",50.0724568,14.3936394,"Plzenska, Prague - Smíchov",2 bedroom with open-plan kitchen,63 m²,"CZK 3,000",Furnished,3,No,No,No,No,No,Yes,No,30. 03. 2020,42,872,179,563,167,692,172,998,907,294,Excellent,,Personal,Brick building,Central heating,Middle floor,Overall,C,,1 to 10 years years,Premium materials and solutions,,,,,
685735,"CZK 14,500",50.08873,14.48156,"Olgy Havlové, Prague - Žižkov",Studio,37 m²,"CZK 3,000",Partially furnished,6,Yes,No,Yes,Yes,Yes,Yes,No,29. 09. 2021,323,965,512,725,322,768,592,376,453,347,New build,"CZK 25,000",Personal,Brick building,,,,B,,,,,,,,
536721,"CZK 13,000",50.0292388,14.5304752,"Mnichovická, Prague - Háje",1 bedroom with open-plan kitchen,44 m²,"CZK 2,100",Unfurnished,4,No,No,No,No,No,Yes,No,ihned,187,483,147,166,275,337,407,301,397,260,,"CZK 26,000",Personal,Prefab concrete building,District heating,Middle floor,Overall,,,10 to 30 years years,Standard materials and solutions,,,,,
661555,"CZK 7,772",50.05717,14.49623,"Jabloňová, Prague - Záběhlice",1 bedroom,27 m²,"CZK 3,848",Partially furnished,10,No,No,No,No,No,Yes,No,01. 05. 2022,134,561,148,865,325,73,241,684,272,210,Good,"CZK 8,000",Personal,Prefab concrete building,,,,G,,,,,,,,
594688,"CZK 11,500",50.114363,14.47082,"Zenklova, Prague - Libeň",1 bedroom,36 m²,CZK 300,Partially furnished,2,No,No,No,No,No,No,No,01. 04. 2022,136,"1,122",114,"1,187",173,414,280,"1,350",833,324,Excellent,"CZK 22,996",Personal,Brick building,,,,D,,,,,,,,
584668,"CZK 10,700",50.046155,14.48968,"Svojšovická, Prague - Záběhlice",Studio,28 m²,"CZK 3,300",Furnished,4,No,No,Yes,No,Yes,Yes,No,12. 08. 2021,175,298,407,344,298,450,770,"1,338",363,,Excellent,"CZK 14,000",Personal,Brick building,District heating,Middle floor,Interior,G,,30 to 50 years years,Standard materials and solutions,,,,,
