Listing ID,Price,Latitude,Longitude,District,Layout,Floor Space,Fees,Furnishing and Fittings,Floor,Balcony,Terrace,Cellar,Loggia,Parking,Lift,Garage,Available from,Public transport stop,Post office,Shop,Bank,Restaurant,Pharmacy,School,Kindergarten,Sports field,Playground,Condition,Refundable security deposit,Ownership Type,Building Type,New building,Age,Heating,Total number of floors,PENB,Design,Renovation,Front garden,Developer name,Project name,Kód jednotky,Administration fee,Investment Advisor
717704,"CZK 37,500",50.0822245,14.4146349,"Krocínova, Prague - Staré Město",2 bedroom with open-plan kitchen,102 m²,"CZK 12,500",Furnished,2,Yes,Yes,No,No,No,Yes,No,17. 06. 2022,258,962,181,204,1,145,392,348,304,385,,,,,,,,,,,,,,,,,
717679,"CZK 30,956",50.0726658,14.3919787,"Grafická, Prague - Smíchov",1 bedroom with open-plan kitchen,46 m²,"CZK 10,318",Furnished,2,No,No,No,No,No,Yes,No,01. 07. 2022,185,"1,028",126,719,138,845,205,903,"1,057",128,,,,,,,,,,,,,,,,,
717606,"CZK 21,019",50.1033901,14.4020568,"U Zeměpisného ústavu, Prague - Bubeneč",Studio,28 m²,"CZK 7,006",Furnished,1,No,No,No,No,No,No,No,02. 07. 2022,192,792,137,285,93,475,243,337,508,82,,,,,,,,,,,,,,,,,
718686,"CZK 60,244",50.0906989,14.4202425,"Dušní, Prague - Josefov",3 bedroom,97 m²,"CZK 20,081",Furnished,3,Yes,No,No,No,No,No,No,15. 07. 2022,103,449,207,253,71,270,138,381,247,455,,,,,,,,,,,,,,,,,
718685,"CZK 53,550",50.090911,14.4295366,"Soukenická, Prague - Nové Město",1 bedroom with open-plan kitchen,50 m²,"CZK 17,850",Furnished,4,Yes,No,No,No,No,Yes,Yes,15. 07. 2022,144,325,176,152,60,230,49,259,388,439,,,,,,,,,,,,,,,,,
611162,"CZK 16,000",50.030212,14.364044,"Kováříkova, Prague - Hlubočepy",1 bedroom with open-plan kitchen,53 m²,"CZK 3,800",Partially furnished,2,No,Yes,No,No,No,Yes,No,01. 06. 2022,380,"1,101",366,"1,082",244,"1,143",471,586,796,326,Excellent,"CZK 16,000",Personal,Brick building,Yes,1 to 10 years years,District heating,Middle floor,D,,,,,,,,
718683,"CZK 53,190",50.0894663,14.4240032,"Masná, Prague - Staré Město",Studio,65 m²,"CZK 17,730",Furnished,6,Yes,Yes,No,No,No,Yes,No,15. 07. 2022,62,263,122,95,13,113,64,46,150,138,,,,,,,,,,,,,,,,,
667423,"CZK 14,000",50.1323324,14.3677799,Prague - Suchdol,1 bedroom with open-plan kitchen,40 m²,"CZK 2,000",Furnished,1,No,No,No,No,Yes,Yes,No,01. 06. 2022,124,"1,148",634,783,681,"1,130","1,176","1,138","1,164",133,Excellent,"CZK 28,000",Personal,Brick building,,,,,A,,,,,,,,
184845,"CZK 16,500",50.1472098,14.5321309,"Rýnská, Prague - Čakovice",1 bedroom with open-plan kitchen,67 m²,"CZK 3,100",Partially furnished,3,Yes,No,Yes,No,Yes,Yes,Yes,01. 07. 2022,149,"1,196",589,823,530,"1,257",772,713,,,New build,"CZK 20,000",Personal,Brick building,Yes,1 to 10 years years,Central heating,Middle floor,B,Standard materials and solutions,,,,,,,
385690,"CZK 16,000",50.0444069,14.5181806,Prague - Hostivař,1 bedroom with open-plan kitchen,52 m²,"CZK 5,500",Furnished,5,Yes,No,Yes,No,Yes,Yes,Yes,01. 06. 2022,113,28,"1,492",75,86,872,252,966,178,,,"CZK 25,000",Personal,Brick building,,10 to 30 years years,District heating,Middle floor,B,,,,,,,,
530313,"CZK 12,500",50.05242745,14.315713639552,"Chalabalova, Prague - Stodůlky",1 bedroom with open-plan kitchen,35 m²,"CZK 3,500",Partially furnished,,No,No,No,No,No,No,No,22. 05. 2022,343,990,850,892,815,793,672,673,623,86,Excellent,"CZK 20,000",Personal,Prefab concrete building,,,Central heating,Ground floor,G,Standard materials and solutions,Interior,,,,,,
648837,"CZK 10,900",50.066802,14.367999,"Dubrovnická, Prague - Košíře",1 bedroom,30 m²,"CZK 3,000",Partially furnished,4,No,No,Yes,No,Yes,Yes,No,01. 06. 2022,523,867,344,676,530,587,557,"1,051",423,504,Excellent,"CZK 13,000",Cooperative,Prefab concrete building,,,,,F,,,,,,,,
719247,"CZK 16,300",50.12412,14.44052,"Písečná, Prague - Troja",2 bedroom,40 m²,"CZK 3,600",Unfurnished,3,No,No,No,No,No,No,No,21. 05. 2022,284,"1,322",69,920,301,251,424,295,380,160,Excellent,,Personal,Prefab concrete building,,,,,G,,,,,,,,
718076,"CZK 19,500",50.07623,14.48954,"Starostrašnická, Prague - Strašnice",2 bedroom with open-plan kitchen,63 m²,"CZK 3,000",Partially furnished,1,Yes,No,No,No,No,Yes,No,01. 06. 2022,48,306,17,69,74,215,212,667,729,257,Excellent,"CZK 39,000",Personal,Brick building,,,Gas boiler,Middle floor,E,,Overall,,,,,,
711643,"CZK 24,500",50.1010194,14.4039856,"Dr. Zikmunda Wintra, Prague - Bubeneč",2 bedroom,77 m²,"CZK 1,500",Unfurnished,5,No,No,No,No,No,No,No,Ihned,212,796,195,522,181,453,386,649,412,364,Excellent,"CZK 45,000",Personal,Brick building,,,,,G,Standard materials and solutions,,,,,,,
155706,"CZK 17,500",50.0846857,14.4473613,Prague - Žižkov,1 bedroom with open-plan kitchen,52 m²,"CZK 3,500",Partially furnished,3,Yes,No,Yes,No,No,Yes,No,01. 09. 2020,210,206,12,233,26,227,145,48,306,527,,"CZK 25,000",Personal,Brick building,,,,,,,,,,,,,
719238,"CZK 15,000",50.10415,14.53457,"Hloubětínská, Prague - Hloubětín",1 bedroom with open-plan kitchen,55 m²,"CZK 4,000",Partially furnished,,No,No,No,No,No,No,No,25. 05. 2022,175,469,431,450,335,130,173,446,199,267,Good,"CZK 19,000",Personal,Brick building,,,,,G,,,,,,,,
719231,"CZK 20,000",50.07172,14.43395,"Šafaříkova, Prague - Vinohrady",1 bedroom with open-plan kitchen,44 m²,"CZK 1,500",Partially furnished,3,No,No,No,No,No,Yes,No,01. 06. 2022,126,248,82,257,35,330,266,178,746,829,Excellent,"CZK 35,000",Personal,Brick building,,,,,G,,,,,,,,
436864,"CZK 26,500",50.0708474,14.4421603,"Šmilovského, Prague - Vinohrady",2 bedroom with open-plan kitchen,110 m²,"CZK 1,000",Furnished,1,No,No,No,No,No,Yes,No,01. 07. 2022,387,596,166,834,124,800,440,109,584,265,,"CZK 25,500",Personal,Brick building,,,,,D,,,,,,,,
719229,"CZK 24,000",50.14237,14.57582,"Českodubská, Prague - Vinoř",3 bedroom with open-plan kitchen,93 m²,"CZK 6,000",Partially furnished,1,Yes,No,No,No,Yes,Yes,No,01. 06. 2022,324,465,929,396,912,808,624,474,133,,Excellent,"CZK 50,000",Personal,Brick building,,10 to 30 years years,District heating,Middle floor,D,Standard materials and solutions,,,,,,,
719228,"CZK 15,624",50.03254,14.52555,"Anežky Malé, Prague - Háje",1 bedroom with open-plan kitchen,42 m²,"CZK 2,356",Partially furnished,2,No,No,No,No,No,No,No,01. 06. 2022,215,658,316,349,140,205,257,311,277,149,Good,"CZK 30,000",Personal,Prefab concrete building,,,,,B,,,,,,,,
454993,"CZK 14,000",50.0462954,14.4431616,"Za Zelenou liškou, Prague - Krč",1 bedroom with open-plan kitchen,50 m²,"CZK 2,000",Partially furnished,2,No,No,Yes,No,No,No,No,,315,480,146,303,120,260,235,545,654,284,Excellent,"CZK 28,000",Personal,Brick building,,,Gas boiler,Middle floor,B,Standard materials and solutions,Interior,,,,,,
25538,"CZK 10,000",50.12683,14.46463,"Kyselova, Prague - Kobylisy",Small studio,25 m²,"CZK 4,500",Partially furnished,11,No,No,No,No,Yes,Yes,No,25. 05. 2022,269,510,258,278,243,472,163,205,823,210,Excellent,"CZK 14,500",Personal,Prefab concrete building,,30 to 50 years years,District heating,Middle floor,A,Standard materials and solutions,Interior,,,,,,
719222,"CZK 18,000",50.0460324,14.3076886,"Klementova, Prague - Stodůlky",1 bedroom with open-plan kitchen,62 m²,"CZK 3,800",Furnished,6,No,No,Yes,Yes,Yes,Yes,Yes,30. 05. 2022,64,198,268,"1,279",192,713,810,416,576,351,New build,"CZK 43,600",Cooperative,Brick building,,,,,A,,,,,,,,
719070,"CZK 17,000",50.05672,14.44692,"U Družstva Život, Prague - Nusle",1 bedroom with open-plan kitchen,59 m²,"CZK 2,500",Unfurnished,2,No,No,Yes,No,No,No,No,22. 06. 2022,404,915,104,425,276,"1,003",305,222,885,264,Excellent,"CZK 17,000",Personal,Brick building,,,,,G,,,,,,,,
719210,"CZK 9,500",50.0692301,14.4167304,"Na Výtoni, Prague - Nové Město",Small studio,26 m²,"CZK 2,600",,4,No,No,No,No,No,No,No,19. 05. 2022,260,839,97,297,47,256,150,189,204,162,,"CZK 12,000",Personal,Brick building,,,,,G,,,,,,,,
718635,"CZK 39,000",50.0739894,14.440101,"Francouzská, Prague - Vinohrady",2 bedroom,80 m²,"CZK 13,000",Furnished,3,No,No,No,No,No,Yes,No,06. 06. 2022,149,274,60,441,20,421,59,552,690,457,,,,,,,,,,,,,,,,,
716039,"CZK 23,000",50.09876,14.40049,"Jaselská, Prague - Bubeneč",3 bedroom,73 m²,"CZK 10,000",Unfurnished,,No,No,No,No,No,No,No,01. 05. 2022,265,383,113,66,65,280,189,750,443,27,Excellent,"CZK 33,000",Personal,Brick building,,,Electric boiler,Ground floor,C,,Overall,,,,,,
454800,"CZK 18,500",50.0773435,14.4009876,"Holečkova, Prague - Smíchov",2 bedroom with open-plan kitchen,83 m²,CZK 800,Partially furnished,2,No,No,No,No,No,No,No,01. 06. 2022,188,514,319,533,229,506,480,942,762,354,,"CZK 30,000",Personal,Brick building,,,,,,,,,,,,,
575119,"CZK 12,400",49.9952142,14.4690521,"Švihovská, Prague - Písnice",Studio,31 m²,"CZK 2,500",Furnished,3,Yes,No,No,No,Yes,No,No,01. 06. 2022,113,"1,177",573,971,966,543,,,,,,"CZK 15,000",Personal,Brick building,,,,,,,,,,,,,
664545,"CZK 12,900",50.10117,14.36018,"Tobrucká, Prague - Vokovice",Studio,35 m²,"CZK 3,000",Furnished,5,No,No,No,No,No,Yes,No,01. 06. 2022,523,733,612,593,503,623,437,344,"1,218",113,Excellent,"CZK 15,900",Personal,Prefab concrete building,,10 to 30 years years,,Middle floor,G,,Interior,,,,,,
719203,"CZK 21,000",50.1021,14.42169,"Šmeralova, Prague - Bubeneč",1 bedroom with open-plan kitchen,56 m²,"CZK 4,000",Partially furnished,4,No,No,Yes,No,No,No,No,01. 07. 2022,396,397,364,337,86,482,347,526,325,,Good,"CZK 42,000",Personal,Brick building,,,,,G,,,,,,,,
719202,"CZK 26,250",50.0723918,14.4059555,"Lidická, Prague - Smíchov",1 bedroom with open-plan kitchen,46 m²,"CZK 8,750",Furnished,3,No,No,No,No,No,No,No,01. 06. 2022,100,437,82,124,1,340,531,"1,038","1,232",691,,,,,,,,,,,,,,,,,
609192,"CZK 13,500",50.027439,14.609663,Prague - Uhříněves,1 bedroom with open-plan kitchen,55 m²,"CZK 4,364",Furnished,1,No,No,No,No,No,No,Yes,01. 01. 1970,146,"1,222",867,"1,231",766,"1,175",856,590,603,682,New build,"CZK 30,000",Personal,Brick building,,1 to 10 years years,Central heating,Middle floor,A,Premium materials and solutions,,,,,,,
719121,"CZK 9,500",50.0555956,14.4406954,"Na Veselí, Prague - Nusle",Studio,30 m²,"CZK 2,500",Partially furnished,1,Yes,No,Yes,No,No,Yes,No,01. 07. 2022,89,"1,117",242,606,60,478,436,295,652,211,Good,"CZK 12,000",Personal,Brick building,,,District heating,,E,,,,,,,,
719200,"CZK 13,000",50.07275,14.50122,"Oravská, Prague - Strašnice",2 bedroom,55 m²,"CZK 4,050",Partially furnished,1,No,No,Yes,No,No,No,No,01. 06. 2022,117,"1,027",244,817,434,801,330,601,748,187,Excellent,"CZK 30,000",Cooperative,Brick building,,,Central heating,Middle floor,G,Standard materials and solutions,Overall,,,,,,
415092,"CZK 15,000",50.0852733,14.5625575,Prague - Hostavice,1 bedroom with open-plan kitchen,51 m²,"CZK 4,100",Partially furnished,2,Yes,No,Yes,No,Yes,Yes,Yes,01. 06. 2022,319,352,552,214,,,,,,,Excellent,"CZK 20,000",Personal,Brick building,,1 to 10 years years,Central heating,Middle floor,,Standard materials and solutions,,,,,,,
418810,"CZK 12,000",50.0711036,14.4445816,"Kozácká 1, Prague - Vršovice",Small studio,18 m²,"CZK 1,600",Furnished,,No,No,Yes,No,No,No,No,23. 05. 2022,292,535,41,643,85,609,531,296,468,74,Good,"CZK 24,000",Personal,Brick building,,1 to 10 years years,Central heating,Ground floor,G,Standard materials and solutions,Interior,30 m²,,,,,
603553,"CZK 23,000",50.077784,14.486476,"Vinohradská, Prague - Strašnice",2 bedroom with open-plan kitchen,77 m²,"CZK 5,000",Furnished,13,No,No,No,Yes,No,Yes,No,01. 08. 2022,119,604,251,271,156,204,584,944,721,245,Excellent,"CZK 28,000",Personal,Prefab concrete building,,1 to 10 years years,Central heating,,C,Premium materials and solutions,Overall,,,,,,
647743,"CZK 24,000",50.0814214,14.4299039,"Opletalova, Prague - Nové Město",1 bedroom with open-plan kitchen,52 m²,"CZK 3,900",,6,No,Yes,No,No,Yes,Yes,No,31. 05. 2022,322,273,32,180,43,69,245,976,163,571,Excellent,,Personal,Brick building,,,Central heating,Top floor,G,Premium materials and solutions,Overall,,,,,,
719191,"CZK 15,641",50.103702121876,14.51986776637,"U Elektry, Prague - Hloubětín",1 bedroom with open-plan kitchen,57 m²,"CZK 2,750",Unfurnished,4,No,No,No,Yes,Yes,Yes,Yes,25. 05. 2022,65,"1,412",300,"1,394",742,309,"1,140","1,369",917,431,New build,"CZK 31,282",Personal,Low-energy building,,,,,B,,,,,,,,
719188,"CZK 18,000",50.0951749,14.5092549,"Mezilehlá, Prague - Hrdlořezy",1 bedroom with open-plan kitchen,59 m²,"CZK 4,500",Furnished,2,Yes,No,Yes,No,No,Yes,Yes,01. 06. 2022,203,514,668,478,976,743,"1,293","1,106",276,,New build,"CZK 50,000",Personal,Brick building,,,District heating,,B,,,,,,,,
719187,"CZK 14,980",50.10552,14.44651,"Osadní, Prague - Holešovice",2 bedroom,56 m²,"CZK 1,100",Partially furnished,1,No,Yes,No,No,Yes,Yes,No,19. 05. 2022,242,247,91,260,122,115,448,600,316,401,Excellent,"CZK 30,000",Personal,Brick building,,,,,A,,,,,,,,
695122,"CZK 14,000",50.14774165,14.4489425,"Bolebořská, Prague - Dolní Chabry",2 bedroom,63 m²,"CZK 5,130",Unfurnished,2,No,No,Yes,No,Yes,No,No,28. 04. 2022,159,299,405,368,359,822,757,631,,,Excellent,"CZK 18,000",Cooperative,Brick building,,,,,G,,,,,,,,
658173,"CZK 23,000",50.06501,14.42681,"Nezamyslova, Prague - Nusle",2 bedroom,62 m²,"CZK 3,000",Furnished,4,Yes,No,Yes,No,No,No,No,01. 05. 2021,94,614,41,419,31,340,594,654,472,249,Excellent,"CZK 23,000",Personal,Brick building,,,Electric boiler,Top floor,,,Overall,,,,,,
719182,"CZK 10,600",50.05991,14.39984,"Pod Kesnerkou, Prague - Smíchov",1 bedroom,35 m²,"CZK 5,400",Partially furnished,2,No,No,No,No,No,No,No,20. 05. 2022,315,"1,019",342,"1,040",335,498,716,855,777,620,Excellent,"CZK 16,000",Personal,Brick building,,,,,C,,,,,,,,
718550,"CZK 18,000",50.08032,14.42395,"Vodičkova, Prague - Nové Město",2 bedroom,44 m²,CZK 500,Partially furnished,3,No,No,No,No,No,No,No,14. 05. 2022,81,592,124,39,5,72,76,697,363,331,Excellent,"CZK 36,000",Personal,Brick building,,,,,B,,,,,,,,
686568,"CZK 21,900",50.07386,14.41527,"Gorazdova, Prague - Nové Město",Studio,26 m²,"CZK 3,000",Furnished,2,No,No,No,No,No,Yes,No,01. 06. 2022,105,431,45,391,67,341,472,466,787,541,New build,"CZK 44,000",Personal,Brick building,,,,,E,,,,,,,,
646212,"CZK 18,000",50.129171,14.493311,"Makedonská, Prague - Střížkov",1 bedroom with open-plan kitchen,54 m²,"CZK 3,800",Furnished,2,Yes,No,No,No,Yes,Yes,Yes,20. 05. 2022,202,971,48,896,476,322,470,347,"1,029",97,New build,"CZK 25,000",Personal,Brick building,Yes,1 to 10 years years,Central heating,Middle floor,B,Standard materials and solutions,,,,,,,
719176,"CZK 29,664",50.0925119,14.4502616,"Křižíkova, Prague - Karlín",Studio,51 m²,"CZK 9,888",Furnished,5,Yes,No,No,No,No,Yes,Yes,09. 06. 2022,81,251,125,181,24,205,369,"1,216",241,212,,,,,,,,,,,,,,,,,
719175,"CZK 41,250",50.0643299,14.4102127,"Strakonická, Prague - Smíchov",2 bedroom,50 m²,"CZK 13,750",Furnished,-1,No,No,No,No,No,Yes,No,29. 05. 2022,211,382,250,989,170,745,812,"1,050",387,543,,,,,,,,,,,,,,,,,
719166,"CZK 18,000",50.05232,14.5144,"Mattioliho, Prague - Záběhlice",1 bedroom with open-plan kitchen,58 m²,"CZK 4,000",Furnished,1,No,No,Yes,No,Yes,Yes,Yes,20. 05. 2022,390,420,409,368,169,416,982,"1,145",594,327,New build,"CZK 25,000",Personal,Brick building,,1 to 10 years years,Central heating,Middle floor,B,Standard materials and solutions,,,,,,,
719174,"CZK 22,700",50.07711,14.44353,"Vinohradská, Prague - Vinohrady",3 bedroom,106 m²,"CZK 7,000",Unfurnished,3,No,No,No,No,No,No,No,19. 05. 2022,135,401,121,310,11,31,410,91,283,390,Good,"CZK 29,700",Personal,Brick building,,,,,G,,,,,,,,
719169,"CZK 14,000",50.06782,14.45545,"Žitomírská, Prague - Vršovice",1 bedroom with open-plan kitchen,50 m²,"CZK 1,500",Unfurnished,1,No,No,No,No,No,No,No,19. 05. 2022,155,94,125,165,53,156,238,400,191,419,Good,"CZK 15,500",Personal,Brick building,,,,,G,,,,,,,,
719164,"CZK 6,000",50.02323,14.57816,"V Pitkovičkách, Prague - Pitkovice",Other,20 m²,CZK 1,Furnished,1,No,No,No,No,Yes,No,No,15. 06. 2022,48,"1,476","1,222",139,,,,,,,New build,"CZK 6,000",Other,Brick building,,,,,C,,,,,,,,
718649,"CZK 16,000",50.10641,14.45274,"U Uranie, Prague - Holešovice",1 bedroom,54 m²,"CZK 2,000",Furnished,3,No,No,Yes,No,No,Yes,No,01. 06. 2022,261,594,82,406,39,359,385,857,177,126,Excellent,"CZK 16,000",Personal,Brick building,,,Other,Middle floor,G,Standard materials and solutions,,,,,,,
718087,"CZK 20,000",50.07264,14.3888,"Holečkova, Prague - Smíchov",3 bedroom,84 m²,"CZK 5,900",Partially furnished,3,No,No,No,No,No,No,No,15. 06. 2022,205,"1,222",188,961,230,"1,108",467,760,"1,277",223,Excellent,"CZK 20,000",Personal,Brick building,,,,,B,,,,,,,,
707660,"CZK 65,000",50.07423,14.44409,"Šumavská, Prague - Vinohrady",4 bedroom,164 m²,"CZK 4,900",Furnished,4,No,No,Yes,No,No,Yes,No,28. 02. 2022,142,108,94,612,75,377,285,257,475,229,Excellent,,Personal,Brick building,,,,,B,,,,,,,,
223403,"CZK 15,900",50.1331108,14.4861759,"Roudnická, Prague - Střížkov",1 bedroom with open-plan kitchen,45 m²,"CZK 2,970",Furnished,4,Yes,No,Yes,No,No,No,No,20. 05. 2022,574,822,443,815,518,917,"1,422",168,,,Good,CZK 2,Personal,Prefab concrete building,,,District heating,Middle floor,C,Premium materials and solutions,Overall,,,,,,
273191,"CZK 20,000",50.0534654,14.3358042,"Nárožní, Prague - Stodůlky",1 bedroom with open-plan kitchen,66 m²,"CZK 5,000",Furnished,2,Yes,Yes,Yes,Yes,Yes,Yes,Yes,01. 07. 2022,154,704,278,669,657,337,636,481,645,448,,"CZK 27,000",Personal,Brick building,Yes,1 to 10 years years,,,,Premium materials and solutions,,,,,,,
573663,"CZK 19,900",50.0899503,14.3420175,"Na Okraji, Prague - Veleslavín",1 bedroom with open-plan kitchen,65 m²,"CZK 3,900",Partially furnished,4,Yes,No,Yes,No,No,Yes,No,11. 04. 2022,188,582,118,232,196,272,254,118,913,245,New build,"CZK 30,000",Personal,Brick building,Yes,1 to 10 years years,Central heating,Top floor,C,Premium materials and solutions,,,,,,,
684383,"CZK 20,000",50.04595,14.32223,"Mukařovského, Prague - Stodůlky",1 bedroom with open-plan kitchen,50 m²,CZK 133,Unfurnished,11,No,Yes,Yes,No,Yes,Yes,No,07. 06. 2022,,,,,,,,,,,Excellent,"CZK 40,000",Personal,Other,Yes,1 to 10 years years,,Middle floor,A,Premium materials and solutions,,,Luka Residential s.r.o.,Luka Living Rental apartments,1105,,
714255,"CZK 19,000",50.07202,14.44518,"Francouzská, Prague - Vinohrady",Studio,40 m²,CZK 133,Unfurnished,1,No,Yes,No,No,No,No,No,12. 05. 2022,,,,,,,,,,,Excellent,"CZK 38,000",Personal,Brick building,Yes,,,,A,,,,Luka Residential s.r.o.,Luka Living Rental apartments,F003,,
715898,"CZK 26,000",50.07245,14.39363,"Plzeňská, Prague - Smíchov",1 bedroom with open-plan kitchen,54 m²,"CZK 4,000",Furnished,3,No,No,No,No,No,Yes,No,01. 06. 2022,42,871,178,562,166,691,172,997,907,293,New build,"CZK 45,000",Personal,Brick building,,1 to 10 years years,,,B,Premium materials and solutions,,,,,,,
716016,"CZK 27,000",50.08622,14.44951,"Dalimilova, Prague - Žižkov",1 bedroom with open-plan kitchen,50 m²,"CZK 3,300",Furnished,3,Yes,No,Yes,No,No,Yes,No,01. 06. 2022,250,377,223,384,63,344,89,302,89,726,Excellent,"CZK 54,000",Personal,Brick building,,,,,F,,,,,,,,
719152,"CZK 15,000",50.10805,14.53471,"Sadská, Prague - Hloubětín",2 bedroom,50 m²,"CZK 2,500",Partially furnished,2,No,No,Yes,No,No,No,No,20. 05. 2022,389,534,325,515,382,351,485,116,589,175,Excellent,"CZK 45,000",Personal,Brick building,,,,,G,,,,,,,,
694996,"CZK 15,000",50.1017062589,14.452718765784,"Tusarova, Prague - Holešovice",Studio,30 m²,"CZK 3,000",Furnished,2,No,No,Yes,No,No,Yes,No,20. 05. 2022,181,538,88,261,18,197,399,362,105,253,New build,"CZK 18,000",Personal,Brick building,Yes,,,,B,,,,,,,,
719150,"CZK 35,000",50.11091,14.49956,"Bratří Dohalských, Prague - Vysočany",2 bedroom with open-plan kitchen,96 m²,"CZK 5,000",Furnished,6,Yes,Yes,No,Yes,Yes,Yes,Yes,19. 05. 2022,87,250,116,92,150,145,452,716,360,250,New build,"CZK 35,000",Personal,Brick building,,,,,B,,,,,,,,
376088,"CZK 16,500",50.0725559,14.4683321,Prague - Vršovice,2 bedroom,52 m²,"CZK 1,513",Partially furnished,3,Yes,No,Yes,No,No,No,No,01. 07. 2022,164,697,279,532,272,293,463,347,658,77,,"CZK 32,000",Personal,Brick building,,,,,,,Interior,,,,,,
719146,"CZK 21,000",50.108944,14.501028,"Freyova, Prague - Vysočany",Studio,25 m²,"CZK 7,000",Furnished,12,No,No,No,No,No,Yes,No,21. 05. 2022,190,256,204,195,172,262,433,416,436,299,,,,,,,,,,,,,,,,,
717687,"CZK 18,561",50.1045704,14.3964833,"Nikolaje Alexejeviče Někrasova, Prague - Bubeneč",1 bedroom with open-plan kitchen,55 m²,"CZK 6,187",Furnished,4,No,No,No,No,No,Yes,No,01. 07. 2022,127,738,134,167,33,143,316,211,416,52,,,,,,,,,,,,,,,,,
717698,"CZK 16,125",50.1138866,14.4798456,"U Pekařky, Prague - Libeň",Studio,30 m²,"CZK 5,375",Furnished,2,No,No,No,No,No,No,No,29. 06. 2022,185,178,"1,337",331,979,"1,134","1,351",938,317,,,,,,,,,,,,,,,,,,
717700,"CZK 41,438",50.077834,14.422878,"Příčná, Prague - Nové Město",Studio,26 m²,"CZK 13,812",Furnished,2,No,No,No,No,No,No,No,20. 06. 2022,224,529,123,232,36,222,310,471,467,408,,,,,,,,,,,,,,,,,
717694,"CZK 60,000",50.0757302,14.4269087,"Ječná, Prague - Nové Město",1 bedroom with open-plan kitchen,,"CZK 20,000",Furnished,3,No,No,No,No,No,No,No,19. 06. 2022,177,647,182,40,38,122,28,102,350,194,,,,,,,,,,,,,,,,,
717695,"CZK 29,390",50.0925135,14.4556107,"Šaldova, Prague - Karlín",1 bedroom,40 m²,"CZK 9,796",Furnished,2,No,Yes,No,No,No,Yes,No,09. 06. 2022,367,716,142,317,156,180,346,"1,276",231,204,,,,,,,,,,,,,,,,,
717685,"CZK 36,338",50.0183023,14.5625656,"Ibišková, Prague - Křeslice",4 bedroom with open-plan kitchen,180 m²,"CZK 12,112",Furnished,1,Yes,Yes,No,No,No,No,Yes,01. 07. 2022,695,843,921,,,,,,,,,,,,,,,,,,,,,,,,
717649,"CZK 32,918",50.0876118,14.4080467,"Míšeňská, Prague - Malá Strana",Studio,35 m²,"CZK 10,972",Furnished,2,No,No,No,No,No,No,No,01. 07. 2022,249,259,109,237,65,537,295,274,806,231,,,,,,,,,,,,,,,,,
717637,"CZK 31,425",50.0643299,14.4102127,"Strakonická, Prague - Smíchov",Studio,30 m²,"CZK 10,475",Furnished,2,No,No,No,No,No,Yes,No,01. 06. 2022,211,382,250,989,170,745,812,"1,050",387,543,,,,,,,,,,,,,,,,,
717632,"CZK 28,688",50.0730353,14.4083714,"Zborovská, Prague - Smíchov",Studio,40 m²,"CZK 9,562",Furnished,2,Yes,Yes,No,No,No,No,No,27. 06. 2022,94,401,89,199,59,403,430,911,"1,115",601,,,,,,,,,,,,,,,,,
717624,"CZK 43,350",50.0894289,14.423732,"Masná, Prague - Staré Město",Studio,46 m²,"CZK 14,450",Furnished,3,No,No,No,No,No,Yes,No,31. 05. 2022,68,269,126,89,16,107,70,52,156,144,,,,,,,,,,,,,,,,,
717630,"CZK 35,975",50.0918972,14.4483184,"Křižíkova, Prague - Karlín",Studio,49 m²,"CZK 11,992",Furnished,2,Yes,Yes,No,No,No,Yes,Yes,21. 05. 2022,224,159,75,308,58,360,238,"1,343",368,105,,,,,,,,,,,,,,,,,
717616,"CZK 51,225",50.090911,14.4295366,"Soukenická, Prague - Nové Město",1 bedroom with open-plan kitchen,50 m²,"CZK 17,075",Furnished,4,No,No,No,No,No,Yes,Yes,05. 06. 2022,144,325,176,152,60,230,49,259,388,439,,,,,,,,,,,,,,,,,
717600,"CZK 29,520",50.0861053,14.4085409,"Na Kampě, Prague - Malá Strana",1 bedroom with open-plan kitchen,39 m²,"CZK 9,840",Furnished,3,No,No,No,No,No,No,No,01. 07. 2022,417,407,197,386,62,673,443,555,732,174,,,,,,,,,,,,,,,,,
717602,"CZK 37,500",50.0633339,14.4440155,"Mečislavova, Prague - Nusle",1 bedroom with open-plan kitchen,56 m²,"CZK 12,500",Furnished,5,No,No,No,No,No,Yes,No,01. 07. 2022,243,541,100,272,177,315,457,820,635,594,,,,,,,,,,,,,,,,,
718309,"CZK 78,000",50.0895991,14.4216596,"V Kolkovně, Prague - Staré Město",3 bedroom,125 m²,"CZK 26,000",Furnished,6,Yes,No,No,No,No,Yes,No,11. 07. 2022,94,433,53,88,14,105,82,217,292,309,,,,,,,,,,,,,,,,,
719140,"CZK 15,000",50.04829,14.30282,"Svitákova, Prague - Stodůlky",Studio,35 m²,"CZK 3,000",Partially furnished,4,No,Yes,No,No,No,No,Yes,01. 06. 2022,378,322,169,334,"1,107","1,075",702,863,43,,New build,"CZK 18,000",Cooperative,Brick building,,,,,C,,,,,,,,
719139,"CZK 39,000",50.0739894,14.440101,"Francouzská, Prague - Vinohrady",2 bedroom,92 m²,"CZK 13,000",Furnished,7,No,Yes,No,No,No,Yes,No,18. 07. 2022,149,274,60,441,20,421,59,552,690,457,,,,,,,,,,,,,,,,,
719138,"CZK 37,500",50.0633237,14.4440058,"Mečislavova, Prague - Nusle",1 bedroom with open-plan kitchen,60 m²,"CZK 12,500",Furnished,4,No,No,No,No,No,Yes,No,18. 07. 2022,242,542,99,271,176,314,456,822,634,593,,,,,,,,,,,,,,,,,
709032,"CZK 21,000",50.04829,14.30282,"Svitákova, Prague - Stodůlky",1 bedroom with open-plan kitchen,52 m²,"CZK 4,500",Partially furnished,5,No,Yes,No,No,Yes,No,Yes,01. 06. 2022,378,322,169,334,"1,107","1,075",702,863,43,,New build,"CZK 27,500",Personal,Brick building,,,,,B,,,,,,,,
626079,"CZK 18,000",50.036192,14.335173,"Petrbokova, Prague - Stodůlky",1 bedroom with open-plan kitchen,60 m²,"CZK 4,500",,2,Yes,No,No,No,No,Yes,Yes,01. 07. 2022,97,616,144,988,192,606,263,530,369,213,New build,"CZK 22,500",Personal,Brick building,,,,,C,,,,,,,,
717804,"CZK 33,000",50.05311,14.39944,"Tetínská, Prague - Radlice",2 bedroom with open-plan kitchen,71 m²,"CZK 4,000",Furnished,1,No,Yes,Yes,No,No,Yes,Yes,01. 08. 2022,250,"1,303",844,"1,220",833,"1,406",925,919,868,,New build,"CZK 33,000",Personal,Brick building,,,,,B,,,,,,,,
621773,"CZK 16,000",50.067549,14.554202,"Honzíkova, Prague - Dolní Měcholupy",1 bedroom with open-plan kitchen,55 m²,"CZK 2,000",Unfurnished,1,Yes,No,No,No,No,Yes,Yes,26. 05. 2022,607,"1,302",445,364,624,"1,126","1,266",424,,,New build,"CZK 20,000",Cooperative,Brick building,Yes,,District heating,,G,Standard materials and solutions,,,,,,,
718506,"CZK 14,000",50.13845,14.42821,"Vánková, Prague - Čimice",1 bedroom with open-plan kitchen,58 m²,"CZK 5,000",Partially furnished,5,Yes,No,Yes,No,Yes,Yes,No,01. 06. 2022,217,647,534,330,630,642,594,"1,335",36,,New build,"CZK 20,000",Personal,Prefab concrete building,,,District heating,,B,Premium materials and solutions,,,,,,,
395613,"CZK 12,000",50.1071289,14.4458363,"U Městských domů, Prague - Holešovice",1 bedroom,46 m²,"CZK 1,000",Furnished,4,Yes,No,No,No,No,No,No,23. 05. 2022,165,615,255,628,292,307,346,971,421,273,,"CZK 13,000",Cooperative,Brick building,,,Other,,,,,,,,,,
719115,"CZK 19,500",50.0874493,14.4570175,"Lukášova, Prague - Žižkov",1 bedroom with open-plan kitchen,54 m²,"CZK 4,500",Partially furnished,3,No,No,Yes,No,No,Yes,Yes,18. 05. 2022,191,88,24,470,64,59,150,321,106,259,Excellent,"CZK 40,000",Personal,Other,,,,,G,,,,,,,,
527854,"CZK 24,000",50.0714479,14.449111,"Krymská, Prague - Vršovice",2 bedroom with open-plan kitchen,80 m²,"CZK 3,140",Unfurnished,5,Yes,No,No,No,No,No,No,01. 06. 2022,192,729,198,304,139,563,246,531,248,369,,"CZK 24,000",Personal,Brick building,,,Central heating,Middle floor,,Premium materials and solutions,Overall,,,,,,
117660,"CZK 11,000",50.0842169,14.4528814,"Seifertova, Prague - Žižkov",Studio,25 m²,"CZK 2,000",Furnished,1,No,No,No,No,No,No,No,19. 05. 2022,98,219,37,186,20,26,181,327,415,348,,"CZK 11,000",Personal,Brick building,,1 to 10 years years,Other,Attic,,Standard materials and solutions,Overall,,,,,,
699544,"CZK 20,000",50.06794,14.40795,"Pivovarská, Prague - Smíchov",1 bedroom,50 m²,"CZK 3,000",Furnished,1,No,No,Yes,No,No,Yes,No,30. 05. 2022,93,561,287,532,144,457,910,"1,116",654,402,New build,"CZK 37,999",Personal,Brick building,,1 to 10 years years,Electric boiler,Middle floor,G,Premium materials and solutions,Overall,,,,,,
257946,"CZK 18,500",50.0723918,14.4059555,"Lidická, Prague - Smíchov",1 bedroom with open-plan kitchen,46 m²,"CZK 1,000",Furnished,3,No,No,No,No,Yes,No,No,25. 02. 2021,100,437,82,124,1,340,531,"1,038","1,232",691,Excellent,"CZK 18,500",Personal,Brick building,,1 to 10 years years,Other,Middle floor,C,Standard materials and solutions,Overall,,,,,,
719109,"CZK 21,300",50.08742,14.45748,"Roháčova, Prague - Žižkov",2 bedroom,57 m²,"CZK 3,700",Partially furnished,6,No,Yes,No,No,Yes,Yes,No,01. 06. 2022,198,95,70,462,125,66,156,328,167,266,Excellent,"CZK 25,000",Personal,Prefab concrete building,,,,,G,,,,,,,,
718500,"CZK 16,500",50.064779,14.5525555,"Františka Jansy, Prague - Dolní Měcholupy",1 bedroom with open-plan kitchen,55 m²,"CZK 3,500",Furnished,5,Yes,No,No,No,No,Yes,No,01. 06. 2022,150,845,468,387,639,"1,165",809,100,,,New build,"CZK 33,000",Cooperative,Brick building,,,,,A,,,,,,,,
719105,"CZK 13,500",50.09747,14.3651,"Kladenská, Prague - Vokovice",1 bedroom,38 m²,"CZK 3,500",Partially furnished,,No,No,Yes,No,No,No,No,01. 07. 2022,314,273,370,278,143,176,662,500,"1,011",75,Excellent,"CZK 15,000",Personal,Brick building,,,,,G,,,,,,,,
663157,"CZK 10,900",50.06411,14.28597,"Strojírenská, Prague - Zličín",Studio,26 m²,"CZK 2,736",Partially furnished,2,No,No,Yes,No,No,No,Yes,16. 05. 2022,182,208,"1,171","1,016",919,"1,381",594,,,,New build,"CZK 10,900",Personal,Brick building,,1 to 10 years years,Other,Middle floor,B,Premium materials and solutions,,,,,,,
719098,"CZK 19,500",50.0810281,14.4926073,"Počernická, Prague - Strašnice",2 bedroom,43 m²,"CZK 4,700",Furnished,2,Yes,No,No,Yes,No,No,No,01. 06. 2022,230,612,238,492,561,292,512,391,738,385,New build,"CZK 35,000",Personal,Brick building,,,,,G,,,,,,,,
719091,"CZK 59,100",50.0908563,14.4202783,"Dušní, Prague - Josefov",3 bedroom,105 m²,"CZK 19,700",Furnished,4,No,No,No,No,No,Yes,No,25. 06. 2022,120,466,224,270,88,288,156,399,230,467,,,,,,,,,,,,,,,,,
108759,"CZK 10,900",50.0483486747,14.5587515831,"Boloňská, Prague - Horní Měcholupy",Studio,33 m²,"CZK 3,500",Partially furnished,4,Yes,No,Yes,No,No,Yes,No,01. 04. 2022,385,"1,033",497,"1,111",184,"1,178",346,312,823,191,,"CZK 29,000",Personal,Brick building,,,,,C,,,,,,,,
719087,"CZK 22,990",50.03828527777,14.41014416666,"Na Mlejnku, Prague - Braník",2 bedroom,71 m²,"CZK 4,447",Furnished,4,No,No,No,Yes,No,Yes,No,,181,344,199,241,393,251,475,"1,250",245,,Excellent,"CZK 27,437",Personal,Brick building,,,,,D,,,,,,,"CZK 27,437

                                
                                
                
i",
200787,"CZK 11,000",50.0862496,14.3728458,"Nad Kajetánkou, Prague - Břevnov",1 bedroom with open-plan kitchen,42 m²,"CZK 2,000",Partially furnished,4,No,No,Yes,No,No,No,No,23. 05. 2022,91,786,420,610,183,313,414,323,618,437,Excellent,"CZK 10,000",Personal,Brick building,,,,Middle floor,C,,Exterior,,,,,,
684648,"CZK 13,000",50.10236,14.43543,"Veletržní, Prague - Holešovice",1 bedroom,33 m²,"CZK 2,000",Partially furnished,1,No,No,Yes,No,No,No,No,01. 07. 2022,280,785,49,297,55,328,316,495,994,,Good,"CZK 20,000",Cooperative,Brick building,,1 to 10 years years,Central heating,Raised ground floor,G,Standard materials and solutions,Interior,,,,,,
486251,"CZK 11,000",50.056076,14.497009,"Jabloňová, Prague - Záběhlice",1 bedroom,32 m²,"CZK 2,800",Partially furnished,2,Yes,No,No,No,No,No,No,,55,492,120,"1,017",287,0,191,543,277,360,,"CZK 12,000",Personal,Prefab concrete building,,,District heating,,G,,Bathroom unit,,,,,,
581839,"CZK 17,400",50.128615,14.483932,"Březenská, Prague - Libeň",1 bedroom with open-plan kitchen,62 m²,"CZK 3,550",Furnished,2,No,No,No,No,Yes,Yes,Yes,18. 05. 2022,163,"1,180",257,"1,235",458,249,195,728,919,192,New build,"CZK 55,000",Personal,Low-energy building,Yes,1 to 10 years years,District heating,Middle floor,B,Premium materials and solutions,,,,,,,
719073,"CZK 10,500",50.07012,14.45787,"Madridská, Prague - Vršovice",Studio,35 m²,"CZK 1,900",Furnished,5,Yes,No,No,No,No,Yes,No,19. 05. 2022,192,445,112,222,68,220,202,164,520,123,Excellent,"CZK 15,000",Personal,Brick building,,,,,G,,,,,,,,
715590,"CZK 43,775",50.09912,14.43261,Prague - Holešovice,3 bedroom with open-plan kitchen,113 m²,"CZK 5,500",Unfurnished,4,No,No,Yes,No,No,Yes,No,01. 06. 2022,54,722,20,64,99,38,187,"1,475",177,471,New build,"CZK 87,550",Personal,Brick building,Yes,,Central heating,Top floor,A,,Overall,,,,,,
696054,"CZK 18,000",50.06312,14.40452,"Radlická, Prague - Smíchov",Studio,42 m²,"CZK 3,500",Furnished,1,No,No,No,No,No,No,No,01. 01. 1970,25,450,75,856,15,203,647,619,790,542,Excellent,"CZK 18,000",Personal,Brick building,,,,,E,,,,,,,,
270998,"CZK 13,500",50.0921196,14.4735725,Prague - Žižkov,1 bedroom,48 m²,"CZK 4,580",Furnished,1,No,No,No,No,No,No,No,01. 07. 2022,180,"1,315",183,160,322,303,176,398,203,37,,"CZK 15,000",Personal,Brick building,,,,,,,,,,,,,
719064,"CZK 17,000",50.05787,14.44751,"Družstevní ochoz, Prague - Nusle",1 bedroom,35 m²,"CZK 2,500",,1,No,No,No,No,No,No,No,19. 05. 2022,369,870,98,381,243,958,596,418,842,137,,"CZK 20,000",Personal,Brick building,,,,,G,,,,,,,,
629549,"CZK 12,500",50.076491,14.49151,"Černokostelecká, Prague - Strašnice",1 bedroom with open-plan kitchen,52 m²,"CZK 4,460",Furnished,2,No,No,Yes,No,No,Yes,No,01. 02. 2021,111,103,86,189,62,297,293,528,900,288,Excellent,"CZK 17,000",Personal,Brick building,,,Other,Middle floor,D,Standard materials and solutions,Exterior,,,,,,
719067,"CZK 13,000",50.03331,14.51232,"Machkova, Prague - Chodov",Studio,31 m²,"CZK 3,000",Furnished,4,No,No,Yes,No,No,Yes,No,19. 05. 2022,200,594,171,"1,344",452,710,401,244,458,183,Excellent,"CZK 20,000",Personal,Prefab concrete building,,,,,B,,,,,,,,
718218,"CZK 41,175",50.0643299,14.4102127,"Strakonická, Prague - Smíchov",1 bedroom with open-plan kitchen,45 m²,"CZK 13,725",Furnished,2,No,No,No,No,No,Yes,No,29. 05. 2022,211,382,250,989,170,745,812,"1,050",387,543,,,,,,,,,,,,,,,,,
656973,"CZK 11,075",50.10809,14.43722,"Na Zátorách, Prague - Holešovice",Studio,15 m²,"CZK 3,675",Furnished,3,No,No,No,No,No,Yes,No,01. 07. 2022,203,"1,202",318,"1,023",78,445,306,355,606,,New build,"CZK 14,750",Other,Other,,1 to 10 years years,,,G,,,,,,,,
718468,"CZK 18,500",50.06941,14.43306,"U Zvonařky, Prague - Vinohrady",1 bedroom with open-plan kitchen,45 m²,"CZK 4,500",Furnished,1,No,No,No,No,No,No,No,01. 08. 2022,5,504,82,513,147,567,412,435,420,507,Excellent,"CZK 25,000",Personal,Brick building,,,,,D,,,,,,,,
719057,"CZK 20,000",50.08554,14.44835,"Blahníkova, Prague - Žižkov",2 bedroom,45 m²,"CZK 4,500",Furnished,2,No,No,Yes,No,No,Yes,No,06. 06. 2022,237,333,118,340,77,301,68,161,205,648,Excellent,"CZK 30,000",Personal,Brick building,,,,,G,,,,,,,,
719055,"CZK 16,000",50.0648,14.38848,"Peroutkova, Prague - Smíchov",2 bedroom,54 m²,"CZK 3,000",Unfurnished,2,No,No,No,No,No,No,No,01. 06. 2022,21,"1,190",36,976,98,"1,392","1,055",365,706,245,Excellent,"CZK 19,000",Personal,Brick building,,,,,G,,,,,,,,
673770,"CZK 14,900",50.1281,14.423,"Lešenská, Prague - Troja",3 bedroom,74 m²,"CZK 5,600",Furnished,3,Yes,No,Yes,No,No,Yes,No,01. 08. 2021,428,502,258,572,328,444,584,865,950,205,Excellent,"CZK 20,500",Personal,Prefab concrete building,,,,,G,,,,,,,,
719049,"CZK 16,000",50.1366583,14.550355,"Jilemnická, Prague - Kbely",2 bedroom,64 m²,"CZK 3,600",Partially furnished,2,Yes,No,Yes,No,No,No,No,01. 07. 2022,33,406,247,296,583,663,186,751,243,,Excellent,"CZK 30,000",Personal,Brick building,,,,,G,,,,,,,,
718774,"CZK 39,000",50.10506,14.45906,"Sanderova, Prague - Holešovice",2 bedroom with open-plan kitchen,150 m²,"CZK 7,000",Furnished,6,Yes,Yes,Yes,No,Yes,Yes,Yes,01. 06. 2022,526,"1,137",655,737,465,613,"1,085","1,047",524,235,New build,"CZK 39,000",Personal,Brick building,,,,,A,,,,,,,,
706559,"CZK 22,000",50.0923343,14.4901038,"Koněvova, Prague - Žižkov",2 bedroom,76 m²,"CZK 3,900",,3,No,No,No,No,Yes,No,Yes,01. 06. 2022,154,132,233,218,33,110,265,268,459,218,Excellent,"CZK 44,000",Personal,Brick building,,,,Attic,C,,,,,,,,
718455,"CZK 12,000",50.10238,14.50301,"Freyova, Prague - Vysočany",1 bedroom with open-plan kitchen,37 m²,CZK 500,Partially furnished,1,No,No,No,No,No,No,No,20. 05. 2022,90,"1,051",2,560,175,573,129,816,"1,034",544,Excellent,"CZK 12,000",Personal,Brick building,,,Gas boiler,Ground floor,G,Standard materials and solutions,Overall,,,,,,
534737,"CZK 15,600",50.105589,14.538816,"Zelenečská, Prague - Hloubětín",1 bedroom with open-plan kitchen,54 m²,"CZK 2,350",Partially furnished,4,Yes,No,Yes,No,No,No,No,30. 06. 2022,43,36,47,54,235,109,495,417,295,266,Excellent,"CZK 35,900",Personal,Brick building,,1 to 10 years years,District heating,Top floor,C,Premium materials and solutions,Overall,,,,,,
719043,"CZK 17,280",50.0563948,14.3470542,"Pod Stolovou Horou, Prague - Jinonice",Studio,39 m²,"CZK 5,760",Furnished,3,Yes,No,No,No,No,Yes,No,02. 07. 2022,243,"1,060",532,755,541,497,572,643,108,,,,,,,,,,,,,,,,,,
615750,"CZK 15,000",50.039692,14.458488,"Budějovická, Prague - Krč",Studio,42 m²,"CZK 2,800",Furnished,1,No,Yes,Yes,No,Yes,No,No,01. 06. 2022,246,"1,206",383,929,252,529,888,"1,030","1,164",582,New build,"CZK 30,000",Personal,Brick building,,1 to 10 years years,District heating,Ground floor,C,Premium materials and solutions,Overall,17 m²,,,,,
719038,"CZK 35,000",50.10528,14.46857,"Smrčkova, Prague - Libeň",2 bedroom with open-plan kitchen,110 m²,"CZK 4,500",Partially furnished,,No,Yes,No,No,No,No,No,20. 06. 2022,422,907,445,459,113,460,579,904,640,276,New build,"CZK 60,000",Personal,Low-energy building,,,,,B,,,,,,,,
342318,"CZK 27,000",50.0533340759,14.367026986,"Bochovská, Prague - Jinonice",2 bedroom with open-plan kitchen,74 m²,"CZK 2,500",Partially furnished,4,No,Yes,Yes,No,Yes,Yes,Yes,21. 05. 2022,353,402,510,208,581,117,"1,004",659,93,,New build,"CZK 35,000",Personal,Brick building,Yes,,,,,Premium materials and solutions,,,,,,,
719032,"CZK 16,000",50.12741,14.50208,"Zlonická, Prague - Letňany",1 bedroom with open-plan kitchen,56 m²,"CZK 5,000",Partially furnished,4,Yes,No,No,No,No,Yes,No,01. 06. 2022,171,787,107,816,621,752,305,464,"1,491",320,Excellent,"CZK 32,000",Personal,Brick building,,,,,G,,,,,,,,
715324,"CZK 14,500",50.10471,14.48725,"Drahobejlova, Prague - Libeň",Small studio,37 m²,"CZK 3,500",Furnished,5,Yes,No,Yes,No,No,Yes,Yes,15. 05. 2022,210,150,189,176,93,336,406,635,250,105,Excellent,"CZK 18,000",Personal,Brick building,,10 to 30 years years,District heating,Middle floor,G,Standard materials and solutions,,,,,,,
514861,"CZK 13,000",50.0464607,14.3156835,"Klukovická, Prague - Stodůlky",Studio,36 m²,"CZK 3,000",Furnished,7,No,No,No,No,No,Yes,No,01. 06. 2022,99,599,488,564,535,43,656,199,652,255,Excellent,"CZK 13,000",Personal,Prefab concrete building,,,District heating,,C,Standard materials and solutions,,,,,,,
719029,"CZK 24,127",50.1308,14.41263,"Zelenohorská, Prague - Bohnice",3 bedroom,68 m²,"CZK 3,292",Partially furnished,1,No,No,No,No,No,No,No,18. 05. 2022,125,741,276,671,224,738,540,524,233,,Excellent,"CZK 25,000",Personal,Brick building,,,,,B,,,,,,,,
719027,"CZK 19,000",50.05305,14.51006,"Práčská, Prague - Záběhlice",2 bedroom with open-plan kitchen,82 m²,"CZK 2,100",Partially furnished,4,Yes,No,No,No,Yes,Yes,Yes,01. 06. 2022,86,866,762,814,500,862,899,734,840,392,New build,"CZK 38,000",Personal,Other,,,,,G,,,,,,,,
719028,"CZK 11,500",50.10063,14.43441,"Heřmanova, Prague - Holešovice",Small studio,22 m²,"CZK 1,500",Unfurnished,3,No,No,No,No,No,Yes,No,19. 05. 2022,141,912,130,101,112,259,168,414,750,,Good,"CZK 13,000",Personal,Brick building,,,,,G,,,,,,,,
513486,"CZK 21,000",50.0734259,14.4356742,"Belgická, Prague - Vinohrady",1 bedroom with open-plan kitchen,52 m²,"CZK 4,000",Furnished,2,No,No,No,No,No,No,No,10. 06. 2022,236,93,127,267,62,114,25,209,823,867,,"CZK 26,000",Cooperative,Brick building,,,,,,,,,,,,,
718431,"CZK 13,000",50.02167,14.48816,"Jana Růžičky, Prague - Kunratice",1 bedroom with open-plan kitchen,45 m²,"CZK 2,200",Unfurnished,2,No,No,No,No,No,Yes,No,01. 06. 2022,161,890,46,983,329,122,201,131,574,186,Excellent,"CZK 15,000",Personal,Prefab concrete building,,,District heating,Middle floor,G,,Interior,,,,,,
503608,"CZK 18,000",50.03414,14.51408,"Markušova, Prague - Chodov",2 bedroom with open-plan kitchen,67 m²,"CZK 4,000",Partially furnished,6,No,No,Yes,Yes,No,Yes,No,01. 06. 2022,230,638,202,"1,325",394,619,294,27,206,156,Excellent,"CZK 36,000",Personal,Prefab concrete building,,10 to 30 years years,District heating,Middle floor,C,Standard materials and solutions,Overall,,,,,,
718429,"CZK 16,500",50.05152,14.46019,"Vnější, Prague - Michle",1 bedroom,53 m²,"CZK 4,000",Partially furnished,2,No,No,No,No,No,No,No,20. 05. 2022,275,944,371,956,245,835,564,658,865,455,Excellent,"CZK 16,500",Personal,Brick building,,,,,C,,,,,,,,
719023,"CZK 19,361",50.08065,14.431,"Washingtonova, Prague - Nové Město",Studio,26 m²,"CZK 3,200",Furnished,2,No,No,No,No,No,Yes,No,01. 06. 2022,124,331,157,252,102,6,301,804,219,527,Excellent,"CZK 38,722",Personal,Brick building,,,,,G,,,,,,,,
538097,"CZK 15,000",50.1232977,14.495655,"Jablonecká, Prague - Prosek",2 bedroom,57 m²,"CZK 5,000",Furnished,1,No,No,No,No,No,No,No,01. 06. 2022,206,209,141,148,117,312,576,356,907,101,,"CZK 30,000",Personal,Brick building,,,,,,,,,,,,,
604113,"CZK 17,900",50.074919,14.486613,"Za Strašnickou Vozovnou, Prague - Strašnice",2 bedroom,60 m²,"CZK 5,000",Furnished,1,No,No,No,No,No,No,No,01. 07. 2022,272,513,58,375,264,417,381,643,762,274,New build,"CZK 20,000",Personal,Brick building,,1 to 10 years years,Electric boiler,Ground floor,F,Standard materials and solutions,Interior,,,,,,
719016,"CZK 18,081",50.1030733,14.4335679,"Šimáčkova, Prague - Holešovice",Studio,30 m²,"CZK 6,027",Furnished,3,Yes,No,No,No,No,Yes,No,01. 07. 2022,139,794,157,306,80,123,368,481,882,,,,,,,,,,,,,,,,,,
510207,"CZK 18,000",50.0889731,14.3043643,"U Valu, Prague - Ruzyně",1 bedroom with open-plan kitchen,45 m²,"CZK 2,000",Partially furnished,5,No,No,No,No,No,Yes,No,,225,486,448,435,345,492,357,"1,259",46,,Excellent,"CZK 20,000",Personal,Prefab concrete building,,1 to 10 years years,Central heating,Middle floor,C,Premium materials and solutions,Overall,,,,,,
443504,"CZK 18,000",50.060275596721,14.288100429608,"Mladých, Prague - Zličín",3 bedroom,70 m²,"CZK 2,000",Partially furnished,1,No,No,No,No,No,No,No,18. 05. 2022,249,431,949,940,317,"1,051",250,650,194,,,,Personal,Brick building,,,,,,,,50 m²,,,,,
710940,"CZK 31,500",50.0959448,14.453085513058,"Rohanské nábřeží, Prague - Karlín",2 bedroom with open-plan kitchen,80 m²,"CZK 6,000",Furnished,5,Yes,No,Yes,No,Yes,Yes,No,01. 05. 2022,327,632,307,307,206,444,677,553,540,,New build,"CZK 20,000",Personal,Prefab concrete building,,1 to 10 years years,District heating,,G,,,,,,,,
713662,"CZK 15,000",50.10898,14.44592,"Vrbenského, Prague - Holešovice",1 bedroom,38 m²,"CZK 5,000",Furnished,6,No,No,No,No,No,Yes,No,01. 05. 2022,155,688,102,642,119,330,220,"1,047",563,175,Excellent,"CZK 15,000",Personal,Brick building,,,,,D,,,,,,,,
582979,"CZK 9,300",50.074049,14.442255,"Budečská, Prague - Vinohrady",Small studio,20 m²,CZK 750,Partially furnished,5,No,No,No,No,No,Yes,No,23. 05. 2022,207,87,107,499,52,431,169,398,541,504,Excellent,"CZK 14,000",Personal,Brick building,,,Other,Top floor,E,,,,,,,,
711176,"CZK 12,000",50.06164,14.44968,"Kloboučnická, Prague - Nusle",1 bedroom,42 m²,"CZK 5,700",Furnished,5,No,Yes,No,No,No,Yes,No,18. 05. 2022,157,987,250,451,154,626,478,416,895,432,Excellent,"CZK 12,000",Personal,Brick building,,over 50 years years,Other,Top floor,G,Standard materials and solutions,Interior,,,,,,
719010,"CZK 21,000",50.0866,14.45416,"Roháčova, Prague - Žižkov",2 bedroom,56 m²,"CZK 3,500",Furnished,3,No,No,No,No,Yes,No,No,18. 05. 2022,117,181,77,521,57,243,258,282,240,423,Excellent,"CZK 30,000",Personal,Brick building,,,,,G,,,,,,,,
718969,"CZK 17,000",50.0980235,14.3963028,"Wuchterlova, Prague - Dejvice",1 bedroom with open-plan kitchen,45 m²,"CZK 1,500",Unfurnished,1,No,No,No,No,No,No,No,01. 06. 2022,88,120,144,223,46,227,663,448,440,84,Excellent,"CZK 18,500",Personal,Brick building,,over 50 years years,Gas boiler,Raised ground floor,G,Standard materials and solutions,Interior,,,,,,
693654,"CZK 13,500",50.091709,14.4723945,"Nad Ohradou, Prague - Žižkov",1 bedroom with open-plan kitchen,55 m²,"CZK 1,500",Partially furnished,2,Yes,No,No,No,No,No,No,01. 06. 2022,262,"1,217",210,245,165,223,261,483,288,121,Excellent,"CZK 15,000",Personal,Brick building,,,,,C,,,,,,,,
370737,"CZK 16,000",50.0308374,14.3684248,"Trnkovo náměstí, Prague - Hlubočepy",1 bedroom with open-plan kitchen,55 m²,"CZK 5,800",Furnished,7,No,Yes,No,No,No,Yes,Yes,15. 07. 2022,120,834,76,815,127,853,287,296,628,66,,"CZK 20,000",Personal,Brick building,,,Central heating,Top floor,,,,,,,,,
716510,"CZK 24,000",50.10982,14.38248,"Neherovská, Prague - Dejvice",1 bedroom with open-plan kitchen,61 m²,"CZK 4,000",Furnished,1,No,No,No,No,Yes,No,No,10. 06. 2022,323,432,"1,305",445,739,394,452,838,701,,Excellent,"CZK 28,000",Personal,Brick building,,,Central heating,Raised ground floor,G,,,12 m²,,,,,
565625,"CZK 17,900",50.1078897,14.4749561,"Andrštova, Prague - Libeň",1 bedroom with open-plan kitchen,44 m²,CZK 700,Partially furnished,2,No,No,No,No,Yes,Yes,No,17. 06. 2022,351,720,197,394,208,401,333,543,420,276,,"CZK 35,800",Personal,Brick building,,,Gas boiler,Middle floor,B,Premium materials and solutions,Overall,,,,,,
577002,"CZK 16,000",50.1171669,14.4317465,"Trojská, Prague - Troja",1 bedroom with open-plan kitchen,43 m²,"CZK 3,500",Unfurnished,1,No,No,No,No,No,No,No,01. 01. 2022,141,"1,030","1,164",484,672,"1,054",233,748,,,,"CZK 48,000",Personal,Brick building,,,,,C,,,,,,,,
719002,"CZK 15,500",50.06126,14.45014,"Kloboučnická, Prague - Nusle",Studio,30 m²,"CZK 2,000",Furnished,5,No,No,No,No,No,Yes,No,23. 05. 2022,144,"1,031",218,438,142,726,466,462,945,420,Excellent,"CZK 16,000",Personal,Brick building,,,,,G,,,,,,,,
717676,"CZK 30,096",50.0925119,14.4502616,"Křižíkova, Prague - Karlín",Studio,40 m²,"CZK 10,032",Furnished,6,Yes,Yes,No,No,No,Yes,Yes,07. 06. 2022,81,251,125,181,24,205,369,"1,216",241,212,,,,,,,,,,,,,,,,,
717663,"CZK 51,225",50.0908563,14.4202783,"Dušní, Prague - Josefov",1 bedroom with open-plan kitchen,80 m²,"CZK 17,075",Furnished,6,No,Yes,No,No,No,Yes,No,07. 07. 2022,120,466,224,270,88,288,156,399,230,467,,,,,,,,,,,,,,,,,
717662,"CZK 86,625",50.0882058,14.4262315,"Rybná, Prague - Staré Město",3 bedroom with open-plan kitchen,150 m²,"CZK 28,875",Furnished,4,No,No,No,No,No,No,No,11. 06. 2022,281,192,58,183,11,368,315,297,289,305,,,,,,,,,,,,,,,,,
717705,"CZK 41,250",50.0912734,14.4238585,"Haštalské náměstí, Prague - Staré Město",2 bedroom,50 m²,"CZK 13,750",Furnished,-1,No,Yes,No,No,No,No,No,26. 05. 2022,55,370,51,238,66,242,352,396,158,122,,,,,,,,,,,,,,,,,
717696,"CZK 14,603",50.086414,14.4459075,"Orebitská, Prague - Žižkov",Studio,15 m²,"CZK 4,867",Furnished,5,No,No,No,No,No,Yes,No,01. 07. 2022,85,599,358,554,76,567,334,374,416,568,,,,,,,,,,,,,,,,,
717701,"CZK 39,000",50.0783085,14.4591283,"Sudoměřská, Prague - Žižkov",2 bedroom,55 m²,"CZK 13,000",Furnished,1,No,No,No,No,No,Yes,No,04. 07. 2022,162,361,105,219,131,171,646,471,736,206,,,,,,,,,,,,,,,,,
717693,"CZK 60,000",50.0757302,14.4269087,"Ječná, Prague - Nové Město",1 bedroom with open-plan kitchen,,"CZK 20,000",Furnished,3,No,No,No,No,No,No,No,06. 06. 2022,177,647,182,40,38,122,28,102,350,194,,,,,,,,,,,,,,,,,
717683,"CZK 29,925",50.0747395,14.424046,"Lípová, Prague - Nové Město",1 bedroom with open-plan kitchen,45 m²,"CZK 9,975",Furnished,5,No,No,No,No,No,No,No,01. 06. 2022,120,534,85,337,48,344,183,195,543,341,,,,,,,,,,,,,,,,,
717684,"CZK 48,000",50.0718291,14.4385892,"Americká, Prague - Vinohrady",3 bedroom,72 m²,"CZK 16,000",Furnished,5,No,No,No,No,No,Yes,No,25. 06. 2022,274,300,81,587,69,312,103,253,793,568,,,,,,,,,,,,,,,,,
717673,"CZK 42,814",50.0722637,14.3926388,"Grafická, Prague - Smíchov",1 bedroom with open-plan kitchen,79 m²,"CZK 14,271",Furnished,6,No,No,No,No,No,No,No,21. 05. 2022,10,927,65,618,170,761,228,"1,106",933,331,,,,,,,,,,,,,,,,,
717666,"CZK 63,000",50.0895437,14.4260543,"Rybná, Prague - Staré Město",3 bedroom,86 m²,"CZK 21,000",Furnished,3,No,No,No,No,No,No,No,01. 07. 2022,138,70,36,61,45,257,146,128,234,214,,,,,,,,,,,,,,,,,
717667,"CZK 59,100",50.0882082,14.4262296,"Rybná, Prague - Staré Město",2 bedroom with open-plan kitchen,86 m²,"CZK 19,700",Furnished,2,Yes,No,No,No,No,No,No,29. 05. 2022,281,192,58,183,11,369,315,297,289,305,,,,,,,,,,,,,,,,,
717660,"CZK 49,650",50.0894663,14.4240032,"Masná, Prague - Staré Město",Studio,46 m²,"CZK 16,550",Furnished,6,No,No,No,No,No,Yes,No,06. 06. 2022,62,263,122,95,13,113,64,46,150,138,,,,,,,,,,,,,,,,,
717653,"CZK 43,710",50.0918754,14.4250902,"Řásnovka, Prague - Staré Město",3 bedroom,55 m²,"CZK 14,570",Furnished,2,No,No,No,No,No,No,No,01. 07. 2022,158,249,155,246,113,320,391,409,155,114,,,,,,,,,,,,,,,,,
717631,"CZK 25,500",50.0876289,14.3978335,"Šporkova, Prague - Malá Strana",Studio,40 m²,"CZK 8,500",Furnished,1,No,No,No,No,No,No,No,07. 07. 2022,29,634,152,537,130,317,388,899,984,129,,,,,,,,,,,,,,,,,
717598,"CZK 29,700",50.0778888,14.4403889,"Mánesova, Prague - Vinohrady",Studio,60 m²,"CZK 9,900",Furnished,7,No,No,No,No,No,Yes,No,13. 07. 2022,229,544,212,97,87,308,108,378,237,578,,,,,,,,,,,,,,,,,
717623,"CZK 22,478",50.0830187,14.4654473,"Olšanská, Prague - Žižkov",Studio,30 m²,"CZK 7,492",Furnished,3,No,No,No,No,No,No,Yes,01. 07. 2022,99,368,492,556,426,352,496,585,430,491,,,,,,,,,,,,,,,,,
717614,"CZK 37,620",50.0706439,14.4164891,"Trojická, Prague - Nové Město",1 bedroom with open-plan kitchen,60 m²,"CZK 12,540",Furnished,3,No,No,No,No,No,Yes,No,30. 06. 2022,212,694,96,186,110,101,316,52,369,339,,,,,,,,,,,,,,,,,
717601,"CZK 36,225",50.0769346,14.4169603,"Na Zbořenci, Prague - Nové Město",2 bedroom,65 m²,"CZK 12,075",Furnished,3,No,No,No,No,No,Yes,No,27. 05. 2022,168,319,99,227,101,409,227,243,632,429,,,,,,,,,,,,,,,,,
718684,"CZK 49,650",50.0894663,14.4240032,"Masná, Prague - Staré Město",Studio,43 m²,"CZK 16,550",Furnished,6,No,No,No,No,No,Yes,No,15. 07. 2022,62,263,122,95,13,113,64,46,150,138,,,,,,,,,,,,,,,,,
718307,"CZK 22,729",50.0193021,14.4451998,"Otradovická, Prague - Kamýk",3 bedroom,98 m²,"CZK 7,576",Furnished,3,No,No,No,No,No,No,No,11. 07. 2022,363,796,80,"1,204",730,355,596,298,"1,216",235,,,,,,,,,,,,,,,,,
718594,"CZK 33,750",50.0723321,14.4399493,"Jana Masaryka, Prague - Vinohrady",1 bedroom,49 m²,"CZK 11,250",Furnished,3,No,No,No,No,No,Yes,No,14. 07. 2022,155,369,147,651,45,545,205,328,671,484,,,,,,,,,,,,,,,,,
718999,"CZK 30,301",50.0928722,14.4500782,"Křižíkova a, Prague - Karlín",Studio,50 m²,"CZK 10,100",Furnished,5,Yes,Yes,No,No,No,Yes,Yes,17. 07. 2022,123,293,167,222,66,246,411,"1,258",283,254,,,,,,,,,,,,,,,,,
717969,"CZK 42,000",50.0782991,14.4323831,"Rubešova, Prague - Vinohrady",1 bedroom with open-plan kitchen,70 m²,"CZK 14,000",Furnished,6,No,No,No,No,No,Yes,Yes,07. 06. 2022,131,427,168,223,133,95,601,601,417,570,,,,,,,,,,,,,,,,,
718998,"CZK 16,000",50.01614,14.43864,"Olbramovická, Prague - Kamýk",1 bedroom with open-plan kitchen,41 m²,"CZK 2,500",Furnished,2,No,No,Yes,Yes,Yes,Yes,No,15. 06. 2022,177,"1,100",55,"1,183",713,282,482,571,728,408,Excellent,"CZK 25,000",Cooperative,Prefab concrete building,,,District heating,,G,,Overall,,,,,,
718973,"CZK 18,999",50.12934,14.47498,"Střekovská, Prague - Kobylisy",2 bedroom with open-plan kitchen,68 m²,"CZK 4,500",Furnished,5,No,No,No,Yes,No,Yes,No,01. 07. 2022,231,482,179,582,167,583,276,361,"1,418",140,Excellent,"CZK 25,000",Personal,Prefab concrete building,,,,,C,,,,,,,,
554807,"CZK 21,500",50.0465752,14.4461258,Prague - Krč,3 bedroom,76 m²,"CZK 2,500",Furnished,2,No,No,Yes,No,Yes,Yes,No,01. 07. 2021,176,470,65,126,78,163,395,656,806,289,Excellent,CZK 1,Personal,Brick building,,1 to 10 years years,District heating,Middle floor,C,Premium materials and solutions,Overall,,,,,,
718967,"CZK 13,000",50.03184,14.61163,"Václava Trojana, Prague - Uhříněves",Studio,29 m²,"CZK 4,000",Partially furnished,2,Yes,No,Yes,No,No,Yes,No,20. 05. 2022,93,"1,196",113,"1,204",703,"1,149",721,"1,224",865,197,New build,"CZK 26,000",Personal,Brick building,,,,,B,,,,,,,,
572011,"CZK 17,000",50.0796951,14.4226227,"Vodičkova, Prague - Nové Město",Studio,35 m²,"CZK 2,000",Furnished,4,No,No,No,No,No,Yes,No,26. 04. 2022,32,662,17,27,49,163,134,701,448,424,Excellent,"CZK 19,000",Personal,Brick building,,,,,D,,,,,,,,
718968,"CZK 18,000",50.07306,14.43085,"Tyršova, Prague - Nové Město",Studio,26 m²,"CZK 3,000",Furnished,2,Yes,No,No,No,No,Yes,No,10. 06. 2022,183,529,119,213,30,197,368,453,637,687,New build,"CZK 22,000",Personal,Brick building,,1 to 10 years years,Central heating,Middle floor,B,Standard materials and solutions,Overall,,,,,,
718966,"CZK 18,000",50.06954,14.29798,"Žalanského, Prague - Řepy",2 bedroom,105 m²,"CZK 5,000",Partially furnished,3,No,No,No,No,Yes,No,No,01. 07. 2022,191,"1,227",207,"1,262",26,940,751,629,360,,Excellent,"CZK 36,000",Personal,Other,,,,,G,,,,,,,,
555722,"CZK 30,000",50.092778667827,14.497693376196,"Spojovací, Prague - Hrdlořezy",3 bedroom with open-plan kitchen,94 m²,"CZK 7,000",Partially furnished,4,Yes,No,No,No,No,Yes,Yes,01. 06. 2022,29,558,174,908,184,221,535,337,794,249,New build,"CZK 60,000",Personal,Low-energy building,Yes,1 to 10 years years,District heating,Middle floor,B,,,,,,,,
718959,"CZK 18,000",50.05241,14.43289,"Pujmanové, Prague - Nusle",2 bedroom with open-plan kitchen,69 m²,"CZK 4,000",Partially furnished,4,No,No,Yes,No,No,Yes,No,18. 05. 2022,223,962,460,305,316,220,255,168,385,162,Excellent,"CZK 40,000",Personal,Prefab concrete building,,,,,G,,,,,,,,
502408,"CZK 13,000",50.044295221471,14.516757287311,"Bratislavská, Prague - Hostivař",Studio,45 m²,"CZK 3,000",Furnished,1,Yes,No,No,No,No,No,No,,215,105,171,160,974,306,"1,227",120,,,,"CZK 25,000",Personal,Brick building,,1 to 10 years years,,,,,,,,,,,
488054,"CZK 12,500",50.0869774,14.5608294,"Staňkovská, Prague - Hostavice",2 bedroom,70 m²,"CZK 4,000",Partially furnished,,No,No,No,No,No,No,No,01. 06. 2022,200,371,309,337,,,,,,,,"CZK 22,000",Personal,Brick building,,,Gas boiler,Ground floor,D,Standard materials and solutions,,,,,,,
718952,"CZK 8,000",50.09105,14.35543,"Na Petřinách, Prague - Veleslavín",1 bedroom,35 m²,"CZK 4,000",Partially furnished,-1,No,No,Yes,No,No,No,No,01. 06. 2022,317,580,330,906,570,361,399,286,529,221,Good,"CZK 12,000",Personal,Brick building,,,,,G,,,,,,,,
540333,"CZK 18,500",50.054241,14.4389927,Prague - Nusle,2 bedroom with open-plan kitchen,65 m²,"CZK 4,000",Furnished,1,No,No,Yes,No,No,Yes,No,01. 06. 2022,18,891,274,380,138,358,680,176,503,478,Excellent,"CZK 45,000",Personal,Brick building,,,Central heating,,C,,,,,,,,
501198,"CZK 14,000",50.0665558,14.4340008,"Rejskova, Prague - Vinohrady",Studio,41 m²,"CZK 1,000",Furnished,,No,No,No,No,No,No,No,01. 06. 2022,320,595,317,729,257,512,385,438,284,403,Excellent,"CZK 14,000",Personal,Brick building,,30 to 50 years years,Geothermal heat pump,Ground floor,E,Standard materials and solutions,Interior,,,,,,
501025,"CZK 20,500",50.0944607,14.3498207,"Pod dvorem, Prague - Veleslavín",Studio,40 m²,"CZK 4,500",Furnished,4,No,Yes,Yes,No,Yes,Yes,Yes,17. 05. 2022,306,986,351,"1,015",331,303,506,614,815,533,,"CZK 30,000",Personal,Low-energy building,,1 to 10 years years,District heating,Top floor,B,Standard materials and solutions,,,,,,,
544719,"CZK 12,700",50.1291352,14.4935568,"Makedonská, Prague - Střížkov",Studio,37 m²,"CZK 1,899",Partially furnished,3,Yes,Yes,No,No,No,Yes,No,01. 06. 2022,199,947,45,872,473,319,446,323,"1,026",154,,"CZK 25,000",Personal,Brick building,Yes,1 to 10 years years,District heating,Middle floor,,Premium materials and solutions,,,,,,,
608664,"CZK 13,000",50.04688,14.346961,"Ovčí hájek, Prague - Stodůlky",1 bedroom with open-plan kitchen,48 m²,"CZK 3,000",Furnished,3,No,No,No,No,Yes,Yes,No,01. 07. 2022,82,687,189,448,203,580,169,477,"1,229",246,Excellent,"CZK 13,000",Personal,Prefab concrete building,,1 to 10 years years,District heating,Middle floor,B,Standard materials and solutions,Bathroom unit,,,,,,
496542,"CZK 13,000",50.1402095,14.5198279,"Miroslava Hajna, Prague - Letňany",Studio,40 m²,"CZK 3,000",Partially furnished,3,Yes,No,Yes,No,Yes,Yes,Yes,01. 06. 2022,408,553,"1,056","1,140",257,677,954,"1,010","1,213",234,New build,"CZK 13,000",Personal,Brick building,,1 to 10 years years,District heating,Middle floor,,,,,,,,,
718384,"CZK 12,500",50.08665,14.44945,"Husitská, Prague - Žižkov",Small studio,15 m²,"CZK 2,700",Furnished,2,No,No,No,No,No,No,No,16. 05. 2022,95,437,111,407,83,414,220,370,220,650,Good,"CZK 12,500",Personal,Brick building,,,,,G,,,,,,,,
718394,"CZK 28,000",50.07433,14.43571,"Belgická, Prague - Vinohrady",3 bedroom,102 m²,"CZK 2,000",Partially furnished,4,No,No,No,No,No,Yes,No,13. 05. 2022,174,203,115,212,4,103,154,311,768,893,Excellent,"CZK 28,000",Personal,Brick building,,,,,G,,,,,,,,
601337,"CZK 12,500",50.09029,14.469048,"Koněvova, Prague - Žižkov",Studio,18 m²,"CZK 2,500",Unfurnished,3,No,No,No,No,No,Yes,No,16. 05. 2022,32,841,113,156,3,128,463,481,545,433,Excellent,"CZK 12,500",Personal,Brick building,,1 to 10 years years,Other,Middle floor,G,Standard materials and solutions,Overall,,,,,,
718098,"CZK 27,848",50.0640089,14.5104168,"Konojedská, Prague - Strašnice",1 bedroom with open-plan kitchen,114 m²,"CZK 9,282",Furnished,4,No,Yes,No,No,No,Yes,Yes,01. 06. 2022,321,574,"1,181",15,565,319,392,406,312,,,,,,,,,,,,,,,,,,
718940,"CZK 19,900",50.08528027777,14.56309333333,"U Hostavického potoka, Prague - Hostavice",1 bedroom with open-plan kitchen,46 m²,"CZK 2,539",Furnished,1,No,No,Yes,No,Yes,Yes,No,,337,345,596,186,,,,,,,New build,"CZK 22,529",Personal,Brick building,Yes,,,,C,,,,,,,"CZK 22,529

                                
                                
                
i",
718914,"CZK 16,500",50.06357,14.50691,"Přetlucká, Prague - Strašnice",2 bedroom,42 m²,"CZK 3,500",Partially furnished,1,No,No,No,No,No,No,No,23. 05. 2022,217,"1,062",645,738,384,689,687,656,545,525,Excellent,"CZK 20,000",Personal,Brick building,,,,,G,,,,,,,,
715217,"CZK 16,000",50.13348,14.36849,"Špačkova, Prague - Suchdol",1 bedroom with open-plan kitchen,37 m²,"CZK 3,500",Partially furnished,1,Yes,No,No,No,No,No,No,01. 05. 2022,124,"1,123",422,757,655,"1,104","1,301","1,113","1,139",260,Excellent,"CZK 16,000",Personal,Brick building,,,,,B,,,,,,,,
608892,"CZK 12,500",50.1089546,14.5569481,"Za černým mostem, Prague - Kyje",Studio,30 m²,"CZK 3,500",Furnished,2,No,No,No,No,No,Yes,No,15. 06. 2022,163,788,123,36,742,405,"1,310","1,425",496,,Excellent,"CZK 12,500",Personal,Brick building,,1 to 10 years years,District heating,Middle floor,G,Standard materials and solutions,Interior,,,,,,
718934,"CZK 13,990",50.10159944444,14.43093722222,"Veletržní, Prague - Holešovice",1 bedroom,51 m²,"CZK 1,283",Unfurnished,2,No,No,Yes,No,No,Yes,No,,184,446,180,282,181,281,301,287,665,,Good,"CZK 15,273",Personal,Brick building,,,,,G,,,,,,,"CZK 15,273

                                
                                
                
i",
27966,"CZK 16,000",50.0757964,14.4035156,"Štefánikova, Prague - Smíchov",1 bedroom,52 m²,"CZK 2,000",Unfurnished,3,No,Yes,No,No,No,No,No,01. 06. 2022,28,239,70,78,57,33,265,"1,013",833,438,,"CZK 20,000",Personal,Brick building,,,Other,Middle floor,G,,,,,,,,
362081,"CZK 30,000",50.0689681,14.399637,Prague - Smíchov,1 bedroom with open-plan kitchen,59 m²,"CZK 6,000",Furnished,4,Yes,No,No,No,No,Yes,No,,190,45,57,430,174,151,335,560,774,312,,"CZK 36,000",Personal,Brick building,,1 to 10 years years,,Middle floor,,,,,,,,,
718923,"CZK 37,500",50.0633237,14.4440058,"Mečislavova, Prague - Nusle",1 bedroom with open-plan kitchen,60 m²,"CZK 12,500",Furnished,4,Yes,No,No,No,No,Yes,No,16. 06. 2022,242,542,99,271,176,314,456,822,634,593,,,,,,,,,,,,,,,,,
718922,"CZK 30,000",50.0633237,14.4440058,"Mečislavova, Prague - Nusle",Studio,45 m²,"CZK 10,000",Furnished,5,No,No,No,No,No,Yes,No,09. 06. 2022,242,542,99,271,176,314,456,822,634,593,,,,,,,,,,,,,,,,,
718921,"CZK 37,500",50.0633237,14.4440058,"Mečislavova, Prague - Nusle",1 bedroom with open-plan kitchen,60 m²,"CZK 12,500",Furnished,2,No,No,No,No,No,Yes,No,04. 07. 2022,242,542,99,271,176,314,456,822,634,593,,,,,,,,,,,,,,,,,
718920,"CZK 37,500",50.0633237,14.4440058,"Mečislavova, Prague - Nusle",1 bedroom with open-plan kitchen,60 m²,"CZK 12,500",Furnished,3,No,Yes,No,No,No,Yes,No,01. 07. 2022,242,542,99,271,176,314,456,822,634,593,,,,,,,,,,,,,,,,,
718918,"CZK 15,000",50.03627,14.33514,"Petrbokova, Prague - Stodůlky",Studio,43 m²,"CZK 2,000",Furnished,3,Yes,No,No,No,No,No,No,01. 06. 2022,146,663,192,990,143,607,310,577,370,243,Excellent,"CZK 30,000",Personal,Other,,,,,A,,,,,,,,
714217,"CZK 79,000",50.09653,14.34031,"Ke Dvoru, Prague - Vokovice",2 bedroom with open-plan kitchen,164 m²,"CZK 20,000",Furnished,4,No,Yes,Yes,No,Yes,Yes,No,17. 05. 2022,394,719,228,720,786,603,890,166,618,,New build,"CZK 158,000",Personal,Other,,,,,B,,,,,,,,
708271,"CZK 11,000",50.08458,14.47054,"Jana Želivského, Prague - Žižkov",Studio,29 m²,"CZK 4,000",Furnished,5,No,No,No,No,No,Yes,No,15. 05. 2022,76,143,67,473,86,349,656,604,456,529,Good,"CZK 22,000",Personal,Brick building,,,Gas boiler,Middle floor,D,Standard materials and solutions,Interior,,,,,,
375504,"CZK 16,600",50.0678382,14.3706854,Prague - Košíře,1 bedroom with open-plan kitchen,58 m²,"CZK 2,773",Partially furnished,2,No,No,No,No,Yes,Yes,No,21. 05. 2022,348,583,98,393,284,341,406,"1,061",433,249,Excellent,"CZK 16,600",Personal,Brick building,,1 to 10 years years,,Middle floor,,,,,,,,,
659457,"CZK 12,000",50.08643,14.44377,"Řehořova, Prague - Žižkov",1 bedroom,40 m²,"CZK 3,600",Furnished,3,No,No,No,No,No,No,No,01. 06. 2021,261,751,429,540,378,737,510,550,592,744,Excellent,"CZK 30,000",Personal,Brick building,,,District heating,Middle floor,G,,Interior,,,,,,
718908,"CZK 22,000",50.1012,14.37707,"Komornická, Prague - Dejvice",2 bedroom,72 m²,"CZK 2,800",Partially furnished,4,No,No,Yes,Yes,No,No,No,01. 08. 2022,329,"1,376",416,989,530,568,453,586,485,517,Good,"CZK 20,000",Cooperative,Brick building,,1 to 10 years years,Central heating,Top floor,G,Standard materials and solutions,Interior,,,,,,
718906,"CZK 15,999",50.0586031,14.3773019,"Peroutkova, Prague - Jinonice",1 bedroom with open-plan kitchen,32 m²,"CZK 3,000",Furnished,4,No,No,Yes,No,No,Yes,No,06. 06. 2022,224,560,239,988,377,756,"1,151",453,"1,164",130,Excellent,"CZK 20,000",Personal,Other,,,,,C,,,,,,,,
644690,"CZK 13,000",50.080194,14.416768,"V Jirchářích, Prague - Nové Město",1 bedroom,37 m²,"CZK 2,000",Furnished,,No,No,Yes,No,No,Yes,No,16. 05. 2022,279,730,79,243,30,221,216,329,224,472,Excellent,"CZK 13,000",Personal,Brick building,,,,Ground floor,G,Standard materials and solutions,,,,,,,
658733,"CZK 10,500",50.02158,14.41483,"Pod Lysinami, Prague - Hodkovičky",Studio,29 m²,"CZK 2,000",Partially furnished,4,No,No,No,No,Yes,Yes,No,01. 07. 2022,308,"1,235","1,191","1,266",545,"1,482",239,,,,Excellent,"CZK 10,500",Personal,Prefab concrete building,,,,,G,,,,,,,,
718903,"CZK 20,000",50.0124216,14.4017606,"Vrátnická, Prague - Modřany",1 bedroom with open-plan kitchen,58 m²,"CZK 3,000",Partially furnished,5,Yes,No,No,No,Yes,No,No,17. 05. 2022,79,953,290,"1,197",615,"1,258","1,259",537,,,New build,"CZK 25,000",Personal,Brick building,,,,,B,,,,,,,,
346191,"CZK 8,500",49.9626584276,14.3836001307,"Neumannova, Prague - Zbraslav",Small studio,23 m²,"CZK 1,800",Partially furnished,1,No,No,No,No,No,Yes,No,01. 07. 2022,337,263,367,551,768,128,163,,,,New build,"CZK 20,000",Personal,Brick building,Yes,10 to 30 years years,District heating,Middle floor,B,Premium materials and solutions,,,,,,,
718347,"CZK 31,736",50.0928722,14.4500782,"Křižíkova a, Prague - Karlín",2 bedroom with open-plan kitchen,95 m²,"CZK 10,579",Furnished,3,No,Yes,No,No,No,Yes,Yes,06. 06. 2022,123,293,167,222,66,246,411,"1,258",283,254,,,,,,,,,,,,,,,,,
718901,"CZK 20,000",50.08336,14.36169,"Bělohorská, Prague - Břevnov",2 bedroom with open-plan kitchen,54 m²,"CZK 3,000",Partially furnished,2,No,No,Yes,No,No,Yes,No,17. 05. 2022,103,285,132,108,160,175,345,829,246,419,Excellent,"CZK 20,000",Personal,Brick building,,,,,G,,,,,,,,
718899,"CZK 17,000",50.07538,14.37513,"Pod Hybšmankou, Prague - Smíchov",1 bedroom with open-plan kitchen,52 m²,"CZK 2,000",Partially furnished,1,No,No,Yes,No,No,No,No,01. 06. 2022,132,927,550,"1,121",623,"1,103",966,788,425,367,Excellent,"CZK 17,000",Personal,Brick building,,,,,G,,,,,,,,
718898,"CZK 19,500",50.06558,14.42558,"Oldřichova, Prague - Nusle",1 bedroom with open-plan kitchen,43 m²,"CZK 2,500",Furnished,2,No,No,No,No,No,No,No,01. 06. 2022,144,"1,036",163,291,28,250,631,648,466,259,Excellent,"CZK 30,000",Personal,Brick building,,,,,G,,,,,,,,
662737,"CZK 19,000",50.05047,14.53359,"Nad Botičem, Prague - Hostivař",4 bedroom,115 m²,"CZK 4,200",Furnished,2,No,No,No,No,No,No,No,01. 07. 2022,433,"1,022",766,"1,339",369,"1,022",451,872,736,739,Excellent,"CZK 19,000",Personal,Brick building,,,,,F,,Interior,,,,,,
673789,"CZK 11,000",50.06065,14.40255,"Nad Koulkou, Prague - Smíchov",1 bedroom with open-plan kitchen,38 m²,"CZK 6,400",Partially furnished,1,No,No,No,No,No,No,No,23. 05. 2022,60,763,278,"1,167",222,236,843,964,904,618,Excellent,"CZK 17,400",Personal,Brick building,,,,,G,,,,,,,,
712729,"CZK 16,200",50.03251,14.60945,"K Netlukám, Prague - Uhříněves",1 bedroom with open-plan kitchen,58 m²,"CZK 4,700",Partially furnished,1,No,Yes,Yes,No,Yes,Yes,Yes,13. 05. 2022,175,"1,088",254,"1,096",595,"1,041",613,"1,116",758,357,Excellent,"CZK 40,000",Personal,Other,,10 to 30 years years,Central heating,Ground floor,,Standard materials and solutions,,24 m²,,,,,
443009,"CZK 18,000",50.0792699,14.458398,"Lucemburská, Prague - Žižkov",2 bedroom,50 m²,"CZK 3,500",Furnished,1,No,No,No,No,No,No,No,01. 06. 2022,264,535,156,356,58,452,479,380,709,186,Excellent,"CZK 25,000",Personal,Brick building,,,Central heating,Middle floor,,Standard materials and solutions,Overall,,,,,,
717540,"CZK 13,000",50.00861,14.41813,"Botevova, Prague - Modřany",1 bedroom,31 m²,"CZK 3,500",Furnished,2,No,No,No,No,Yes,Yes,No,01. 06. 2022,272,674,461,465,534,490,207,779,"1,191",602,Excellent,"CZK 25,000",Personal,Prefab concrete building,,,,,C,,,,,,,,
718884,"CZK 17,000",50.07382,14.43183,"Rumunská, Prague - Vinohrady",2 bedroom,60 m²,CZK 800,Unfurnished,1,No,No,No,No,No,No,No,01. 06. 2022,183,428,73,94,46,21,192,311,569,636,Excellent,"CZK 34,000",Personal,Brick building,,,,,G,,,,,,,,
680837,"CZK 23,500",50.0856796,14.4465529,"Husinecká, Prague - Žižkov",2 bedroom with open-plan kitchen,77 m²,CZK 670,Partially furnished,3,No,No,No,No,No,No,No,01. 06. 2022,29,448,22,86,83,468,370,198,529,422,Excellent,"CZK 30,000",Personal,Brick building,,1 to 10 years years,Gas boiler,Middle floor,C,Standard materials and solutions,Overall,,,,,,
654037,"CZK 20,500",50.074545,14.4428032,Prague - Vinohrady,1 bedroom with open-plan kitchen,55 m²,"CZK 1,500",Furnished,3,No,No,Yes,No,No,Yes,No,01. 06. 2022,195,0,134,506,77,431,179,311,548,303,Excellent,"CZK 20,500",Personal,Brick building,,,Gas boiler,Middle floor,B,,Overall,500 m²,,,,,
717523,"CZK 20,000",50.02973,14.59703,"Oty Bubeníčka, Prague - Uhříněves",Studio,32 m²,"CZK 3,000",Furnished,3,No,No,Yes,Yes,Yes,Yes,No,15. 06. 2022,153,292,295,401,213,265,711,814,918,101,New build,"CZK 50,000",Personal,Brick building,,,,,B,,,,,,,,
657490,"CZK 13,500",50.03215,14.37221,"Werichova, Prague - Hlubočepy",3 bedroom with open-plan kitchen,80 m²,"CZK 8,024",Partially furnished,1,No,No,No,Yes,Yes,Yes,No,01. 07. 2022,125,477,280,457,289,508,629,219,844,298,Good,"CZK 30,000",Cooperative,Prefab concrete building,,,District heating,Raised ground floor,C,Standard materials and solutions,,,,,,,
699667,"CZK 34,500",50.08581,14.46733,"Pitterova, Prague - Žižkov",1 bedroom with open-plan kitchen,106 m²,"CZK 7,500",Furnished,13,No,Yes,No,No,Yes,Yes,No,15. 05. 2022,414,428,459,605,193,334,656,302,197,59,New build,"CZK 35,000",Personal,Other,,,,,C,,,,,,,,
581196,"CZK 10,500",50.127672,14.420039,"Olštýnská, Prague - Troja",Studio,26 m²,"CZK 2,500",Partially furnished,17,No,No,Yes,No,No,Yes,No,01. 01. 1970,325,244,275,314,51,222,726,979,"1,136",350,Excellent,"CZK 15,000",Personal,Prefab concrete building,,30 to 50 years years,Central heating,Middle floor,C,Standard materials and solutions,,,,,,,
574401,"CZK 16,000",50.0979657,14.4846656,"Odlehlá, Prague - Vysočany",1 bedroom with open-plan kitchen,67 m²,"CZK 3,000",Furnished,3,Yes,No,No,No,Yes,No,No,01. 07. 2022,300,"1,086",528,"1,000",446,849,569,485,540,176,,"CZK 32,000",Personal,Brick building,,,Central heating,Attic,,,Overall,,,,,,
718317,"CZK 16,000",50.02676,14.53331,"Jurkovičova, Prague - Háje",1 bedroom with open-plan kitchen,53 m²,"CZK 5,000",Unfurnished,2,Yes,No,Yes,No,No,Yes,Yes,15. 06. 2022,206,781,535,510,630,751,318,636,811,321,New build,"CZK 30,000",Personal,Brick building,,,,,G,,,,,,,,
718860,"CZK 11,000",50.10374,14.51252,"Podkovářská, Prague - Vysočany",Studio,31 m²,"CZK 3,870",Furnished,3,Yes,No,No,No,No,Yes,No,01. 06. 2022,144,254,"1,308",959,452,690,"1,125",849,227,,Excellent,"CZK 14,870",Personal,Brick building,,,District heating,,G,,,,,,,,
631335,"CZK 20,000",50.051167,14.377494,Prague - Jinonice,1 bedroom with open-plan kitchen,57 m²,"CZK 4,500",Furnished,,No,Yes,Yes,No,Yes,Yes,No,17. 05. 2022,736,977,905,952,781,"1,088","1,139","1,069",,,New build,"CZK 40,000",Personal,Brick building,,1 to 10 years years,Central heating,Ground floor,B,Premium materials and solutions,,38 m²,,,,,
352108,"CZK 12,000",50.025866,14.5230072,"Doubravická, Prague - Chodov",1 bedroom,41 m²,"CZK 2,000",Partially furnished,9,Yes,No,No,No,No,No,No,01. 07. 2022,123,903,136,854,253,398,440,506,950,186,Excellent,"CZK 12,000",Personal,Prefab concrete building,,,District heating,,,,,,,,,,
630704,"CZK 16,000",50.106159,14.485637,"Podvinný Mlýn, Prague - Libeň",2 bedroom,54 m²,,,5,No,No,Yes,Yes,No,Yes,No,01. 06. 2022,216,363,111,307,195,581,269,551,454,197,Excellent,"CZK 20,000",Personal,Prefab concrete building,,,District heating,Middle floor,G,,Interior,,,,,,
718807,"CZK 10,000",50.02214,14.45663,"Sládkovičova, Prague - Krč",Studio,26 m²,"CZK 2,500",Partially furnished,5,No,No,Yes,Yes,No,Yes,No,23. 05. 2022,437,793,681,363,328,528,"1,234",745,627,,Good,"CZK 15,000",Personal,Prefab concrete building,,,,,E,,,,,,,,
717599,"CZK 59,250",50.0710929,14.4032595,"Stroupežnického, Prague - Smíchov",3 bedroom with open-plan kitchen,90 m²,"CZK 19,750",Furnished,2,No,No,No,No,No,Yes,No,21. 05. 2022,140,528,224,126,38,67,511,"1,001","1,181",559,,,,,,,,,,,,,,,,,
717644,"CZK 43,500",50.0723321,14.4399493,"Jana Masaryka, Prague - Vinohrady",2 bedroom,82 m²,"CZK 14,500",Furnished,3,No,No,No,No,No,Yes,No,01. 07. 2022,155,369,147,651,45,545,205,328,671,484,,,,,,,,,,,,,,,,,
717703,"CZK 51,000",50.0903205,14.4200069,"Elišky Krásnohorské, Prague - Josefov",2 bedroom,110 m²,"CZK 17,000",Furnished,5,No,No,No,No,No,Yes,No,25. 06. 2022,110,373,218,256,23,273,141,384,214,476,,,,,,,,,,,,,,,,,
717682,"CZK 47,340",50.1025661,14.4522431,"Na Maninách, Prague - Holešovice",1 bedroom with open-plan kitchen,69 m²,"CZK 15,780",Furnished,6,Yes,Yes,No,No,No,Yes,No,21. 05. 2022,105,350,144,146,109,151,432,394,290,329,,,,,,,,,,,,,,,,,
717668,"CZK 36,379",50.0925119,14.4502616,"Křižíkova, Prague - Karlín",2 bedroom,88 m²,"CZK 12,126",Furnished,5,No,No,No,No,No,Yes,Yes,01. 06. 2022,81,251,125,181,24,205,369,"1,216",241,212,,,,,,,,,,,,,,,,,
717670,"CZK 38,745",50.0928722,14.4500782,"Křižíkova a, Prague - Karlín",1 bedroom with open-plan kitchen,66 m²,"CZK 12,915",Furnished,1,No,Yes,No,No,No,Yes,Yes,21. 05. 2022,123,293,167,222,66,246,411,"1,258",283,254,,,,,,,,,,,,,,,,,
717680,"CZK 24,439",50.0735628,14.4373343,"Uruguayská, Prague - Vinohrady",Studio,26 m²,"CZK 8,146",Furnished,1,No,No,No,No,No,Yes,No,01. 06. 2022,193,168,131,353,18,256,47,213,857,690,,,,,,,,,,,,,,,,,
717664,"CZK 49,650",50.0882058,14.4262315,"Rybná, Prague - Staré Město",1 bedroom with open-plan kitchen,53 m²,"CZK 16,550",Furnished,3,No,No,No,No,No,Yes,No,06. 06. 2022,281,192,58,183,11,368,315,297,289,305,,,,,,,,,,,,,,,,,
717643,"CZK 51,656",50.0865843,14.4323212,"Dlážděná, Prague - Nové Město",1 bedroom with open-plan kitchen,60 m²,"CZK 17,219",Furnished,4,No,No,No,No,No,Yes,No,01. 07. 2022,110,274,157,129,77,143,300,496,282,367,,,,,,,,,,,,,,,,,
717646,"CZK 39,971",50.0877117,14.4091678,"U Lužického semináře, Prague - Malá Strana",2 bedroom,56 m²,"CZK 13,324",Furnished,1,No,Yes,No,No,No,No,No,07. 06. 2022,337,356,19,335,43,634,392,362,865,215,,,,,,,,,,,,,,,,,
717648,"CZK 39,600",50.0876118,14.4080467,"Míšeňská, Prague - Malá Strana",1 bedroom with open-plan kitchen,46 m²,"CZK 13,200",Furnished,2,No,No,No,No,No,No,No,07. 06. 2022,249,259,109,237,65,537,295,274,806,231,,,,,,,,,,,,,,,,,
717652,"CZK 37,125",50.0739894,14.440101,"Francouzská, Prague - Vinohrady",2 bedroom,90 m²,"CZK 12,375",Furnished,2,No,No,No,No,No,Yes,No,30. 06. 2022,149,274,60,441,20,421,59,552,690,457,,,,,,,,,,,,,,,,,
717597,"CZK 34,425",50.0749602,14.4305105,"Legerova, Prague - Vinohrady",1 bedroom,30 m²,"CZK 11,475",Furnished,2,No,No,No,No,No,Yes,No,21. 05. 2022,22,463,81,96,72,158,361,436,384,451,,,,,,,,,,,,,,,,,
717635,"CZK 33,675",50.0643299,14.4102127,"Strakonická, Prague - Smíchov",Studio,30 m²,"CZK 11,225",Furnished,3,No,No,No,No,No,Yes,No,30. 05. 2022,211,382,250,989,170,745,812,"1,050",387,543,,,,,,,,,,,,,,,,,
717629,"CZK 38,625",50.0895308,14.4237131,"Masná, Prague - Staré Město",1 bedroom,38 m²,"CZK 12,875",Furnished,4,No,No,No,No,No,Yes,No,30. 05. 2022,69,269,125,89,15,106,70,52,156,144,,,,,,,,,,,,,,,,,
717626,"CZK 22,493",50.1013638,14.4546402,"V Háji, Prague - Holešovice",Studio,30 m²,"CZK 7,497",Furnished,3,No,No,No,No,No,Yes,Yes,01. 07. 2022,236,686,234,408,154,248,547,510,133,319,,,,,,,,,,,,,,,,,
717622,"CZK 36,675",50.0830187,14.4654473,"Olšanská h, Prague - Žižkov",1 bedroom with open-plan kitchen,62 m²,"CZK 12,225",Furnished,7,No,No,No,No,No,Yes,No,27. 06. 2022,99,368,492,556,426,352,496,585,430,491,,,,,,,,,,,,,,,,,
717608,"CZK 41,325",50.0865843,14.4323212,"Dlážděná, Prague - Nové Město",1 bedroom with open-plan kitchen,67 m²,"CZK 13,775",Furnished,4,Yes,Yes,No,No,No,Yes,No,30. 06. 2022,110,274,157,129,77,143,300,496,282,367,,,,,,,,,,,,,,,,,
717609,"CZK 39,000",50.0865843,14.4323212,"Dlážděná, Prague - Nové Město",1 bedroom with open-plan kitchen,45 m²,"CZK 13,000",Furnished,2,No,No,No,No,No,Yes,No,01. 07. 2022,110,274,157,129,77,143,300,496,282,367,,,,,,,,,,,,,,,,,
718017,"CZK 47,025",50.0865843,14.4323212,"Dlážděná, Prague - Nové Město",1 bedroom with open-plan kitchen,64 m²,"CZK 15,675",Furnished,3,Yes,Yes,No,No,No,Yes,No,09. 07. 2022,110,274,157,129,77,143,300,496,282,367,,,,,,,,,,,,,,,,,
717604,"CZK 31,875",50.0902753,14.4260311,"Rybná, Prague - Staré Město",Studio,40 m²,"CZK 10,625",Furnished,1,No,No,No,No,No,No,No,26. 05. 2022,124,153,54,67,17,194,209,158,151,202,,,,,,,,,,,,,,,,,
717603,"CZK 23,625",50.097327,14.4663608,"Nekvasilova, Prague - Karlín",1 bedroom with open-plan kitchen,40 m²,"CZK 7,875",Furnished,7,No,No,No,No,No,Yes,Yes,01. 07. 2022,148,"1,069",121,"1,015",205,744,547,541,774,101,,,,,,,,,,,,,,,,,
718844,"CZK 11,000",49.98822,14.41096,"Za Sídlištěm, Prague - Komořany",1 bedroom with open-plan kitchen,45 m²,"CZK 4,000",Partially furnished,5,No,No,Yes,No,No,Yes,No,17. 05. 2022,375,352,354,522,,,,,,,Good,"CZK 15,000",Personal,Prefab concrete building,,,,,G,,,,,,,,
718595,"CZK 53,289",50.0928722,14.4500782,"Křižíkova a, Prague - Karlín",3 bedroom with open-plan kitchen,160 m²,"CZK 17,763",Furnished,6,No,Yes,No,No,No,Yes,Yes,01. 06. 2022,123,293,167,222,66,246,411,"1,258",283,254,,,,,,,,,,,,,,,,,
717823,"CZK 60,000",50.0844534,14.4142848,"Náprstkova, Prague - Staré Město",1 bedroom with open-plan kitchen,72 m²,"CZK 20,000",Furnished,2,No,No,No,No,No,No,No,08. 07. 2022,81,691,54,466,24,287,520,610,545,144,,,,,,,,,,,,,,,,,
698214,"CZK 38,500",50.08594,14.45368,"Prokopova, Prague - Žižkov",3 bedroom with open-plan kitchen,94 m²,"CZK 7,000",Furnished,7,No,Yes,Yes,No,Yes,Yes,No,01. 07. 2022,129,280,56,403,157,288,138,242,310,318,Excellent,"CZK 77,000",Personal,Brick building,,1 to 10 years years,Central heating,Top floor,B,Premium materials and solutions,,,,,,,
559780,"CZK 14,000",50.0611797,14.4438006,Prague - Nusle,2 bedroom,42 m²,CZK 600,Unfurnished,1,No,No,No,No,No,No,No,01. 07. 2022,231,750,108,455,243,479,514,824,449,411,Excellent,"CZK 14,000",Personal,Brick building,,,,Ground floor,,Standard materials and solutions,Overall,,,,,,
494519,"CZK 14,000",50.1137092,14.4733803,"Ve Vrchu, Prague - Libeň",Studio,36 m²,"CZK 2,300",Furnished,3,No,No,No,No,No,Yes,No,01. 08. 2021,94,"1,369",143,"1,013",65,581,360,"1,358",659,172,New build,"CZK 14,000",Personal,Brick building,,1 to 10 years years,District heating,Middle floor,,Standard materials and solutions,Overall,,,,,,
718279,"CZK 20,000",50.1038,14.51146,"Pod Harfou, Prague - Vysočany",1 bedroom with open-plan kitchen,58 m²,"CZK 3,500",Furnished,6,No,Yes,No,No,Yes,Yes,No,01. 06. 2022,328,161,"1,495","1,181",601,877,"1,233",957,55,,Good,"CZK 20,000",Personal,Brick building,,,,,G,,,,,,,,
465918,"CZK 17,000",50.0715092,14.409671,"Na Celné, Prague - Smíchov",1 bedroom,37 m²,"CZK 3,000",Partially furnished,3,No,No,No,No,No,No,No,21. 05. 2022,211,650,144,146,139,547,689,941,818,378,,"CZK 17,000",Personal,Brick building,,,,,,,Overall,,,,,,
718822,"CZK 18,500",50.01668,14.5816,"Pýchavková, Prague - Pitkovice",1 bedroom with open-plan kitchen,131 m²,"CZK 4,250",Partially furnished,1,No,Yes,Yes,No,Yes,Yes,Yes,01. 07. 2022,288,"1,073",,,,,,,,,New build,"CZK 18,000",Personal,Prefab concrete building,,,,,G,,,,,,,,
643020,"CZK 16,000",50.030915,14.534496,"Hlavatého, Prague - Háje",1 bedroom with open-plan kitchen,45 m²,"CZK 3,500",Furnished,13,No,No,Yes,No,No,Yes,No,01. 06. 2022,115,327,217,258,364,597,283,318,671,249,Excellent,"CZK 32,000",Personal,Prefab concrete building,,1 to 10 years years,Central heating,Middle floor,C,Premium materials and solutions,Overall,,,,,,
538505,"CZK 14,500",50.1025207,14.4273498,"Umělecká, Prague - Holešovice",1 bedroom,42 m²,"CZK 6,000",Furnished,1,No,No,No,No,No,No,No,18. 05. 2022,201,572,150,298,174,412,100,159,458,,,"CZK 20,000",Personal,Brick building,,,,,,,,,,,,,
718811,"CZK 13,500",50.02852,14.36832,"Wassermannova, Prague - Hlubočepy",Studio,37 m²,"CZK 2,500",Partially furnished,1,No,No,Yes,No,No,Yes,No,16. 05. 2022,164,"1,064",291,"1,055",236,"1,053",0,431,355,300,New build,"CZK 20,000",Personal,Brick building,,,,,A,,,,,,,,
688162,"CZK 18,500",50.0430221,14.4610878,"Jihlavská, Prague - Michle",2 bedroom with open-plan kitchen,67 m²,"CZK 1,500",Partially furnished,4,No,No,No,No,No,Yes,No,01. 06. 2022,158,788,313,817,38,212,667,721,681,351,Excellent,"CZK 35,000",Personal,Brick building,,,,,C,,,,,,,,
718809,"CZK 9,000",50.01257,14.42,"Mazancova, Prague - Modřany",1 bedroom with open-plan kitchen,54 m²,"CZK 5,000",Partially furnished,2,No,No,Yes,No,No,Yes,No,17. 05. 2022,195,"1,127",141,"1,029",896,"1,054",270,224,962,239,Good,"CZK 14,000",Personal,Prefab concrete building,,,,,G,,,,,,,,
718810,"CZK 9,900",50.1276,14.4148,"Mazurská, Prague - Troja",Studio,30 m²,"CZK 3,200",Partially furnished,3,No,No,Yes,No,No,Yes,No,16. 06. 2022,95,322,217,257,257,172,345,553,384,,Good,"CZK 9,900",Personal,Prefab concrete building,,,,,B,,,,,,,,
632286,"CZK 28,000",50.068862,14.438625,"Perucká, Prague - Vinohrady",2 bedroom,99 m²,"CZK 2,250",Partially furnished,2,No,No,No,No,Yes,No,No,13. 11. 2020,473,592,371,838,398,798,459,380,620,680,Good,"CZK 35,000",Personal,Brick building,,,,,G,,,,,,,,
542357,"CZK 10,500",50.0718204,14.4569012,"Bulharská, Prague - Vršovice",1 bedroom,47 m²,"CZK 1,010",Unfurnished,1,No,No,No,No,No,No,No,01. 06. 2022,187,648,75,424,143,422,117,304,686,275,Good,"CZK 21,000",Personal,Brick building,,10 to 30 years years,Electric boiler,Middle floor,,Standard materials and solutions,Interior,,,,,,
718797,"CZK 17,500",50.10562,14.54546,"Slévačská, Prague - Hloubětín",1 bedroom with open-plan kitchen,56 m²,"CZK 4,500",Furnished,3,No,Yes,Yes,No,Yes,Yes,Yes,01. 07. 2022,252,696,157,715,324,768,315,440,893,246,Excellent,"CZK 30,000",Personal,Brick building,,,,,A,,,,,,,,
718794,"CZK 26,933",50.0928722,14.4500782,"Křižíkova a, Prague - Karlín",Studio,50 m²,"CZK 8,977",Furnished,1,No,No,No,No,No,Yes,Yes,01. 06. 2022,123,293,167,222,66,246,411,"1,258",283,254,,,,,,,,,,,,,,,,,
718789,"CZK 13,990",50.04469388888,14.30318083333,"Ferrariho, Prague - Stodůlky",Studio,39 m²,"CZK 3,655",Unfurnished,2,No,No,No,No,Yes,Yes,No,,270,209,261,243,"1,040","1,137",743,903,196,,New build,"CZK 17,645",Cooperative,Other,Yes,,,,B,,,,,,,"CZK 17,645

                                
                                
                
i",
688668,"CZK 19,500",50.07413,14.3961,"Holečkova, Prague - Smíchov",Studio,40 m²,"CZK 3,000",Furnished,3,Yes,No,Yes,No,No,Yes,No,01. 06. 2022,70,937,289,648,121,632,234,"1,083","1,005",390,New build,"CZK 40,000",Personal,Brick building,,,,,G,,,,,,,,
718728,"CZK 19,500",50.01368,14.40018,"Vorařská, Prague - Modřany",1 bedroom with open-plan kitchen,73 m²,"CZK 2,300",Partially furnished,4,No,No,Yes,No,No,Yes,Yes,16. 05. 2022,229,"1,162",346,"1,458",876,"1,467","1,212",798,,,Excellent,"CZK 20,000",Personal,Brick building,,,,,C,,,,,,,,
718784,"CZK 7,500",50.0469838,14.5164035,"Vajdova, Prague - Hostivař",Studio,30 m²,"CZK 2,600",Partially furnished,8,No,No,No,No,No,Yes,No,17. 05. 2022,109,"1,445",267,"1,407",415,231,788,164,"1,278",139,Good,"CZK 7,500",Cooperative,Prefab concrete building,,,,,B,,,,,,,,
673049,"CZK 16,000",50.0392667,14.3313304,Prague - Stodůlky,1 bedroom with open-plan kitchen,43 m²,"CZK 4,000",Partially furnished,1,No,No,No,No,No,No,No,15. 05. 2022,340,883,374,854,434,493,633,"1,044",370,422,Excellent,"CZK 16,000",Cooperative,Brick building,,,,,C,,,,,,,,
718780,"CZK 45,000",50.07689,14.43612,"Římská, Prague - Vinohrady",3 bedroom,100 m²,"CZK 8,000",Partially furnished,1,Yes,No,No,No,No,Yes,No,16. 05. 2022,68,135,134,165,64,177,430,545,596,771,Excellent,,Cooperative,Brick building,,,,,E,,,,,,,,
718485,"CZK 34,128",50.0928722,14.4500782,"Křižíkova a, Prague - Karlín",1 bedroom,42 m²,"CZK 11,376",Furnished,5,No,No,No,No,No,Yes,Yes,01. 06. 2022,123,293,167,222,66,246,411,"1,258",283,254,,,,,,,,,,,,,,,,,
718775,"CZK 13,000",50.10853,14.53625,"Zelenečská, Prague - Hloubětín",2 bedroom,54 m²,"CZK 2,500",Partially furnished,3,Yes,No,Yes,No,No,Yes,No,01. 06. 2022,344,442,227,423,339,259,325,98,640,97,Excellent,"CZK 13,000",Personal,Brick building,,,District heating,Middle floor,G,Standard materials and solutions,Exterior,,,,,,
568565,"CZK 16,000",50.0710169,14.4493407,"Černomořská, Prague - Vršovice",1 bedroom with open-plan kitchen,42 m²,CZK 650,Furnished,2,No,No,Yes,No,No,No,No,01. 07. 2022,238,775,246,322,154,512,292,531,296,389,,"CZK 25,000",Personal,Brick building,,,,,,,,,,,,,
718360,"CZK 45,000",50.0795975,14.4273504,"Ve Smečkách, Prague - Nové Město",1 bedroom with open-plan kitchen,70 m²,"CZK 15,000",Furnished,4,No,No,No,No,No,Yes,No,03. 07. 2022,285,548,70,207,10,222,245,618,370,524,,,,,,,,,,,,,,,,,
350172,"CZK 16,000",50.0313256324,14.3923930653,"Lumiérů, Prague - Hlubočepy",2 bedroom,46 m²,"CZK 3,800",Furnished,4,Yes,Yes,No,No,No,No,No,01. 07. 2022,9,"1,359",674,"1,266",127,"1,325","1,491","1,477","1,456",182,,"CZK 30,000",Personal,Brick building,,10 to 30 years years,Central heating,Top floor,,Standard materials and solutions,Interior,,,,,,
718770,"CZK 21,000",50.07468,14.3949,"Švédská, Prague - Smíchov",1 bedroom with open-plan kitchen,65 m²,"CZK 1,700",Furnished,5,Yes,No,Yes,No,Yes,Yes,Yes,16. 05. 2022,52,989,268,730,310,684,316,930,"1,088",443,New build,"CZK 42,000",Personal,Low-energy building,,1 to 10 years years,Gas boiler,Middle floor,B,Premium materials and solutions,,,,,,,
642466,"CZK 30,000",50.016075,14.5309,"Na Formance, Prague - Újezd u Průhonic",2 bedroom with open-plan kitchen,135 m²,"CZK 5,500",Furnished,3,No,Yes,No,No,No,No,Yes,01. 06. 2022,164,"1,397","1,016",847,834,,,,,,Excellent,"CZK 50,000",Personal,Other,,,,,E,,,,,,,,
593841,"CZK 20,000",50.086497,14.503346,"Univerzitní, Prague - Malešice",1 bedroom with open-plan kitchen,56 m²,"CZK 4,500",Partially furnished,3,Yes,No,No,No,Yes,Yes,Yes,20. 05. 2022,283,734,764,834,562,939,698,504,770,448,New build,"CZK 20,000",Personal,Brick building,Yes,1 to 10 years years,District heating,Middle floor,G,Standard materials and solutions,,,,,,,
666825,"CZK 15,000",50.04542,14.45545,"Bítovská, Prague - Michle",Studio,24 m²,"CZK 3,000",Furnished,8,No,No,No,No,No,Yes,No,01. 09. 2022,284,478,434,537,228,466,430,303,390,47,Excellent,"CZK 27,000",Personal,Prefab concrete building,,,District heating,Middle floor,C,,Interior,,,,,,
718764,"CZK 15,500",50.064779,14.5525555,"Františka Jansy, Prague - Dolní Měcholupy",1 bedroom with open-plan kitchen,53 m²,"CZK 4,500",Partially furnished,2,No,No,No,Yes,No,Yes,No,16. 05. 2022,150,845,468,387,639,"1,165",809,100,,,New build,"CZK 15,500",Cooperative,Brick building,,,,,B,,,,,,,,
718761,"CZK 18,000",50.06652,14.42064,"Neklanova, Prague - Vyšehrad",1 bedroom with open-plan kitchen,39 m²,"CZK 3,000",Furnished,3,No,No,No,No,No,Yes,No,01. 06. 2022,171,"1,124",139,165,146,202,231,472,432,499,Excellent,"CZK 18,000",Personal,Brick building,,,,,G,,,,,,,,
529488,"CZK 13,500",50.1262383,14.4196594,"Hnězdenská, Prague - Troja",Studio,43 m²,"CZK 3,500",Furnished,6,Yes,No,No,No,No,No,No,01. 06. 2022,201,261,286,331,155,306,791,981,"1,324",433,,"CZK 34,000",Personal,Other,,,,,,,,,,,,,
453760,"CZK 18,000",50.0712513,14.3890549,"Vrchlického, Prague - Košíře",1 bedroom with open-plan kitchen,50 m²,"CZK 4,000",Partially furnished,4,No,No,Yes,No,No,Yes,No,01. 06. 2022,184,"1,018",121,911,79,"1,061",575,924,"1,107",162,,"CZK 35,000",Personal,Other,,,,,,,,,,,,,
718741,"CZK 12,000",50.07597,14.32918,"Bubnova, Prague - Břevnov",1 bedroom with open-plan kitchen,70 m²,"CZK 5,000",Partially furnished,2,No,No,No,No,No,No,No,01. 06. 2022,220,438,531,"1,099",633,"1,002",421,,,,Good,"CZK 17,000",Personal,Brick building,,10 to 30 years years,Gas boiler,Attic,D,Standard materials and solutions,Interior,,,,,,
30826,"CZK 14,000",50.0562157532,14.5220911503,"Pražská, Prague - Hostivař",2 bedroom,63 m²,"CZK 6,000",Furnished,3,Yes,No,Yes,No,Yes,Yes,No,16. 05. 2022,198,690,414,653,675,694,"1,120",923,679,93,Excellent,"CZK 20,000",Personal,Prefab concrete building,,10 to 30 years years,District heating,Middle floor,G,Standard materials and solutions,Overall,,,,,,
573409,"CZK 14,900",50.0993953,14.4314036,"Milady Horákové, Prague - Holešovice",Studio,36 m²,"CZK 3,900",Furnished,4,No,No,No,No,No,No,No,,99,631,70,39,99,66,172,86,417,,Excellent,"CZK 18,798",Personal,Brick building,,,Central heating,,C,Premium materials and solutions,Overall,,,,,,
690639,"CZK 11,500",50.0869795,14.4446955,"Husitská, Prague - Žižkov",1 bedroom with open-plan kitchen,40 m²,CZK 750,Partially furnished,3,No,No,No,Yes,No,No,No,01. 05. 2022,151,665,424,620,142,633,400,440,482,450,Excellent,"CZK 12,250",Personal,Brick building,,,Electric boiler,,G,Standard materials and solutions,Overall,,,,,,
718437,"CZK 30,000",50.0862376,14.4435427,"Řehořova, Prague - Žižkov",4 bedroom,120 m²,"CZK 10,000",Furnished,6,No,Yes,No,No,No,Yes,No,01. 07. 2022,482,754,346,457,298,741,433,473,526,783,,,,,,,,,,,,,,,,,
718737,"CZK 29,000",50.11347,14.39006,"Paťanka, Prague - Dejvice",2 bedroom with open-plan kitchen,79 m²,"CZK 5,000",Furnished,5,No,Yes,No,No,Yes,Yes,No,01. 06. 2022,450,356,"1,393",262,"1,121","1,009",510,168,744,,Excellent,"CZK 29,000",Personal,Brick building,,10 to 30 years years,District heating,Middle floor,G,Premium materials and solutions,,,,,,,
718735,"CZK 22,000",50.05312,14.51396,"Kamelova, Prague - Záběhlice",2 bedroom with open-plan kitchen,88 m²,"CZK 4,600",Partially furnished,3,Yes,No,No,No,No,Yes,Yes,01. 07. 2022,340,325,314,273,95,321,959,"1,179",671,256,Excellent,"CZK 22,000",Personal,Brick building,,,,,A,,,,,,,,
718734,"CZK 15,000",50.0203,14.45305,"Štúrova, Prague - Krč",1 bedroom with open-plan kitchen,50 m²,"CZK 4,000",Furnished,13,No,No,No,Yes,Yes,Yes,No,01. 06. 2022,248,361,245,432,290,974,"1,069",895,656,,Good,"CZK 35,000",Personal,Prefab concrete building,,,,,E,,,,,,,,
208559,"CZK 19,900",50.0715554,14.4419613,"Na Kozačce, Prague - Vinohrady",Studio,32 m²,"CZK 1,552",Furnished,1,No,No,No,No,No,No,No,23. 05. 2022,269,477,154,839,109,771,424,205,580,295,Excellent,"CZK 25,000",Personal,Brick building,,,,,,,,,,,,,
718730,"CZK 31,500",50.076837,14.4602531,"Slezská, Prague - Vinohrady",2 bedroom,76 m²,"CZK 10,500",Furnished,5,No,No,No,No,No,Yes,No,01. 07. 2022,175,255,130,201,87,157,488,422,532,88,,,,,,,,,,,,,,,,,
309823,"CZK 19,500",50.0853624,14.450115,"Štítného, Prague - Žižkov",1 bedroom with open-plan kitchen,49 m²,CZK 900,Partially furnished,3,No,No,No,Yes,No,Yes,No,01. 06. 2022,257,238,33,194,10,206,79,294,111,536,Excellent,"CZK 30,000",Personal,Brick building,,1 to 10 years years,Central heating,Top floor,B,Standard materials and solutions,Overall,,,,,,
718720,"CZK 25,000",50.0780458,14.4684212,"Vinohradská, Prague - Vinohrady",1 bedroom with open-plan kitchen,60 m²,"CZK 5,000",Furnished,2,No,No,No,No,No,Yes,No,16. 05. 2022,87,436,143,285,240,98,204,959,326,181,Excellent,"CZK 50,000",Personal,Brick building,,,,,G,,,,,,,,
596754,"CZK 30,000",50.053638,14.355187,"Za Zámečkem, Prague - Jinonice",3 bedroom with open-plan kitchen,130 m²,"CZK 10,000",Partially furnished,1,Yes,No,No,No,No,Yes,Yes,21. 03. 2022,376,883,245,949,420,609,461,787,"1,290",596,Excellent,"CZK 79,998",Personal,Brick building,,1 to 10 years years,Central heating,Raised ground floor,C,Premium materials and solutions,Overall,,,,,,
718719,"CZK 28,793",50.0918972,14.4483184,"Křižíkova, Prague - Karlín",Studio,44 m²,"CZK 9,597",Furnished,2,No,Yes,No,No,No,Yes,Yes,08. 06. 2022,224,159,75,308,58,360,238,"1,343",368,105,,,,,,,,,,,,,,,,,
416524,"CZK 13,000",50.0136513,14.4544814,"Mirotická, Prague - Libuš",1 bedroom with open-plan kitchen,40 m²,,Furnished,6,Yes,No,No,No,No,Yes,No,09. 05. 2022,125,771,621,213,"1,098","1,035","1,153","1,079",555,,Excellent,,Personal,Prefab concrete building,,1 to 10 years years,District heating,,C,Premium materials and solutions,Interior,,,,,,
492410,"CZK 17,000",50.0983131,14.4249055,"Ovenecká, Prague - Holešovice",1 bedroom with open-plan kitchen,40 m²,"CZK 5,000",Partially furnished,2,No,No,No,No,No,Yes,No,01. 07. 2022,218,307,78,180,163,214,176,"1,459",502,426,Excellent,"CZK 25,000",Personal,Brick building,,1 to 10 years years,Other,Middle floor,G,Premium materials and solutions,Overall,,,,,,
716838,"CZK 23,000",50.07665,14.36829,"Zdíkovská, Prague - Smíchov",3 bedroom,67 m²,"CZK 5,500",Partially furnished,3,No,No,Yes,Yes,No,No,Yes,06. 06. 2022,89,"1,287","1,035","1,149",693,"1,159","1,131","1,332",419,464,Excellent,"CZK 46,000",Personal,Brick building,,,,Middle floor,G,Standard materials and solutions,,,,,,,
577627,"CZK 15,000",50.0779838,14.422826,"Příčná, Prague - Nové Město",Studio,21 m²,"CZK 1,000",Furnished,2,No,No,No,No,No,No,No,06. 06. 2022,208,545,128,216,20,238,294,487,483,424,Excellent,"CZK 25,000",Personal,Brick building,,,Electric boiler,Middle floor,G,Standard materials and solutions,Overall,,,,,,
717699,"CZK 21,000",50.1234603,14.456174,"Klapkova, Prague - Kobylisy",1 bedroom with open-plan kitchen,56 m²,"CZK 7,000",Furnished,3,No,No,No,No,No,No,No,01. 07. 2022,69,650,120,98,122,196,92,456,836,528,,,,,,,,,,,,,,,,,
717678,"CZK 34,416",50.0918972,14.4483184,"Křižíkova, Prague - Karlín",Studio,44 m²,"CZK 11,472",Furnished,3,No,No,No,No,No,Yes,Yes,08. 06. 2022,224,159,75,308,58,360,238,"1,343",368,105,,,,,,,,,,,,,,,,,
717697,"CZK 21,000",50.108944,14.501028,"Freyova, Prague - Vysočany",Studio,25 m²,"CZK 7,000",Furnished,12,No,No,No,No,No,Yes,No,01. 07. 2022,190,256,204,195,172,262,433,416,436,299,,,,,,,,,,,,,,,,,
717671,"CZK 30,744",50.0928722,14.4500782,"Křižíkova a, Prague - Karlín",1 bedroom,45 m²,"CZK 10,248",Furnished,2,No,No,No,No,No,Yes,Yes,05. 06. 2022,123,293,167,222,66,246,411,"1,258",283,254,,,,,,,,,,,,,,,,,
717689,"CZK 36,225",50.0769346,14.4169603,"Na Zbořenci, Prague - Nové Město",2 bedroom,65 m²,"CZK 12,075",Furnished,4,No,No,No,No,No,Yes,No,01. 06. 2022,168,319,99,227,101,409,227,243,632,429,,,,,,,,,,,,,,,,,
717674,"CZK 30,636",50.0918972,14.4483184,"Křižíkova, Prague - Karlín",1 bedroom with open-plan kitchen,63 m²,"CZK 10,212",Furnished,2,Yes,Yes,No,No,No,Yes,Yes,04. 06. 2022,224,159,75,308,58,360,238,"1,343",368,105,,,,,,,,,,,,,,,,,
717659,"CZK 46,103",50.0840648,14.4187033,"Jilská, Prague - Staré Město",1 bedroom with open-plan kitchen,53 m²,"CZK 15,367",Furnished,3,No,No,No,No,No,Yes,No,06. 06. 2022,298,541,99,261,14,253,193,593,251,217,,,,,,,,,,,,,,,,,
717691,"CZK 25,693",50.0837266,14.430251,"Růžová, Prague - Nové Město",1 bedroom with open-plan kitchen,45 m²,"CZK 8,564",Furnished,2,No,No,No,No,No,No,No,01. 07. 2022,214,177,154,267,119,627,49,937,198,459,,,,,,,,,,,,,,,,,
717655,"CZK 45,120",50.0918754,14.4250902,"Řásnovka, Prague - Staré Město",2 bedroom,48 m²,"CZK 15,040",Furnished,2,No,No,No,No,No,No,No,21. 05. 2022,158,249,155,246,113,320,391,409,155,114,,,,,,,,,,,,,,,,,
717607,"CZK 41,250",50.0643299,14.4102127,"Strakonická, Prague - Smíchov",2 bedroom,50 m²,"CZK 13,750",Furnished,-1,No,No,No,No,No,No,No,29. 05. 2022,211,382,250,989,170,745,812,"1,050",387,543,,,,,,,,,,,,,,,,,
710699,"CZK 8,990",50.02972083333,14.44998888888,"Štúrova, Prague - Krč",Studio,26 m²,"CZK 3,100",Partially furnished,,No,No,No,No,No,No,No,,113,"1,284",200,101,713,832,"1,163",548,369,,Good,"CZK 12,090",Personal,Prefab concrete building,,,,,G,,,,,,,"CZK 12,090

                                
                                
                
i",
507218,"CZK 35,000",50.0763203,14.3728569,"Libínská, Prague - Smíchov",2 bedroom with open-plan kitchen,120 m²,"CZK 8,000",Partially furnished,3,Yes,No,No,No,Yes,No,No,,238,"1,082",705,"1,275",549,"1,065","1,121","1,002",531,470,,"CZK 18,000",Personal,Prefab concrete building,,,,Top floor,,,,,,,,,
718680,"CZK 18,000",50.04332,14.4968,"Klapálkova, Prague - Chodov",2 bedroom with open-plan kitchen,80 m²,"CZK 5,000",Partially furnished,1,No,No,Yes,Yes,No,No,Yes,01. 06. 2022,342,"1,103",262,"1,149",393,"1,167",615,"1,122",789,99,Excellent,"CZK 20,000",Personal,Prefab concrete building,,,,,C,,,,,,,,
718124,"CZK 59,000",50.09419,14.44737,"Rohanské nábřeží, Prague - Karlín",2 bedroom with open-plan kitchen,125 m²,"CZK 12,000",Furnished,6,No,Yes,No,No,Yes,Yes,Yes,16. 05. 2022,235,264,224,210,158,467,552,"1,303",610,317,Excellent,"CZK 150,000",Personal,Brick building,,,,,A,,,,,,,,
718672,"CZK 25,000",50.08348,14.44727,"Vlkova, Prague - Žižkov",2 bedroom with open-plan kitchen,62 m²,"CZK 6,600",Furnished,2,No,No,No,No,No,Yes,No,01. 07. 2022,212,240,178,267,82,213,24,167,400,358,Excellent,"CZK 50,000",Personal,Brick building,,,,,G,,,,,,,,
718671,"CZK 28,000",50.1054125,14.4558379,"Jankovcova, Prague - Holešovice",1 bedroom with open-plan kitchen,55 m²,"CZK 5,000",Partially furnished,6,Yes,No,No,No,No,Yes,Yes,01. 06. 2022,70,684,192,496,60,443,652,940,320,294,New build,"CZK 56,000",Personal,Brick building,,,Central heating,Top floor,B,Standard materials and solutions,,,,,,,
718668,"CZK 20,000",50.1153416,14.4743339,"Na Sypkém, Prague - Libeň",1 bedroom with open-plan kitchen,61 m²,"CZK 3,500",Partially furnished,5,Yes,No,Yes,No,No,Yes,Yes,16. 05. 2022,134,"1,388",426,"1,206",128,680,505,"1,371",852,342,New build,"CZK 40,000",Personal,Other,,,,,B,,,,,,,,
718663,"CZK 11,000",50.13117,14.36848,"K Horoměřicům, Prague - Suchdol",Small studio,42 m²,"CZK 2,200",Partially furnished,5,No,No,No,No,Yes,No,No,01. 06. 2022,161,"1,170",671,804,702,"1,151","1,072","1,160","1,185",128,Good,"CZK 20,000",Personal,Brick building,,10 to 30 years years,,Top floor,G,Standard materials and solutions,,,,,,,
279222,"CZK 33,000",50.078539,14.4294046,"Mezibranská, Prague - Nové Město",1 bedroom with open-plan kitchen,64 m²,"CZK 2,000",Furnished,3,No,No,No,No,No,No,No,,328,615,380,324,13,415,562,684,250,478,Excellent,"CZK 33,000",Personal,Brick building,,1 to 10 years years,Gas boiler,Middle floor,G,,Overall,,,,,,
549921,"CZK 20,800",50.0662269,14.4627099,Prague - Vršovice,2 bedroom with open-plan kitchen,87 m²,"CZK 7,800",Furnished,2,Yes,No,Yes,No,No,Yes,Yes,,243,601,256,566,237,743,677,93,290,414,Excellent,CZK 2,Personal,Prefab concrete building,,10 to 30 years years,District heating,Middle floor,G,,Overall,,,,,,
718645,"CZK 21,000",50.09078,14.32132,"Ke Džbánu, Prague - Liboc",3 bedroom,60 m²,"CZK 5,500",Furnished,2,No,No,No,No,No,No,No,01. 07. 2022,249,"1,060",320,"1,188",370,999,393,328,504,337,Excellent,"CZK 26,500",Personal,Brick building,,,,,G,,,,,,,,
710272,"CZK 16,000",50.0741622,14.3950806,Prague - Smíchov,2 bedroom,45 m²,"CZK 3,500",,,No,No,No,No,No,No,No,,30,945,277,636,226,677,221,"1,022",993,368,Good,"CZK 20,000",Personal,Brick building,,,,,,,,,,,,,
662021,"CZK 17,000",50.08702,14.34672,"Nad Alejí, Prague - Břevnov",1 bedroom with open-plan kitchen,53 m²,"CZK 4,000",Partially furnished,3,No,No,Yes,Yes,No,No,No,01. 07. 2022,225,387,240,326,173,264,130,123,485,137,Excellent,"CZK 34,000",Municipal,Prefab concrete building,,,District heating,Middle floor,C,Premium materials and solutions,Overall,,,,,,
526630,"CZK 12,500",50.0368092,14.4098944,"Na Mlejnku, Prague - Braník",1 bedroom,30 m²,CZK 750,Partially furnished,,No,No,No,No,No,No,No,01. 06. 2022,233,407,275,296,347,329,421,"1,204",199,,,"CZK 13,250",Other,Brick building,,,,,,,,,,,,,
718211,"CZK 17,500",50.08602,14.45007,"Dalimilova, Prague - Žižkov",1 bedroom with open-plan kitchen,44 m²,"CZK 2,500",Furnished,2,No,No,No,No,No,Yes,No,01. 06. 2022,201,328,174,335,112,295,40,351,40,677,Excellent,"CZK 20,000",Personal,Brick building,,,,,B,,,,,,,,
541377,"CZK 18,000",50.0898814,14.3429244,"Na Okraji, Prague - Veleslavín",1 bedroom with open-plan kitchen,52 m²,"CZK 4,000",Partially furnished,2,No,No,No,No,No,No,No,01. 07. 2022,129,524,89,187,192,257,195,59,854,186,,"CZK 36,000",Cooperative,Brick building,,,District heating,Middle floor,,,Overall,,,,,,
718099,"CZK 18,000",50.08423,14.44751,"Přibyslavská, Prague - Žižkov",1 bedroom with open-plan kitchen,45 m²,"CZK 2,200",Partially furnished,1,No,No,No,No,No,No,No,15. 05. 2022,270,240,69,266,60,260,86,108,339,467,Good,"CZK 25,000",Personal,Brick building,,,,,G,,,,,,,,
338699,"CZK 11,500",50.0413999822,14.5664030331,"Janovská, Prague - Horní Měcholupy",Small studio,33 m²,"CZK 2,500",Partially furnished,5,Yes,No,No,No,No,No,No,01. 06. 2022,181,685,292,617,417,200,347,356,"1,081",283,,"CZK 11,500",Personal,Brick building,,1 to 10 years years,District heating,Middle floor,B,Standard materials and solutions,,,,,,,
570139,"CZK 18,900",50.0438401,14.5166021,Prague - Hostivař,1 bedroom with open-plan kitchen,66 m²,"CZK 3,900",Furnished,1,No,Yes,No,No,No,Yes,Yes,01. 06. 2022,174,187,254,243,"1,057",289,"1,146",104,,,Excellent,"CZK 45,600",Personal,Brick building,,1 to 10 years years,Central heating,Raised ground floor,B,Standard materials and solutions,,,,,,,
371539,"CZK 17,000",50.106576,14.449253,"Poupětova, Prague - Holešovice",2 bedroom,69 m²,"CZK 3,800",Partially furnished,3,Yes,No,Yes,No,No,Yes,No,16. 06. 2022,205,430,70,242,98,246,273,704,371,331,Excellent,"CZK 34,000",Personal,Brick building,,,Central heating,,,,,,,,,,
547167,"CZK 16,500",50.1077073,14.527514,Prague - Hloubětín,1 bedroom with open-plan kitchen,53 m²,"CZK 2,900",Partially furnished,4,Yes,No,No,No,No,No,No,15. 05. 2022,67,"1,106",506,"1,088",770,903,"1,053",852,979,325,New build,"CZK 10,000",Cooperative,Low-energy building,Yes,1 to 10 years years,District heating,,B,Premium materials and solutions,,,,,,,
718623,"CZK 16,000",50.05986,14.45105,"Jivenská, Prague - Michle",1 bedroom with open-plan kitchen,55 m²,"CZK 4,000",Partially furnished,3,No,No,Yes,No,Yes,Yes,No,16. 05. 2022,136,891,78,298,149,793,207,380,680,245,Excellent,,Personal,Brick building,,30 to 50 years years,Central heating,Middle floor,G,Standard materials and solutions,,,,,,,
718622,"CZK 10,000",50.1153,14.47217,"Na Dědince, Prague - Libeň",1 bedroom,32 m²,"CZK 1,500",Partially furnished,3,No,No,No,No,No,Yes,No,01. 06. 2022,73,"1,230",238,"1,229",133,523,404,"1,389",875,342,Excellent,"CZK 10,000",Personal,Brick building,,,,,G,,,,,,,,
696559,"CZK 16,000",50.05958,14.28757,"Nedašovská, Prague - Zličín",2 bedroom,64 m²,"CZK 4,000",Partially furnished,2,Yes,No,No,No,No,Yes,No,01. 06. 2022,331,513,926,813,399,980,129,680,178,,Excellent,"CZK 20,000",Personal,Prefab concrete building,,,District heating,,G,,,,,,,,
540170,"CZK 14,154",50.0594647,14.4472136,"Horní, Prague - Nusle",Studio,35 m²,CZK 846,Furnished,7,No,No,Yes,No,No,Yes,No,01. 07. 2022,231,905,56,356,196,707,439,604,840,175,Excellent,"CZK 25,000",Personal,Brick building,,1 to 10 years years,Gas boiler,Attic,D,Standard materials and solutions,Overall,,,,,,
617346,"CZK 32,000",50.085078,14.486461,"Zvěřinova, Prague - Strašnice",2 bedroom with open-plan kitchen,100 m²,"CZK 5,500",Furnished,7,Yes,No,No,No,Yes,Yes,Yes,01. 06. 2022,356,"1,114",391,"1,000",586,925,866,13,525,366,New build,"CZK 50,000",Personal,Other,,,,,B,,,,,,,,
