Price,Fees,Refundable security deposit,Listing ID,Layout,Avaliable from,Floor,Building type,Age,Floor space,Fully furnished,Condition,Ownership,EPC,New-build,Enclosed balcony,Lift,Cellar,Parking,public_transport,post,shop,bank,restaurant,pharmacy,school,kindergarten,sports_field,playground,District,Latitude,Longitude,Heating,Reconstruction,Designe,Terrace,Domácí mazlíčci vítáni,Garage,Administrative fee,Balcony,Plot type
"CZK 24,500","CZK 4,500","CZK 40,000",732210,3+kk,9/2/2022,2,Brick,10 to 30 years,80 m²,Partly,New-build,Personal,C,1.0,1.0,1.0,1.0,1.0,306.45,904.35,99.14,752.7,457.28,877.34,251.57,2117.28,1126.59,133.25,Prague - Zličín,50.05815,14.28198,,,,,,,,,
"CZK 81,750","CZK 27,250",,735517,3+kk,11/7/2022,6,,,110 m²,Fully furnished,,,,,,1.0,,,30.08,409.78,41.21,139.22,4.79,323.92,155.78,264.84,623.64,381.72,"Myslíkova, Prague - Nové Město",50.0781479,14.4179311,,,,,,,,,
"CZK 12,000","CZK 4,000","CZK 24,999",524061,Small studio,9/30/2022,2,Brick,Up to 10 years,24 m²,Fully furnished,,Personal,D,,,,,,91.78,580.81,32.71,585.83,4.83,464.23,508.34,544.94,531.96,283.89,"Michelská, Prague - Michle",50.050462,14.4588805,Electric boiler,Interior,,,,,,,
"CZK 11,000","CZK 4,500","CZK 15,499",629358,2+kk,9/10/2022,3,Brick,,37 m²,Unfurnished,Very good,Personal,F,,,,,,272.4,2094.06,1253.2,2237.72,696.58,1849.23,1539.46,1807.23,852.06,1343.97,"Pod Karlovarskou Silnicí, Prague - Ruzyně",50.07776,14.300779,Central,,Standard,,,,,,
"CZK 19,500","CZK 3,396","CZK 19,500",735493,Studio,9/7/2022,1,Brick,,77 m²,Partly,Very good,,C,,,,,,664.6,1184.6,690.99,2151.46,424.13,1012.99,678.88,742.88,384.79,240.93,Prague - Kamýk,50.0111,14.44677,,,,1.0,1.0,1.0,,,
"CZK 11,000","CZK 3,000","CZK 11,000",735490,Studio,9/7/2022,1,Brick,,26 m²,Fully furnished,Very good,,G,,,,,,71.82,1155.13,667.44,821.2,321.12,783.31,770.05,430.95,2336.32,607.25,Prague - Újezd nad Lesy,50.07387,14.67211,,,,1.0,,,,,
"CZK 27,000","CZK 6,820","CZK 40,000",735489,2+kk,9/18/2022,3,Brick,,57 m²,Fully furnished,New-build,Personal,B,1.0,1.0,1.0,1.0,,372.2,1186.23,751.01,1390.52,180.6,1087.12,919.65,1229.04,105.92,333.17,Prague - Střešovice,50.0945,14.36816,,,,,,1.0,,,
"CZK 11,000","CZK 3,000","CZK 20,000",735488,Studio,9/7/2022,1,Brick,,25 m²,Fully furnished,Very good,,G,,,,,,233.33,597.58,424.82,268.33,15.01,1219.3,217.85,552.03,354.24,393.59,Prague - Michle,50.05793,14.45218,,,,,1.0,,,,
"CZK 16,000","CZK 3,000","CZK 32,000",735486,Studio,9/7/2022,4,Low-energy,,30 m²,Partly,New-build,,B,,,,1.0,,80.58,970.2,288.35,326.95,469.13,383.3,436.86,1714.08,660.71,182.37,Prague - Třebonice,50.05601,14.29032,,,,1.0,,,,,
"CZK 16,000","CZK 5,000","CZK 32,000",589972,3+kk,9/12/2022,13,Prefab concrete,30 - 50 years,64 m²,Partly,Very good,Personal,C,,1.0,1.0,,,273.07,633.8,55.89,734.25,289.87,560.88,278.02,72.44,1370.48,59.06,"Chabařovická, Prague - Kobylisy",50.129853,14.476675,Distance,Complete,Standard,,,,,,
"CZK 17,000","CZK 5,000","CZK 30,000",735467,2 bedroom,11/1/2022,3,Prefab concrete,,52 m²,Partly,Very good,,G,,,,,,259.57,169.5,228.9,216.61,320.45,408.86,274.71,450.32,856.1,305.91,Prague - Malešice,50.0829,14.49993,Central,Complete,,,,,,,
"CZK 22,990","CZK 4,424","CZK 27,414",735471,2 bedroom,9/8/2022,5,Brick,,85 m²,Partly,Very good,Personal,G,,,1.0,1.0,,411.48,480.93,233.74,478.91,83.59,408.06,289.69,73.27,91.64,140.17,"Na Balkáně, Prague - Žižkov",50.09490333333,14.48939916666,,,,,,,"CZK 27,414",1.0,
"CZK 22,000","CZK 6,000","CZK 40,000",735470,3+kk,10/17/2022,3,Prefab concrete,,74 m²,Partly,Very good,,G,,,1.0,1.0,,405.96,554.48,127.21,416.85,404.22,445.92,164.65,727.62,580.02,145.17,Prague - Modřany,50.00835,14.41991,,,,,,,,1.0,
"CZK 27,000","CZK 3,000","CZK 30,000",517931,2+kk,11/1/2022,2,Brick,Up to 10 years,55 m²,Fully furnished,,Cooperative,,,,,,,98.22,363.84,107.93,28.37,19.06,161.02,454.52,509.1,250.77,629.5,Prague - Karlín,50.0914053,14.4388752,Electric boiler,Interior,Luxurious,,,,,1.0,
"CZK 11,500",CZK 720,"CZK 23,000",313945,Studio,9/10/2022,3,Brick,,34 m²,Partly,Good,Personal,,,,1.0,,,269.89,735.82,250.89,439.63,303.65,479.24,620.65,567.08,701.54,692.11,"U Pernštejnských, Prague - Nusle",50.0631534,14.4470668,Gas boiler,Interior,,,,,,,
"CZK 18,000","CZK 3,500","CZK 18,000",734031,Studio,10/1/2022,,Brick,10 to 30 years,34 m²,Fully furnished,Very good,Personal,G,,,,,,249.44,775.46,296.54,454.56,346.44,471.4,754.24,623.73,388.52,189.67,Prague - Strašnice,50.07918,14.48536,Central,,Standard,1.0,,,,,
"CZK 17,500","CZK 3,900","CZK 36,000",607379,Studio,9/15/2022,2,Brick,Up to 10 years,24 m²,Fully furnished,Very good,Personal,E,,,1.0,,,148.83,419.07,71.5,195.07,56.82,331.69,329.58,642.28,911.37,462.1,"Gorazdova, Prague - Nové Město",50.074462,14.414953,Central,Complete,Standard,,,,,,
"CZK 12,000","CZK 4,500","CZK 15,000",735465,2+kk,10/1/2022,2,Brick,,49 m²,Partly,Good,,G,,,,,,147.03,996.33,364.36,778.22,239.51,746.48,495.92,470.51,644.53,246.0,Prague - Nusle,50.05825,14.44248,,,,,,,,,
"CZK 16,990","CZK 1,953","CZK 18,943",735464,3+1,9/8/2022,7,Prefab concrete,,58 m²,Partly,Very good,Cooperative,G,,,1.0,1.0,,81.2,538.01,352.16,523.22,360.47,332.22,189.5,132.25,1123.67,311.71,"Novodvorská, Prague - Braník",50.02687027777,14.42904444444,,,,,,,"CZK 18,943",,
"CZK 14,000","CZK 3,000","CZK 30,000",731675,Studio,9/10/2022,4,Brick,,34 m²,Fully furnished,Very good,,G,,1.0,1.0,1.0,1.0,159.96,318.63,144.94,410.41,117.64,270.71,737.06,831.3,943.97,238.54,Prague - Uhříněves,50.03064,14.59533,,,,,,,,,
"CZK 15,000","CZK 1,500","CZK 16,500",415259,1 bedroom,9/9/2022,2,Brick,,47 m²,Partly,,Personal,C,,,1.0,1.0,,61.12,117.05,6.26,507.36,31.23,164.69,226.1,226.1,333.66,106.19,"Vršovická, Prague - Vršovice",50.0705542,14.4768657,Central,,,,,,,,
"CZK 19,000","CZK 3,000","CZK 30,000",732197,2+kk,10/30/2022,3,Brick,,69 m²,Fully furnished,Very good,,G,,,,,,159.91,405.02,156.31,287.94,154.49,245.19,390.39,450.11,190.9,156.36,Prague - Staré Město,50.09195,14.42392,,,,,,,,,
"CZK 19,800","CZK 6,600",,735462,3+1,10/19/2022,5,,,90 m²,Fully furnished,,,,,,1.0,,,82.8,397.93,96.94,404.98,135.48,353.78,131.46,217.55,654.74,661.34,"Blanická, Prague - Vinohrady",50.0746503,14.439294,,,,,,,,,
"CZK 29,925","CZK 9,975",,731240,1 bedroom,10/4/2022,2,,,30 m²,Fully furnished,,,,,,1.0,,,22.29,481.37,107.82,95.32,6.34,158.39,351.4,425.94,380.79,468.94,"Legerova, Prague - Vinohrady",50.0749602,14.4305105,,,,,,,,,
"CZK 21,000","CZK 3,900","CZK 30,000",272296,2+kk,6/1/2021,4,Brick,Up to 10 years,58 m²,Fully furnished,Very good,Personal,C,,,,,,296.76,495.49,292.2,508.16,319.52,397.4,353.87,525.47,683.82,409.22,"Radlická, Prague - Smíchov",50.0660628,14.4029194,Electric boiler,,Standard,,,,,1.0,
"CZK 19,000","CZK 4,500","CZK 30,000",732196,Studio,10/1/2022,3,Low-energy,,42 m²,Fully furnished,New-build,,B,1.0,,1.0,,1.0,266.86,1953.91,1116.59,1712.78,452.71,1360.43,808.23,1421.57,1318.95,730.36,Prague - Modřany,50.01299,14.40002,,,Luxurious,,,1.0,,1.0,
"CZK 28,000","CZK 3,000","CZK 50,000",162415,2+kk,10/30/2022,3,Brick,,69 m²,Fully furnished,Very good,Personal,,,,,,,162.74,407.84,159.14,290.76,157.32,242.36,387.56,452.94,188.07,159.18,"Anežská, Prague - Staré Město",50.0919997,14.423822,Gas boiler,Complete,Luxurious,1.0,,,,1.0,
"CZK 15,500","CZK 4,450","CZK 20,000",732193,Studio,9/2/2022,3,Low-energy,,44 m²,Partly,New-build,,B,,,1.0,1.0,,201.7,1308.66,142.89,1129.36,468.82,688.29,322.41,221.9,1021.18,245.67,Prague - Strašnice,50.07153,14.50459,,,,,,1.0,,1.0,
"CZK 9,200","CZK 1,500","CZK 10,000",732128,6+kk,9/24/2022,6,Other,,30 m²,Fully furnished,Very good,,G,,,1.0,,1.0,234.8,215.63,259.34,719.06,313.91,295.2,831.77,407.77,706.11,433.61,"U Stírky, Prague - Libeň",50.11987065,14.46188655,,,,,,,,1.0,
"CZK 23,000","CZK 6,000","CZK 23,000",727258,2+kk,8/1/2022,1,Brick,,70 m²,Partly,New-build,,C,1.0,,,1.0,,88.95,789.5,107.34,385.25,116.2,179.24,235.81,308.48,462.3,315.43,"Na Pěšinách, Prague - Kobylisy",50.1250528,14.4573336,,,Luxurious,1.0,,,,,
"CZK 9,200",CZK 0,"CZK 9,200",574965,4+1,9/1/2022,8,Prefab concrete,,11 m²,Partly,,Personal,,,1.0,1.0,,1.0,366.39,293.95,283.63,423.78,292.38,339.91,239.81,524.49,1380.7,267.44,"Taussigova, Prague - Kobylisy",50.1289857,14.472486,Distance,Complete,,,,,,1.0,
"CZK 23,000","CZK 2,000","CZK 46,000",735452,2+kk,10/1/2022,1,Brick,,52 m²,Partly,Very good,,G,,,,,,45.71,924.4,146.26,646.66,8.7,711.02,847.67,166.72,774.55,203.9,Prague - Smíchov,50.06215,14.38988,,,,1.0,,,,,
"CZK 15,000","CZK 3,100","CZK 15,000",733270,2+kk,10/1/2022,,Prefab concrete,,48 m²,Fully furnished,Very good,,C,,,,1.0,,75.97,940.38,255.24,863.44,61.31,812.69,738.49,520.91,194.73,88.27,Prague - Řepy,50.066,14.29848,Distance,Bathroom unit,,,1.0,,,,
"CZK 16,900","CZK 3,000","CZK 25,000",732183,2+kk,9/2/2022,2,Brick,,43 m²,Partly,Very good,,G,,,,,,266.76,1156.69,492.06,2005.06,1050.54,1333.33,1036.47,518.88,1055.57,486.98,Prague - Čimice,50.13549,14.43959,,,,1.0,,,,,
"CZK 17,500","CZK 3,688","CZK 35,000",735450,2+kk,10/1/2022,4,Brick,,48 m²,Partly,New-build,,C,1.0,1.0,1.0,1.0,,291.16,100.7,172.13,1188.31,165.94,1023.26,425.81,635.91,707.3,117.83,Prague - Hlubočepy,50.02944,14.36394,,,,,,1.0,,,
"CZK 20,900","CZK 6,379","CZK 30,000",196494,3+kk,10/1/2022,5,Brick,Up to 10 years,98 m²,Fully furnished,Very good,Personal,,,,1.0,,,454.58,1009.29,218.22,988.36,663.54,604.17,508.86,477.54,1287.6,98.59,"Zakšínská, Prague - Střížkov",50.1303717159,14.4956803405,Distance,,Standard,1.0,,,,1.0,
"CZK 34,500","CZK 11,500",,728709,2+kk,10/8/2022,6,,,45 m²,Fully furnished,,,,,,1.0,,,73.01,281.28,58.33,478.54,20.37,379.07,102.37,138.49,668.56,481.36,"Francouzská, Prague - Vinohrady",50.0739894,14.440101,,,,,,,,,
"CZK 15,500","CZK 4,000","CZK 25,000",735446,Studio,9/7/2022,3,Other,,23 m²,Fully furnished,New-build,,G,1.0,,1.0,,,51.7,1483.2,433.92,1157.74,558.05,744.26,305.46,1138.73,1422.98,612.08,Prague - Vysočany,50.103156,14.5190992,,,,1.0,,,,,
"CZK 16,500","CZK 2,000","CZK 20,000",382637,2 bedroom,2/1/2022,3,Brick,,52 m²,Fully furnished,,Personal,,,1.0,,,1.0,213.38,661.71,176.78,365.51,229.54,405.13,560.35,510.57,645.03,676.1,"Mojmírova, Prague - Nusle",50.0635629,14.4460371,,,,,,1.0,,1.0,
"CZK 17,900","CZK 1,100","CZK 25,000",682818,2+kk,10/1/2022,1,Brick,,48 m²,Partly,Very good,Personal,G,,,1.0,,,17.57,739.23,73.61,650.68,225.68,691.96,414.44,312.88,539.86,293.39,"28. pluku, Prague - Vršovice",50.07087,14.46352,,,,,,,,1.0,
"CZK 15,000",CZK 0,"CZK 20,000",735437,Studio,10/1/2022,1,Prefab concrete,,39 m²,Fully furnished,Very good,,A,,,1.0,,,190.4,240.06,234.63,174.89,174.92,213.21,606.9,769.3,1356.69,302.01,Prague - Troja,50.12696,14.41845,,,,,1.0,,,1.0,
"CZK 17,900",CZK 590,"CZK 35,800",463258,2+kk,10/1/2022,2,Brick,,44 m²,Partly,Good,Personal,,,,,1.0,1.0,127.73,886.45,36.32,399.9,121.48,332.84,596.5,641.14,459.0,269.03,"Nezamyslova, Prague - Nusle",50.0648387,14.4266126,Other,Complete,Standard,,,,,1.0,
"CZK 16,600","CZK 3,200","CZK 33,200",732169,3+kk,9/2/2022,3,Prefab concrete,,68 m²,Partly,Very good,,C,,1.0,,1.0,,173.25,388.72,283.99,452.53,492.57,558.85,250.68,377.95,1208.66,194.6,Prague - Řepy,50.06546,14.31237,,,,,1.0,,,,
"CZK 22,000","CZK 5,000","CZK 27,000",491258,3+1,9/7/2022,1,Brick,,77 m²,Partly,,Personal,,,,,,,397.31,1435.34,473.4,1071.54,471.0,440.05,224.41,357.84,257.04,354.31,"Sušická, Prague - Dejvice",50.1031476,14.3765489,,,,1.0,,,,1.0,
"CZK 16,000","CZK 6,000","CZK 40,000",735431,2+kk,10/15/2022,,Other,,48 m²,Partly,Very good,,G,,,,,,41.82,869.1,80.42,578.78,441.7,947.93,1187.02,898.39,144.87,172.64,Prague - Sedlec,50.13036,14.38268,,,,1.0,1.0,,,,
"CZK 19,800",CZK 690,"CZK 35,000",404702,2 bedroom,9/20/2022,2,Brick,,61 m²,Unfurnished,,Personal,,,,,1.0,,270.22,537.35,570.44,550.42,221.96,239.82,692.29,766.72,780.58,197.31,"Nad Bořislavkou, Prague - Vokovice",50.0956992,14.3662381,Gas boiler,Complete,,,,,,,
"CZK 22,000","CZK 5,700","CZK 22,000",735420,4+1,9/7/2022,4,Prefab concrete,,79 m²,Partly,Good,,G,,,1.0,,1.0,374.24,422.22,80.73,326.1,309.29,351.09,269.18,839.0,653.38,49.14,Prague - Modřany,50.00729,14.42024,Central,,,,,,,1.0,
"CZK 25,000","CZK 1,500","CZK 30,000",735422,1 bedroom,9/7/2022,1,Brick,,48 m²,Fully furnished,Very good,Personal,E,,,,1.0,1.0,180.41,265.03,100.33,44.88,51.54,142.63,259.17,277.26,206.84,257.24,Prague - Staré Město,50.09007,14.42482,Central,Complete,,,,,,,
"CZK 19,900","CZK 7,000","CZK 30,000",735409,2 bedroom,9/15/2022,3,Brick,,83 m²,Fully furnished,Very good,,G,,,1.0,,,311.61,491.04,420.26,954.01,315.32,438.76,826.48,258.6,469.61,508.05,Prague - Smíchov,50.0648,14.40972,,,,,,,,,
"CZK 53,510","CZK 17,836",,725486,4+1,10/14/2022,7,,,110 m²,Fully furnished,,,,,,1.0,,,348.55,940.69,207.03,294.37,97.8,272.7,322.85,445.04,400.99,361.6,"Divadelní, Prague - Staré Město",50.0824664,14.4140344,,,,1.0,,,,1.0,
"CZK 17,990","CZK 2,790","CZK 20,000",488862,2+kk,9/12/2022,1,Brick,,44 m²,Partly,Very good,Personal,,,,,,,392.57,267.17,173.05,308.31,107.52,470.03,317.73,393.0,720.93,221.47,"Ondříčkova, Prague - Vinohrady",50.07994,14.4517114,Central,,,,,,,,
"CZK 15,000","CZK 3,000","CZK 30,000",631633,1 bedroom,10/17/2020,1,Brick,,40 m²,,Very good,Personal,G,,,1.0,1.0,1.0,311.37,344.25,99.63,655.78,87.41,505.7,74.08,99.28,823.58,590.1,"Jana Masaryka, Prague - Vinohrady",50.071485,14.438257,,,,,1.0,,,1.0,
"CZK 6,000",CZK 1,"CZK 6,500",603260,Other,6/30/2022,1,Brick,,120 m²,Fully furnished,Very good,Personal,D,,,1.0,,,93.86,355.52,190.16,381.87,43.18,335.72,486.36,228.61,381.24,99.62,"Ronkova, Prague - Libeň",50.105767,14.476739,,,,,,,,,
"CZK 23,000","CZK 9,000","CZK 46,000",735408,3+1,9/7/2022,5,Brick,,105 m²,Unfurnished,Very good,,C,,,1.0,,,174.31,478.5,120.42,94.53,46.33,21.42,249.47,441.3,567.11,636.54,Prague - Vinohrady,50.07382,14.43183,,,,,,,,,
"CZK 19,500",CZK 1,"CZK 19,500",732034,Studio,9/1/2022,1,Brick,,33 m²,Partly,Very good,,G,,,,,,259.4,483.19,126.87,501.11,25.7,450.98,61.28,77.34,565.99,370.66,Prague - Nové Město,50.07863,14.41614,,,,1.0,,,,,
"CZK 14,000","CZK 1,000","CZK 30,000",456139,Small studio,9/7/2022,1,Brick,,20 m²,Partly,Very good,Cooperative,,,,,,,269.28,526.7,269.64,703.49,80.55,297.14,178.11,169.37,802.54,445.66,Prague - Karlín,50.0899013,14.4468287,Electric boiler,,,,,,,,
"CZK 18,500","CZK 2,500","CZK 37,000",735402,Studio,9/15/2022,2,Brick,,37 m²,Partly,New-build,,D,,,,1.0,,91.34,289.99,135.8,261.29,109.15,224.49,370.49,555.32,136.36,268.8,Prague - Žižkov,50.08845,14.45856,,,,,,,,,
"CZK 14,500","CZK 2,500","CZK 25,000",612251,Studio,9/1/2022,1,Brick,,25 m²,,New-build,Personal,B,,,,,,211.15,237.15,355.34,868.62,194.77,283.9,145.14,177.97,611.03,466.53,"Omská, Prague - Vršovice",50.072914,14.478114,,,,,,,,,
"CZK 12,990",CZK 0,"CZK 5,000",681721,Small studio,9/7/2022,1,Brick,,20 m²,Fully furnished,Good,Personal,G,,,,,,155.39,507.59,93.73,189.31,18.14,382.05,535.16,340.41,325.87,706.18,"Na Bělidle, Prague - Smíchov",50.07176,14.40601,Gas boiler,Interior,Standard,,,,,,
"CZK 14,000","CZK 3,000","CZK 17,000",735321,Studio,10/1/2022,5,Brick,,42 m²,Partly,Very good,,G,,1.0,1.0,,,297.76,788.54,277.56,532.19,299.09,531.96,617.8,430.56,757.75,487.6,Prague - Nusle,50.06288,14.44909,,,,,,,,1.0,
"CZK 37,500","CZK 12,500",,735308,2+kk,11/1/2022,3,,,60 m²,Fully furnished,,,,,,1.0,,,239.73,541.75,45.52,270.79,35.61,285.18,465.63,625.46,639.52,581.38,"Mečislavova, Prague - Nusle",50.0633237,14.4440058,,,,,,,,,
"CZK 20,000",CZK 0,"CZK 20,000",572303,3+kk,9/6/2022,3,Brick,,75 m²,Unfurnished,,Personal,,,,,,,218.11,227.09,256.3,232.12,293.55,339.35,465.43,464.37,820.91,180.03,"Pod Kavalírkou, Prague - Košíře",50.069386,14.3736552,,,,,,,,,
"CZK 24,000","CZK 5,200","CZK 48,000",733392,Studio,9/10/2022,3,Brick,,35 m²,Fully furnished,New-build,Personal,B,,,1.0,1.0,,130.34,674.95,328.7,662.91,182.49,531.16,929.62,307.24,572.75,335.78,Prague - Smíchov,50.06745,14.40788,,,,1.0,,,,,
"CZK 29,690",CZK 0,"CZK 25,000",731887,2+kk,8/31/2022,2,Brick,,50 m²,Fully furnished,Very good,,G,,,1.0,,,399.93,432.91,26.98,381.82,37.96,635.24,269.06,511.7,970.71,313.61,Prague - Vinohrady,50.07956,14.45426,,,,,,,,,
"CZK 23,000","CZK 4,200","CZK 30,000",735206,2+kk,9/7/2022,4,Brick,,72 m²,Partly,Very good,Personal,E,,,1.0,,,23.95,430.92,31.85,121.68,7.68,296.01,127.87,292.46,595.72,409.34,Prague - Nové Město,50.07813,14.41838,,,Standard,,,,,,
"CZK 17,000","CZK 4,500","CZK 30,000",728905,2+kk,8/20/2022,3,Brick,,52 m²,Partly,New-build,,C,1.0,,1.0,1.0,,421.53,1650.45,368.8,2020.44,576.51,1104.33,1815.64,2607.26,521.97,205.56,Prague - Hostavice,50.08478,14.56296,,,,,,,,1.0,
"CZK 17,000","CZK 3,400","CZK 20,400",735195,1 bedroom,9/26/2022,4,Prefab concrete,,38 m²,Fully furnished,Very good,,G,,,,,,378.94,508.23,121.25,345.12,310.01,393.17,215.61,349.39,1160.21,203.79,Prague - Stodůlky,50.04779,14.34583,,,,,,,,,
"CZK 20,000","CZK 4,000","CZK 20,000",695001,2+kk,10/1/2022,4,Brick,,45 m²,Fully furnished,New-build,Personal,B,,,1.0,,,215.1,468.42,94.48,267.26,12.54,274.1,406.04,365.15,170.64,322.72,"Tusarova, Prague - Holešovice",50.101841946188,14.452939237593,,,,,,,,,
"CZK 15,000","CZK 5,000","CZK 25,000",483887,2+kk,10/1/2022,3,Brick,,36 m²,Fully furnished,,Personal,E,,,,,,349.3,744.42,280.28,361.13,260.09,400.91,416.21,279.98,1128.95,331.77,"Na Okraji, Prague - Veleslavín",50.0891547,14.3400733,,Complete,Standard,,,,,,
"CZK 21,000","CZK 2,000","CZK 42,000",735180,2 bedroom,9/23/2022,4,Low-energy,,60 m²,Unfurnished,New-build,,B,,,1.0,1.0,1.0,788.49,1496.01,1446.83,1705.51,320.08,1391.84,1531.97,1359.97,512.65,429.05,Prague - Letňany,50.14243,14.52565,,,,,1.0,1.0,,1.0,
"CZK 27,000","CZK 3,800","CZK 50,000",611890,2+kk,10/1/2022,6,Prefab concrete,Up to 10 years,56 m²,Partly,New-build,Personal,B,1.0,,1.0,,,458.22,1359.99,749.45,4002.43,439.08,726.17,1083.68,3425.09,1173.04,431.34,"Honzíkova, Prague - Dolní Měcholupy",50.067548,14.554658,Distance,,Luxurious,1.0,,1.0,,,
"CZK 18,000","CZK 4,000","CZK 37,000",730591,2+kk,8/20/2022,11,Prefab concrete,,42 m²,Partly,Very good,Personal,A,,,1.0,1.0,,225.25,509.23,210.61,197.57,313.05,374.5,333.7,365.29,434.6,205.29,Prague - Háje,50.0292,14.53153,Central,Complete,,,,,,,
"CZK 14,000","CZK 3,500","CZK 28,000",735179,Studio,9/7/2022,3,Prefab concrete,,27 m²,Fully furnished,Very good,,G,,,1.0,1.0,,335.07,589.94,203.34,490.57,272.38,255.37,249.48,103.14,1050.25,44.47,Prague - Střížkov,50.12665,14.49526,,,,,,,,1.0,
"CZK 16,500","CZK 3,300","CZK 19,800",735176,Studio,10/1/2022,1,Brick,,30 m²,Fully furnished,Very good,,G,,,,,,195.12,867.74,62.52,586.39,83.23,257.18,288.89,320.22,267.74,209.92,Prague - Libeň,50.10745,14.49183,,,,,,,,,
"CZK 13,000","CZK 4,000","CZK 13,000",735075,2+kk,9/7/2022,1,Brick,,41 m²,Partly,Good,,G,,,,,,370.75,1265.27,341.98,843.86,320.29,1025.67,1000.01,218.25,1013.68,332.92,Prague - Dejvice,50.09786,14.37792,,,,,,,,,
"CZK 20,625","CZK 6,875",,728424,2 bedroom,10/2/2022,10,,,45 m²,Fully furnished,,,,,,1.0,,,256.77,316.9,138.95,255.27,129.78,146.97,532.26,445.84,886.9,24.33,"Jablonecká, Prague - Střížkov",50.1245336,14.4947443,,,,,,,,,
"CZK 15,000","CZK 5,700","CZK 15,000",735077,2+kk,9/7/2022,2,Brick,,45 m²,Fully furnished,Very good,,G,,,,,,170.17,1331.31,235.88,524.55,177.99,210.9,532.56,369.39,754.76,240.87,Prague - Kobylisy,50.12578,14.44526,,,,,,,,,
"CZK 35,000",CZK 490,"CZK 35,000",584599,3+1,10/1/2022,3,Brick,,115 m²,Fully furnished,Very good,Personal,G,,,,,,235.09,750.04,190.44,609.02,147.66,390.52,438.65,258.58,274.37,269.57,"Krkonošská, Prague - Vinohrady",50.07954,14.444944,Electric boiler,Complete,Luxurious,,,,,,
"CZK 11,000","CZK 5,000","CZK 22,000",735067,Studio,9/19/2022,2,Prefab concrete,,40 m²,Partly,New-build,,C,1.0,,1.0,,1.0,158.85,954.73,49.53,719.01,424.8,843.65,219.09,2084.8,1094.1,124.51,Prague - Zličín,50.05714,14.28274,,,,,,1.0,,1.0,
"CZK 19,500","CZK 3,000","CZK 30,000",527000,2+kk,9/30/2022,4,Brick,Up to 10 years,43 m²,Fully furnished,Very good,Personal,A,,,1.0,,,220.48,487.86,331.81,500.55,362.83,355.62,688.63,837.35,355.75,380.71,Prague - Holešovice,50.1054837,14.4433027,Gas boiler,Interior,,,,,,,
"CZK 11,499","CZK 1,000","CZK 18,000",732406,Small studio,9/5/2022,3,Brick,,40 m²,Partly,Very good,,G,,,,,,125.86,217.39,168.26,2409.84,102.11,269.28,349.76,144.45,1228.34,258.85,Prague - Braník,50.03521,14.41167,Electric boiler,,,,,,,,
"CZK 17,000","CZK 1,000","CZK 23,000",489773,3+kk,9/8/2022,1,Brick,,70 m²,Partly,,Personal,,,,,,,295.71,485.94,173.5,324.82,82.85,336.11,275.34,322.04,342.03,295.64,Prague - Holešovice,50.0982368,14.4271526,,,,,,,,,
"CZK 14,000","CZK 3,500","CZK 20,000",563487,Studio,9/15/2022,5,Brick,,48 m²,Fully furnished,,Personal,,,,1.0,,,349.01,1306.15,1183.34,2547.15,135.98,470.61,639.86,1578.35,1607.92,164.68,"Velké Kunratické, Prague - Kunratice",50.0208963,14.466772,Distance,,,1.0,,,,,
"CZK 20,500","CZK 4,500","CZK 41,000",734036,Studio,11/1/2022,5,Brick,,33 m²,Fully furnished,Very good,,G,,,1.0,1.0,,67.34,328.41,86.16,267.56,16.87,168.1,114.81,345.18,762.28,689.5,Prague - Vinohrady,50.07463,14.43756,,Complete,,,,,,,
"CZK 20,000","CZK 6,000","CZK 40,000",732072,2 bedroom,9/15/2022,2,Brick,,55 m²,Fully furnished,Very good,,G,,,,1.0,,197.51,1068.45,165.26,322.44,270.55,354.75,196.83,404.6,919.7,310.39,Prague - Troja,50.12383,14.44862,,,,,,,,1.0,
"CZK 21,000","CZK 6,000","CZK 50,000",732353,2+kk,9/4/2022,2,Brick,Up to 10 years,55 m²,Unfurnished,Very good,,G,,1.0,1.0,,1.0,325.93,688.72,159.28,653.89,641.67,208.89,621.54,603.96,945.5,558.41,Prague - Stodůlky,50.05311,14.33451,,,Standard,,,1.0,,,
"CZK 14,500","CZK 3,500","CZK 29,000",732663,Studio,10/1/2022,1,Brick,,45 m²,Fully furnished,Very good,,G,,,1.0,1.0,,168.65,1167.95,645.66,1514.59,267.9,1039.25,795.58,994.9,661.58,343.57,Prague - Chodov,50.0406,14.49894,,,,,,,,1.0,
"CZK 20,250","CZK 6,750",,734662,2+kk,10/8/2022,5,,,60 m²,Fully furnished,,,,,,1.0,,,568.91,1141.31,325.05,1116.62,882.39,718.5,640.87,567.67,1401.93,151.61,"Zakšínská, Prague - Střížkov",50.1311536,14.493582,,,,,,1.0,,,
"CZK 20,990","CZK 3,827","CZK 24,817",725109,2+kk,9/8/2022,6,Other,,63 m²,Partly,New-build,Personal,B,1.0,,1.0,,1.0,398.2,1416.77,693.72,1232.72,635.57,870.63,1111.49,712.15,619.1,290.41,"Zvěřinova, Prague - Strašnice",50.08507833333,14.48646111111,,,,,,,"CZK 24,817",1.0,
"CZK 19,110","CZK 6,370",,734261,2+kk,11/6/2022,-1,,,35 m²,Fully furnished,,,,,,1.0,,,36.05,792.81,20.0,597.08,172.08,638.36,366.32,329.81,486.26,346.96,"Dvacátého osmého pluku, Prague - Vršovice",50.0707338,14.4627954,,,,1.0,,,,1.0,
"CZK 31,500","CZK 10,500",,734260,2+kk,11/6/2022,5,,,41 m²,Fully furnished,,,,,,,,,394.46,497.82,253.13,432.3,279.54,389.35,316.56,724.72,695.79,345.02,"Krchlebská, Prague - Krč",50.0471114,14.4429584,,,,,,,,,
"CZK 23,265","CZK 7,755",,734259,1 bedroom,11/6/2022,5,,,34 m²,Fully furnished,,,,,,,,,192.54,684.55,33.13,461.2,44.3,459.54,274.15,304.32,543.36,239.67,"Bulharská, Prague - Vršovice",50.0717467,14.4598954,,,,,,,,,
"CZK 15,000","CZK 5,000","CZK 20,000",394340,3+kk,8/1/2022,2,Brick,,65 m²,Fully furnished,Good,Municipal,,,,,1.0,1.0,105.15,1215.58,166.3,890.12,227.38,725.86,166.47,871.11,1155.37,702.24,Prague - Vysočany,50.101475364278,14.504168211143,,Exterior,Standard,,1.0,,,,
"CZK 29,500",CZK 0,CZK 0,734158,4+kk,9/6/2022,3,Brick,,137 m²,Unfurnished,Very good,,G,,,,,,134.97,159.65,172.84,569.76,227.41,208.7,836.73,526.59,825.69,591.7,Prague - Libeň,50.1194,14.46146,,,,,,,,1.0,
"CZK 21,000","CZK 2,100","CZK 40,000",389966,2+kk,11/1/2022,2,Brick,Over 50 years,50 m²,Fully furnished,Good,Cooperative,G,,,,1.0,,60.84,331.87,96.69,176.28,83.63,235.29,35.21,109.64,643.61,208.21,Prague - Vinohrady,50.0757959,14.4544847,Gas boiler,Interior,Luxurious,1.0,1.0,,,,
"CZK 15,000","CZK 3,000","CZK 15,000",734038,Studio,10/1/2022,1,Low-energy,,36 m²,Fully furnished,New-build,,B,1.0,,1.0,1.0,1.0,266.86,1953.91,1116.59,1712.78,452.71,1360.43,808.23,1421.57,1318.95,730.36,Prague - Modřany,50.01299,14.40002,,,,1.0,,,,,
"CZK 13,000",CZK 500,"CZK 13,500",734035,2+kk,9/6/2022,6,Brick,,50 m²,Partly,Very good,,D,,,1.0,,,171.36,763.53,232.41,198.14,206.82,351.8,444.44,453.73,399.19,442.2,Prague - Žižkov,50.08855,14.4665,,,,,,,,,
"CZK 14,500","CZK 1,200","CZK 29,000",734033,2+kk,9/6/2022,1,Brick,,33 m²,Unfurnished,Very good,,G,,,,,,323.57,962.34,242.42,636.89,346.36,660.48,373.36,617.87,946.73,449.0,Prague - Vysočany,50.10394,14.50117,,,,,,,,,
"CZK 21,000","CZK 5,000","CZK 26,000",734032,2+kk,10/1/2022,2,Brick,,53 m²,Partly,New-build,,C,1.0,,1.0,,,217.68,150.37,238.25,1550.83,184.39,982.21,1093.25,684.8,865.08,172.36,Prague - Stodůlky,50.04557,14.30395,,,,,,,,1.0,
"CZK 22,500","CZK 4,281","CZK 45,000",728700,3+kk,8/5/2022,4,Prefab concrete,,68 m²,Partly,Very good,Personal,G,,1.0,1.0,1.0,,227.19,694.52,292.56,947.84,372.07,273.0,572.29,459.35,1024.68,123.64,Prague - Chodov,50.02741,14.5197,Central,,,,,,,,
"CZK 16,000","CZK 2,280","CZK 32,000",453588,2 bedroom,10/1/2022,5,Brick,,53 m²,Partly,Very good,Personal,G,,,1.0,1.0,,193.62,942.78,165.46,516.38,427.7,243.55,243.68,670.92,238.99,187.08,"Pivovarnická, Prague - Libeň",50.1093202,14.4743969,Gas boiler,Complete,,,,,,,
"CZK 17,000","CZK 2,050","CZK 17,000",369503,2+kk,1/1/2019,9,Prefab concrete,,43 m²,Fully furnished,,Personal,,,,,,,386.07,655.36,342.07,622.82,431.09,581.61,124.6,415.55,352.71,222.12,Prague - Chodov,50.0237246,14.4934818,,,Standard,,,,,,
"CZK 14,000","CZK 3,100","CZK 14,000",734030,2+kk,9/15/2022,7,Prefab concrete,,42 m²,Fully furnished,Good,,G,,,1.0,,,137.58,1703.2,347.72,1375.53,386.53,327.75,474.31,149.94,603.06,124.82,Prague - Strašnice,50.06672,14.51317,,,,,,,,,
"CZK 19,900","CZK 3,900","CZK 40,000",726744,Small studio,8/1/2022,,Brick,30 - 50 years,42 m²,Fully furnished,Very good,,C,,,,,1.0,209.89,2580.19,364.32,2252.43,430.13,183.08,1288.15,1638.37,999.77,373.58,Prague - Motol,50.07106,14.34318,,Complete,Luxurious,,,,,,
"CZK 21,500","CZK 3,000","CZK 40,000",428817,Studio,10/15/2022,2,Brick,Up to 10 years,50 m²,Fully furnished,New-build,Personal,B,1.0,,1.0,1.0,1.0,258.24,1063.78,452.67,1410.65,576.83,619.31,780.44,201.59,1011.23,531.96,"Na Hřebenkách, Prague - Smíchov",50.0746634,14.3868058,Central,,Luxurious,1.0,,1.0,,,
"CZK 10,000",CZK 0,"CZK 40,000",726746,2 bedroom,9/10/2022,1,Brick,30 - 50 years,76 m²,Fully furnished,Very good,Personal,C,,,,1.0,,209.89,2580.19,364.32,2252.43,430.13,183.08,1288.15,1638.37,999.77,373.58,Prague - Motol,50.07106,14.34318,,Complete,Luxurious,,,,,,
"CZK 24,000",CZK 0,"CZK 30,000",732071,2+kk,10/1/2022,3,Brick,,56 m²,Partly,New-build,,G,1.0,,1.0,,,245.98,638.62,264.62,519.19,588.49,285.74,277.53,389.45,715.73,309.65,Prague - Strašnice,50.08096,14.49224,,,,1.0,,1.0,,,
"CZK 19,000","CZK 6,000","CZK 19,000",394927,2 bedroom,10/17/2022,3,Brick,,61 m²,Partly,,Personal,,,,,,,318.56,1536.53,349.22,1172.74,346.82,327.9,572.83,674.95,360.33,289.73,"Synkovská, Prague - Dejvice",50.1060842,14.3707115,,,,,,,,1.0,
"CZK 9,500","CZK 4,300","CZK 19,000",733925,Small studio,9/15/2022,8,Prefab concrete,,20 m²,Partly,Very good,,C,,,1.0,,,107.44,1295.05,188.34,1644.08,112.71,709.13,842.85,1174.67,559.7,380.76,Prague - Krč,50.02978,14.44976,,,,,,,,,
"CZK 26,000","CZK 5,800","CZK 35,000",7470,3+1,10/1/2022,5,Brick,,74 m²,Fully furnished,Very good,Other,,,,1.0,,,150.51,196.53,104.3,148.88,91.27,155.43,412.76,685.47,227.64,371.42,"Veletržní, Prague - Holešovice",50.1005696368,14.4250488281,Electric boiler,,Standard,,,,,,
"CZK 11,000","CZK 3,000","CZK 22,000",472976,Small studio,3/1/2022,1,Brick,,30 m²,Fully furnished,Very good,Personal,C,,,,,,254.54,628.17,233.96,374.62,97.09,234.99,492.8,301.47,333.29,336.8,"V Domově, Prague - Žižkov",50.0931211,14.4835126,Gas boiler,,,,,,,,
"CZK 13,500","CZK 1,500","CZK 13,000",189710,1 bedroom,10/1/2022,,Brick,Over 50 years,38 m²,Fully furnished,Good,Personal,C,,,,,1.0,173.35,310.17,262.09,2308.82,105.24,239.11,757.87,994.55,2521.74,323.39,"Prunéřovská, Prague - Dolní Chabry",50.1451706,14.4501183,Central,,Standard,,,,,,
"CZK 17,500","CZK 3,500","CZK 17,500",730701,2+kk,8/21/2022,2,Brick,,65 m²,Partly,New-build,,C,,,1.0,1.0,,265.0,976.08,523.77,941.25,483.3,496.25,908.9,521.25,436.99,403.29,Prague - Stodůlky,50.05178,14.33128,,,,,,,,1.0,
"CZK 13,800","CZK 2,297","CZK 13,800",448060,Studio,8/21/2022,4,Brick,Up to 10 years,31 m²,Partly,New-build,Personal,A,1.0,,1.0,1.0,,777.75,1515.39,1436.1,2118.41,297.18,1411.22,1521.23,1349.24,501.91,402.89,"Kadečkové, Prague - Letňany",50.1425035,14.5253098,,,Standard,1.0,,,,1.0,
"CZK 22,900","CZK 6,500","CZK 30,000",288880,1 bedroom,9/16/2022,3,Brick,,40 m²,Fully furnished,,Personal,,,,,,,155.43,635.73,116.88,416.91,211.27,239.55,65.19,711.04,125.56,503.16,"Umělecká, Prague - Holešovice",50.1022043,14.4276994,,,,,,,,,
"CZK 37,500","CZK 12,500",,733712,2+kk,9/9/2022,5,,,56 m²,Fully furnished,,,,,,1.0,,,240.81,540.67,44.44,271.87,34.53,284.1,466.7,624.38,640.6,582.46,"Mečislavova, Prague - Nusle",50.0633339,14.4440155,,,,,,,,,
"CZK 13,000",CZK 500,"CZK 13,000",733606,1 bedroom,9/6/2022,1,Brick,,37 m²,Partly,Very good,,B,,,,1.0,,173.23,983.18,830.15,1328.81,235.14,972.83,799.29,705.37,1337.26,248.5,Prague - Braník,50.03836,14.42214,,,,,,,,,
"CZK 24,500","CZK 3,900","CZK 28,400",647743,2+kk,9/9/2022,6,Brick,,52 m²,Fully furnished,Very good,Personal,D,,,1.0,,1.0,321.74,272.42,32.18,227.85,42.93,69.06,244.65,812.35,163.33,572.38,"Opletalova, Prague - Nové Město",50.0814214,14.4299039,Central,Complete,Luxurious,1.0,,,,,
"CZK 25,000","CZK 4,000","CZK 50,000",725938,2+kk,9/1/2022,3,Brick,,70 m²,Partly,Very good,,C,,,,,,140.77,418.51,1.12,206.71,25.27,177.85,464.47,473.18,267.6,390.96,Prague - Karlín,50.0919,14.44126,,,,,,,,,
"CZK 19,000","CZK 5,000","CZK 24,000",657207,2+kk,11/1/2022,2,Brick,,50 m²,Partly,Very good,Personal,F,,,1.0,1.0,,216.57,427.63,168.14,309.85,188.68,185.58,298.25,344.11,177.98,404.59,"Sámova, Prague - Vršovice",50.06697,14.4515,,Interior,,,,,,1.0,
"CZK 30,000","CZK 6,000","CZK 50,000",733504,3+kk,9/12/2022,6,Brick,,74 m²,Partly,New-build,,G,1.0,,1.0,1.0,,192.57,352.64,15.08,200.15,102.53,203.32,529.68,605.19,222.59,295.16,Prague - Holešovice,50.10458,14.45224,,,,,1.0,,,1.0,
"CZK 20,000","CZK 1,974","CZK 43,948",732045,2+kk,9/25/2022,2,Brick,,52 m²,Fully furnished,Very good,,D,,,1.0,1.0,,353.87,1029.95,325.71,676.63,361.92,403.8,403.93,758.08,133.26,124.18,Prague - Libeň,50.11025,14.47541,,,,,,,,,
"CZK 9,200","CZK 2,800","CZK 12,000",253614,Studio,9/30/2022,2,Brick,Up to 10 years,33 m²,Partly,New-build,Personal,A,1.0,,,1.0,1.0,330.42,3234.09,586.62,3478.5,344.13,2874.01,2204.11,2534.5,2749.63,363.71,"Kestřanská, Prague - Cholupice",49.9889024,14.4450727,Central,,Standard,,,1.0,,,
"CZK 15,000","CZK 4,000","CZK 20,000",515356,2+kk,12/1/2022,3,Brick,Up to 10 years,40 m²,Partly,New-build,Personal,B,1.0,,1.0,,1.0,245.07,1603.95,923.29,2129.19,697.88,1650.4,1292.07,1787.3,1232.57,710.16,Prague - Kyje,50.115837,14.563305,Central,,Standard,,1.0,,,1.0,
"CZK 9,500",CZK 0,"CZK 9,500",643257,4+1,5/1/2022,2,Brick,,143 m²,Partly,Good,Personal,C,,,1.0,,,268.97,523.86,128.31,471.01,98.75,200.35,254.09,224.78,159.24,495.36,"Mánesova, Prague - Vinohrady",50.077916,14.44267,,,,,,,,1.0,
"CZK 25,000","CZK 5,000","CZK 30,000",78050,2+kk,9/6/2022,2,Brick,,90 m²,Fully furnished,,Personal,A,,,1.0,1.0,,235.81,608.47,35.44,420.95,72.55,373.1,374.54,873.48,188.81,137.38,"U Uranie, Prague - Holešovice",50.1065558,14.4528197,,,,1.0,,1.0,,,
"CZK 13,000","CZK 3,500","CZK 20,000",394777,Studio,9/5/2022,1,Brick,,30 m²,Fully furnished,,Personal,A,,,,,,153.65,1091.92,498.72,1004.45,337.18,1046.03,1222.62,1203.94,1142.71,328.59,"Chlupáčova, Prague - Hlubočepy",50.0353336,14.3859746,,,,,,,,,
"CZK 29,000","CZK 5,500","CZK 50,000",731960,3+kk,10/1/2022,5,Brick,Up to 10 years,81 m²,Fully furnished,New-build,,B,1.0,,1.0,,1.0,393.03,1027.39,258.04,1001.43,706.51,542.62,526.95,452.48,1226.06,80.7,Prague - Střížkov,50.13044,14.49426,Electric boiler,,Standard,1.0,,,,,
"CZK 18,000","CZK 5,700","CZK 25,000",732354,2+kk,9/4/2022,2,Other,Up to 10 years,52 m²,Fully furnished,New-build,,B,1.0,,1.0,1.0,1.0,210.94,228.98,313.11,351.71,268.57,280.65,584.56,449.23,338.64,170.96,Prague - Horní Měcholupy,50.0421,14.55736,,,,,,1.0,,,
"CZK 17,000","CZK 4,200","CZK 23,400",732282,Studio,9/7/2022,2,Other,Up to 10 years,45 m²,Fully furnished,New-build,,C,1.0,1.0,1.0,1.0,,220.49,1171.81,333.89,1110.19,787.14,770.92,150.76,505.27,686.7,291.03,Prague - Prosek,50.11945,14.4856,Central,,,,,1.0,,,
"CZK 11,000","CZK 4,500","CZK 20,000",543888,Studio,10/1/2022,1,Brick,,30 m²,Partly,New-build,Personal,,1.0,,1.0,1.0,,226.08,914.29,66.73,626.52,329.1,751.16,123.39,1989.1,998.4,147.06,"Sazovická, Prague - Zličín",50.0577491,14.2835448,,,Standard,1.0,,,,1.0,
"CZK 13,000","CZK 4,000","CZK 10,000",733282,3+1,9/6/2022,,Prefab concrete,,777 m²,Partly,Good,,G,,,,1.0,,291.39,1027.86,215.49,680.32,633.1,804.61,1178.47,291.34,2491.02,166.14,Prague - Černý Most,50.10307,14.58197,,,,,1.0,,,1.0,
"CZK 17,000","CZK 4,900","CZK 17,000",671052,2+kk,9/6/2022,1,Brick,,69 m²,Partly,Very good,Personal,G,,,1.0,,,295.69,579.96,120.83,366.9,70.62,355.16,297.56,338.33,675.54,94.01,"Baranova, Prague - Žižkov",50.0799,14.4577,Other,,,,,,,,
"CZK 23,000","CZK 5,000","CZK 23,000",732375,3+kk,11/1/2022,2,Brick,,74 m²,Partly,Very good,,G,,1.0,1.0,,,234.04,1583.45,231.92,1255.78,278.04,219.26,471.98,201.41,552.16,60.46,Prague - Strašnice,50.067,14.51166,,,,,,,,,
"CZK 16,000","CZK 3,000","CZK 20,000",733272,2 bedroom,9/7/2022,2,Brick,,50 m²,Unfurnished,Good,,G,,,,,,40.66,1397.62,179.4,921.71,90.55,531.36,368.52,892.78,455.03,305.58,Prague - Libeň,50.11255,14.47547,,,,,,,,,
"CZK 19,000","CZK 5,000","CZK 38,000",733267,3+1,9/19/2022,6,Prefab concrete,,66 m²,Partly,Very good,,G,,1.0,1.0,1.0,1.0,224.08,922.37,434.67,1592.85,284.95,264.63,705.34,1143.7,773.85,157.27,Prague - Horní Počernice,50.11099,14.6042,,,,,,,,,
"CZK 12,000","CZK 4,700","CZK 12,000",732311,Studio,9/4/2022,4,Brick,,21 m²,Fully furnished,Very good,,G,,,1.0,,,218.58,1120.37,177.35,538.81,22.86,0.18,49.51,432.88,106.29,197.71,Prague - Vyšehrad,50.06697,14.41656,,,,,,,,,
"CZK 15,000","CZK 5,000","CZK 20,000",528574,Studio,8/9/2018,1,Brick,,35 m²,Fully furnished,Very good,Personal,B,,,,1.0,1.0,658.96,997.02,1317.3,1575.98,205.87,1113.2,1402.44,1230.44,383.12,175.07,"Hlučkova, Prague - Letňany",50.1425334,14.5228207,,,,1.0,,,,,
"CZK 15,580","CZK 1,440","CZK 26,000",577869,2+kk,9/19/2022,4,Brick,,42 m²,Partly,Very good,Personal,G,,,,1.0,,232.54,712.2,301.69,1009.67,252.03,393.41,334.16,610.2,900.51,339.38,"Vrchlického, Prague - Košíře",50.0703151,14.3848167,Gas boiler,Complete,Standard,,,,,,
"CZK 18,900","CZK 4,000","CZK 22,900",732718,2+kk,11/1/2022,4,Brick,,95 m²,Unfurnished,Very good,,G,,,1.0,,,130.14,288.58,88.4,562.81,325.37,596.05,422.79,202.89,487.82,164.44,Prague - Strašnice,50.07716,14.49625,,,,1.0,,,,,
"CZK 24,000","CZK 4,800","CZK 48,000",732007,3+1,9/15/2022,3,Prefab concrete,,80 m²,Unfurnished,Very good,,G,,1.0,,,,178.23,245.7,373.27,270.65,450.71,376.96,384.46,685.83,1318.51,167.44,Prague - Řepy,50.06253,14.30883,,,,,,,,,
"CZK 16,500","CZK 1,000","CZK 20,000",733160,2+kk,9/6/2022,1,Brick,,44 m²,Partly,Very good,,G,,,,,,77.69,623.03,159.74,62.71,99.22,986.71,192.98,492.13,591.01,240.84,Prague - Michle,50.05862,14.44969,,,,,,,,,
"CZK 45,000","CZK 15,000",,723086,2+kk,9/14/2022,4,,,70 m²,Fully furnished,,,,,,1.0,,,285.3,547.87,69.97,206.93,9.84,222.16,245.36,617.77,369.53,523.86,"Ve Smečkách, Prague - Nové Město",50.0795975,14.4273504,,,,,,,,,
"CZK 24,413","CZK 8,137",,731741,Studio,10/6/2022,1,,,35 m²,Fully furnished,,,,,,1.0,,,237.21,722.71,270.23,1114.48,162.06,485.4,549.42,612.82,571.2,287.12,"U Nikolajky, Prague - Smíchov",50.0656652,14.3917771,,,,1.0,,1.0,,1.0,
"CZK 18,000","CZK 4,500","CZK 36,000",582936,3+kk,9/1/2022,1,Brick,,56 m²,Unfurnished,Very good,Personal,G,,,,1.0,,231.73,136.03,189.78,194.29,137.29,225.81,43.12,382.88,71.25,292.35,"Saratovská, Prague - Strašnice",50.075045,14.492493,Central,Complete,,,,,,,
"CZK 15,500","CZK 4,500","CZK 60,000",732012,2+kk,10/1/2022,3,Brick,,47 m²,Partly,New-build,,A,1.0,,1.0,1.0,1.0,590.97,929.04,1249.32,1931.63,112.75,1045.22,1334.45,1162.46,315.13,264.48,Prague - Letňany,50.14145,14.5231,,,,,,1.0,,1.0,
"CZK 15,000","CZK 4,000","CZK 15,000",254064,Studio,10/1/2022,4,Brick,Up to 10 years,35 m²,Fully furnished,,Personal,,1.0,,1.0,,,348.07,1365.12,218.31,1303.5,378.06,751.33,287.38,465.91,305.17,230.77,"Jitravská, Prague - Střížkov",50.1225926,14.4825639,Central,,,,,,,,
"CZK 16,000","CZK 1,050","CZK 15,000",733053,2+kk,10/1/2022,7,Prefab concrete,,43 m²,Fully furnished,Very good,,G,,,1.0,,1.0,115.75,445.36,125.25,916.87,412.84,385.9,301.09,326.0,303.92,127.4,Prague - Chodov,50.03311,14.51756,,,,,,,,,
"CZK 17,400","CZK 5,000","CZK 22,400",415980,2+kk,9/6/2022,1,Brick,Over 50 years,52 m²,Fully furnished,Very good,Personal,,,,1.0,1.0,,82.83,718.77,7.41,50.58,61.81,78.58,381.32,466.35,411.81,343.17,Prague - Žižkov,50.0894498,14.4676983,Gas boiler,Complete,Standard,,,,,,
"CZK 48,128","CZK 16,042",,733049,3+kk,9/15/2022,5,,,78 m²,Fully furnished,,,,,,1.0,,,122.69,292.83,150.02,222.27,31.53,246.25,406.08,512.95,283.22,254.06,"Křižíkova a, Prague - Karlín",50.0928722,14.4500782,,,,1.0,,1.0,,1.0,
"CZK 25,808","CZK 8,602",,725069,2 bedroom,9/23/2022,5,,,54 m²,Fully furnished,,,,,,,,,221.57,827.75,176.34,604.4,98.94,602.74,417.35,332.18,571.22,245.6,"Bulharská, Prague - Vršovice",50.0720218,14.4618189,,,,,,,,,
"CZK 29,175","CZK 9,725",,730588,Studio,9/23/2022,2,,,30 m²,Fully furnished,,,,,,1.0,,,210.86,390.29,319.5,985.86,301.65,338.01,858.33,290.45,385.77,539.9,"Strakonická, Prague - Smíchov",50.0643299,14.4102127,,,,,,,,,
"CZK 27,000","CZK 6,000","CZK 35,000",496025,3+kk,10/1/2022,1,Brick,,94 m²,Partly,,Personal,,,,1.0,,1.0,215.86,646.3,97.29,444.91,98.85,617.11,559.33,677.46,638.21,226.22,"V Kapslovně, Prague - Žižkov",50.086872,14.4629213,Central,,,,,1.0,,1.0,
"CZK 18,852","CZK 5,148","CZK 24,000",497125,2+kk,1/24/2021,1,Brick,Up to 10 years,55 m²,Fully furnished,New-build,Personal,,1.0,,1.0,,1.0,289.31,1030.71,185.29,875.56,580.15,1000.2,374.44,2240.15,1249.45,201.42,"Sazovická, Prague - Zličín",50.0570157,14.2807456,Central,,,,,,,1.0,
"CZK 20,000","CZK 5,000","CZK 40,000",649076,2+kk,12/1/2022,1,Brick,Up to 10 years,53 m²,Partly,Very good,Personal,,,,1.0,1.0,1.0,94.3,1750.54,524.42,585.43,506.77,1100.36,554.38,1437.08,790.47,844.07,"Břeclavská, Prague - Kyje",50.095579,14.545925,Gas boiler,,Luxurious,1.0,,1.0,,,
"CZK 21,900","CZK 4,500","CZK 21,900",732943,1 bedroom,9/6/2022,5,Brick,,62 m²,Fully furnished,Very good,,B,,,1.0,,1.0,291.61,184.22,159.81,343.76,98.8,382.28,349.22,55.72,247.17,362.7,Prague - Vinohrady,50.07608,14.46399,,,,1.0,1.0,,,,
"CZK 18,000","CZK 3,500","CZK 36,000",732939,2+kk,9/6/2022,3,Brick,Up to 10 years,51 m²,Fully furnished,New-build,,G,1.0,,1.0,,1.0,188.12,1451.5,169.85,1998.98,554.22,905.38,1616.69,2380.48,539.07,116.66,Prague - Hostavice,50.08657,14.5637,Central,,,,,1.0,,1.0,
"CZK 19,000","CZK 2,500","CZK 20,000",353274,2+kk,10/1/2022,,Brick,,51 m²,Fully furnished,,Personal,,,,1.0,1.0,,229.57,413.56,160.34,439.47,144.39,408.56,128.14,314.12,562.3,106.15,"Lannova, Prague - Nové Město",50.0926859,14.4314516,Central,,,,,,,,
"CZK 21,900","CZK 1,000","CZK 21,900",440293,2+kk,9/12/2022,3,Brick,Up to 10 years,54 m²,Fully furnished,Very good,Personal,G,,,1.0,1.0,,141.81,403.7,32.7,156.13,13.9,198.14,338.4,461.18,177.04,434.78,"Heřmanova, Prague - Holešovice",50.1003257,14.4274943,Gas boiler,Complete,,,,,,,
"CZK 13,000","CZK 8,000","CZK 26,000",732838,Studio,10/1/2022,5,Brick,,30 m²,Fully furnished,Very good,,D,,,,1.0,1.0,25.96,374.17,20.45,2174.28,72.28,647.45,261.01,485.72,1325.26,370.94,Prague - Braník,50.03968,14.41073,,,,,,,,,
"CZK 20,000","CZK 5,000","CZK 20,000",421388,2+kk,9/12/2022,9,Other,,52 m²,Unfurnished,Very good,Personal,C,1.0,,1.0,,,152.87,281.78,143.05,1503.09,318.42,899.1,911.82,970.87,827.35,314.52,"V Štíhlách, Prague - Krč",50.0199473,14.4538245,,,,,,,,1.0,
"CZK 20,000","CZK 5,000","CZK 20,000",732804,3+1,9/13/2022,1,Brick,,83 m²,Fully furnished,Very good,,F,,,1.0,,,320.56,588.33,33.85,169.88,20.78,276.75,327.62,370.72,369.36,250.68,Prague - Vršovice,50.06837,14.45061,,,,,,,,1.0,
"CZK 21,900","CZK 4,000","CZK 25,000",732829,3+1,9/6/2022,2,Prefab concrete,,78 m²,Partly,Very good,,G,,,1.0,1.0,1.0,306.33,463.37,351.98,741.76,441.7,156.13,723.53,210.52,597.79,46.29,Prague - Stodůlky,50.04541,14.31331,,,,,1.0,,,1.0,
"CZK 19,800","CZK 2,500","CZK 30,000",597750,2+kk,9/12/2022,2,Brick,Up to 10 years,56 m²,,Very good,Personal,C,,,1.0,,1.0,349.33,623.35,107.22,439.57,293.31,350.6,374.18,434.11,387.31,297.53,"Musílkova, Prague - Košíře",50.067502,14.370077,Gas boiler,,Standard,,1.0,1.0,,1.0,
"CZK 24,000","CZK 3,000","CZK 27,000",732833,2 bedroom,9/6/2022,1,Brick,,57 m²,Partly,Very good,,G,,,1.0,,,95.66,526.1,96.83,456.1,170.98,496.91,370.21,499.14,518.01,175.58,Prague - Žižkov,50.08722,14.46211,,Complete,,,,,,,
"CZK 9,278","CZK 6,522","CZK 31,600",681062,Studio,8/24/2021,18,Brick,Up to 10 years,38 m²,Partly,Very good,Personal,A,,,1.0,1.0,1.0,454.04,809.88,434.66,484.42,353.37,771.43,492.68,609.29,683.92,296.54,Prague - Vysočany,50.10533,14.50202,,,Standard,,,,,1.0,
"CZK 11,000","CZK 4,000","CZK 15,000",613420,Studio,10/1/2022,3,Prefab concrete,,31 m²,,Very good,Personal,B,,,1.0,,,265.39,510.79,358.01,1348.79,523.71,610.43,33.71,489.51,816.07,237.2,"Bachova, Prague - Chodov",50.030742,14.512007,,Complete,,,,,,,
"CZK 15,000","CZK 3,500","CZK 30,000",662820,Studio,10/1/2022,1,Brick,,43 m²,Partly,New-build,Personal,G,,,1.0,1.0,,426.71,1033.48,242.4,1012.54,635.67,576.3,533.04,449.67,1259.73,70.72,"Zakšínská, Prague - Střížkov",50.13041,14.49516,,,,,,1.0,,1.0,
"CZK 17,900","CZK 3,400","CZK 40,000",206206,2+kk,9/18/2022,3,Brick,Up to 10 years,54 m²,Partly,Very good,Personal,B,1.0,,1.0,,1.0,432.16,1067.28,404.0,754.92,477.78,482.09,482.22,661.17,363.49,311.58,"Pivovarnická, Prague - Libeň",50.10973,14.47768,,,Luxurious,,,,,,
"CZK 22,000",CZK 700,"CZK 44,000",731874,2 bedroom,8/31/2022,3,Brick,,52 m²,Fully furnished,Very good,,G,,,1.0,,,113.11,379.86,71.41,241.99,45.66,98.49,295.44,275.59,558.97,269.92,Prague - Vinohrady,50.0755,14.45124,,,,,,,,,
"CZK 30,000","CZK 6,000","CZK 30,000",628613,3+1,9/1/2022,1,Brick,30 - 50 years,89 m²,Fully furnished,Very good,Personal,G,,,1.0,,,167.95,912.97,160.16,349.44,164.94,418.89,576.42,448.95,290.35,341.84,"Slavojova, Prague - Nusle",50.064215,14.424948,Electric boiler,Complete,Standard,,,,,,
"CZK 40,000","CZK 10,000","CZK 80,000",725560,3+kk,7/10/2022,1,Other,,138 m²,Unfurnished,Very good,,G,,,1.0,,,217.64,234.28,240.62,629.17,210.31,68.85,525.17,314.44,226.55,376.18,Prague - Žižkov,50.08457,14.46719,Central,,,,,,,,
"CZK 29,000","CZK 5,200","CZK 58,000",554565,3+kk,10/1/2022,1,Brick,10 to 30 years,77 m²,Partly,Very good,Personal,,1.0,,1.0,1.0,1.0,811.38,1504.11,710.84,1041.71,276.11,1058.02,650.87,802.52,639.07,735.93,"Podvinný mlýn, Prague - Libeň",50.1109789,14.4891272,,,Standard,1.0,,1.0,,1.0,
"CZK 48,645","CZK 16,215",,732720,3+1,9/15/2022,2,,,55 m²,Fully furnished,,,,,,,,,158.42,248.82,154.82,246.13,112.68,264.3,390.21,408.3,154.53,114.55,"Řásnovka, Prague - Staré Město",50.0918754,14.4250902,,,,,,,,,
"CZK 10,000",CZK 0,"CZK 10,000",698590,5+1,10/1/2022,2,Brick,,130 m²,Fully furnished,Very good,Personal,G,,,1.0,,,244.34,824.44,86.79,277.59,61.66,236.34,404.32,820.6,583.23,930.33,"Schnirchova, Prague - Holešovice",50.10177,14.43515,,,,,,,,,
"CZK 17,499","CZK 2,500","CZK 40,000",722445,2+kk,9/1/2022,8,Prefab concrete,10 to 30 years,37 m²,Partly,New-build,,D,1.0,,1.0,1.0,1.0,144.7,754.34,662.45,1990.84,216.86,1268.73,1076.56,1172.95,1192.68,596.3,Prague - Lhotka,50.01389,14.45457,Central,Complete,Standard,,,1.0,,1.0,
"CZK 20,000","CZK 3,800","CZK 30,000",590439,2+kk,10/1/2022,1,Brick,,57 m²,Fully furnished,Very good,Personal,C,,,,,,38.86,307.15,115.55,201.09,89.04,299.1,388.68,487.16,343.11,321.59,"Minská, Prague - Vršovice",50.067462,14.457853,Electric boiler,Complete,Luxurious,,,,,,
"CZK 15,000","CZK 5,300","CZK 40,000",728043,2+kk,9/3/2022,3,Brick,,50 m²,Unfurnished,New-build,Personal,A,1.0,,,,1.0,472.29,943.14,661.04,1348.71,676.16,989.59,1050.16,1126.49,1467.83,658.23,"Hůrská, Prague - Kyje",50.105237577283,14.554041749073,Central,,Standard,,,,,1.0,
"CZK 18,000","CZK 3,500","CZK 30,000",686234,2+kk,10/1/2022,4,Low-energy,Up to 10 years,61 m²,Fully furnished,New-build,Personal,G,,,1.0,,1.0,166.41,277.1,194.99,211.02,122.23,100.75,692.11,679.08,827.84,107.1,"Soukalova, Prague - Modřany",50.0052932,14.4150978,Other,,,1.0,,1.0,,,
"CZK 21,500","CZK 4,000","CZK 43,000",725359,2 bedroom,8/28/2022,1,Brick,10 to 30 years,80 m²,Partly,Very good,Personal,,,,,,1.0,379.01,2220.31,438.76,1628.78,367.87,1674.19,2055.82,2977.16,401.69,189.22,Prague - Hostavice,50.08462,14.55603,,,Luxurious,1.0,,,,1.0,
"CZK 14,900","CZK 4,800","CZK 20,000",407176,2+kk,10/1/2022,1,Brick,,52 m²,Partly,Good,Personal,,,,1.0,1.0,,89.3,393.79,90.94,279.42,165.7,306.97,490.93,99.47,643.22,248.21,"Boleslavská, Prague - Vinohrady",50.0761886,14.4593094,Gas boiler,,,,,,,,
"CZK 18,000","CZK 1,000","CZK 18,000",380919,2 bedroom,,4,Brick,,68 m²,Partly,,Cooperative,,,,,1.0,,134.35,703.62,295.83,129.71,179.94,179.33,384.73,268.03,283.24,350.29,"Kouřimská, Prague - Vinohrady",50.0776961,14.4719023,Electric boiler,,,,,,,1.0,
"CZK 40,000","CZK 10,000","CZK 40,000",732699,2+kk,9/6/2022,1,Brick,,53 m²,Fully furnished,New-build,,E,1.0,,1.0,,,3.57,190.08,21.88,46.72,0.16,49.7,126.81,307.26,210.27,260.67,Prague - Staré Město,50.09081,14.42708,,,,,,,,,
"CZK 36,450","CZK 12,150",,726075,3+kk,10/10/2022,6,,,82 m²,Fully furnished,,,,,,1.0,,,101.2,551.63,76.94,167.66,45.43,94.55,322.6,504.78,539.56,607.69,"Rumunská, Prague - Vinohrady",50.0739629,14.4309041,,,,,,,,,
"CZK 20,000","CZK 3,900","CZK 35,000",484018,2+kk,9/1/2022,2,Brick,,64 m²,Fully furnished,Very good,,,,,1.0,,1.0,147.73,398.09,319.69,406.32,74.93,392.19,463.28,254.94,377.71,263.55,"Na Žertvách, Prague - Libeň",50.1051921,14.4782886,,,,,,1.0,,1.0,
"CZK 12,000","CZK 2,700","CZK 24,000",732695,Studio,9/6/2022,3,Brick,,26 m²,Partly,Very good,,G,,,,,,233.33,597.58,424.82,268.33,15.01,1219.3,217.85,552.03,354.24,393.59,Prague - Michle,50.05793,14.45218,,,,,,,,,
"CZK 59,250","CZK 19,750",,717599,4+kk,9/9/2022,2,,,90 m²,Fully furnished,,,,,,1.0,,,140.09,527.92,223.64,125.85,37.89,66.77,510.79,1001.31,1180.94,559.23,"Stroupežnického, Prague - Smíchov",50.0710929,14.4032595,,,,,,,,,
"CZK 20,000","CZK 3,500","CZK 40,000",730933,2 bedroom,9/7/2022,6,Brick,,53 m²,Fully furnished,Very good,Personal,E,,,1.0,1.0,1.0,249.45,542.09,188.53,762.13,138.43,578.41,416.88,123.11,714.28,256.3,Prague - Žižkov,50.09051,14.49609,Central,Complete,,,,,,1.0,
"CZK 48,435","CZK 16,145",,730649,3+1,10/20/2022,3,,,108 m²,Fully furnished,,,,,,1.0,,,170.36,424.31,260.04,428.7,73.65,305.75,38.65,29.43,439.38,720.46,"Balbínova, Prague - Vinohrady",50.0795643,14.4361068,,,,,,,,,
"CZK 33,000","CZK 11,000",,728257,3+kk,10/1/2022,2,,,80 m²,Fully furnished,,,,,,,,,156.94,402.05,153.34,284.97,151.52,248.16,393.35,447.14,193.37,153.39,"Anežská, Prague - Staré Město",50.0920126,14.4239059,,,,,,,,,
"CZK 37,500","CZK 12,500",,720700,2+kk,9/12/2022,2,,,60 m²,Fully furnished,,,,,,1.0,,,241.61,542.2,98.71,270.79,176.01,313.55,455.64,821.55,633.96,593.3,"Mečislavova, Prague - Nusle",50.0633237,14.4440058,,,,,,,,,
"CZK 56,250","CZK 18,750",,730578,2+kk,10/19/2022,3,,,47 m²,Fully furnished,,,,,,1.0,,,145.3,409.63,254.35,292.12,59.28,309.45,136.5,419.43,177.03,511.6,"Elišky Krásnohorské, Prague - Josefov",50.0906304,14.4198248,,,,,,,,,
"CZK 36,675","CZK 12,225",,731158,2+kk,10/24/2022,2,,,55 m²,Fully furnished,,,,,,1.0,,,170.48,421.6,257.32,426.75,52.86,339.7,54.65,63.39,473.33,754.41,"Balbínova, Prague - Vinohrady",50.0795659,14.4357789,,,,,,,,,
"CZK 37,500","CZK 12,500",,730647,Studio,9/26/2022,2,,,40 m²,Fully furnished,,,,,,,,,87.49,353.69,89.13,198.59,58.79,391.02,424.91,274.28,259.74,601.22,"Zborovská, Prague - Smíchov",50.0730353,14.4083714,,,,1.0,,,,1.0,
"CZK 20,250","CZK 6,750",,731156,2+kk,10/24/2022,2,,,49 m²,Fully furnished,,,,,,1.0,,,84.02,732.97,86.86,659.07,276.51,744.0,408.19,306.62,634.43,198.98,"Na Míčánkách, Prague - Vršovice",50.0713305,14.4638794,,,,,,,,,
"CZK 73,500","CZK 24,500",,732122,4+kk,11/1/2022,7,,,150 m²,Fully furnished,,,,,,1.0,,,151.96,732.59,114.81,122.42,123.15,23.69,324.18,773.09,503.18,376.18,"Jungmannova, Prague - Nové Město",50.0805317,14.4221981,,,,1.0,,,,1.0,
"CZK 57,000","CZK 19,000",,732121,3+1,11/1/2022,3,,,130 m²,Fully furnished,,,,,,,,,293.94,358.82,65.34,231.82,29.61,399.45,202.79,623.36,368.2,458.02,"Michalská, Prague - Staré Město",50.0859057,14.4200254,,,,,,1.0,,,
"CZK 19,500","CZK 6,500",,732119,1 bedroom,11/1/2022,1,,,48 m²,Fully furnished,,,,,,1.0,,,204.77,465.61,234.08,276.39,71.8,120.68,308.71,446.98,178.85,556.7,"Františka Křížka, Prague - Holešovice",50.1009689,14.4305059,,,,,,,,,
"CZK 41,625","CZK 13,875",,720848,4+kk,10/2/2022,4,,,112 m²,Fully furnished,,,,,,1.0,,,168.35,737.87,30.76,217.13,7.9,216.51,106.1,336.15,114.49,565.37,"Ostrovní, Prague - Nové Město",50.0806286,14.4175374,,,,1.0,,,,1.0,
"CZK 39,000","CZK 13,000",,732116,2 bedroom,11/1/2022,3,,,72 m²,Fully furnished,,,,,,1.0,,,73.01,281.28,58.33,478.54,20.37,379.07,102.37,138.49,668.56,481.36,"Francouzská, Prague - Vinohrady",50.0739894,14.440101,,,,,,,,,
"CZK 47,025","CZK 15,675",,732115,2+kk,11/1/2022,3,,,64 m²,Fully furnished,,,,,,1.0,,,110.1,392.87,177.02,129.22,79.72,168.29,299.92,497.22,273.67,349.66,"Dlážděná, Prague - Nové Město",50.0865843,14.4323212,,,,1.0,,,,1.0,
"CZK 18,750","CZK 6,250",,732114,Studio,11/1/2022,1,,,25 m²,Fully furnished,,,,,,,,,272.71,301.68,85.68,246.48,43.26,206.77,19.97,254.25,110.99,588.48,"Štítného, Prague - Žižkov",50.0855201,14.4494539,,,,,,,,,
"CZK 22,493","CZK 7,497",,732113,Studio,11/1/2022,3,,,30 m²,Fully furnished,,,,,,1.0,,,258.66,685.78,233.92,407.82,154.16,415.37,547.3,506.41,132.73,464.34,"V Háji, Prague - Holešovice",50.1013638,14.4546402,,,,,,1.0,,,
"CZK 25,500","CZK 8,500",,732231,2+kk,11/2/2022,3,,,48 m²,Fully furnished,,,,,,1.0,,,188.32,492.36,64.31,169.76,16.44,202.35,307.51,551.4,544.96,488.43,"Řeznická, Prague - Nové Město",50.0781758,14.4220203,,,,,,,,,
"CZK 37,500","CZK 12,500",,732692,1 bedroom,11/5/2022,2,,,50 m²,Fully furnished,,,,,,,,,187.82,338.29,111.0,241.4,39.4,347.76,25.85,486.49,569.58,575.91,"Karmelitská, Prague - Malá Strana",50.08657,14.4033198,,,,,,,,,
"CZK 17,000","CZK 3,539","CZK 30,000",709488,Studio,9/7/2022,2,Brick,,32 m²,Fully furnished,Very good,Personal,G,,,1.0,,,15.98,569.97,162.62,196.99,41.32,221.23,152.56,579.07,569.44,156.87,"Batelovská, Prague - Michle",50.04577,14.44959,Distance,Complete,Luxurious,,,,,,
"CZK 18,000","CZK 4,000","CZK 18,000",731912,1 bedroom,11/1/2022,3,Brick,Up to 10 years,41 m²,Fully furnished,Very good,,G,1.0,,1.0,,,50.4,136.37,17.92,343.39,46.61,70.87,203.62,387.13,82.88,253.52,Prague - Žižkov,50.08769,14.45695,Central,Complete,Standard,,1.0,,,1.0,
"CZK 23,500","CZK 5,000","CZK 40,000",731940,3+kk,8/31/2022,1,Prefab concrete,10 to 30 years,80 m²,Fully furnished,Very good,Cooperative,E,,1.0,,1.0,1.0,118.78,574.72,620.35,1071.13,489.08,568.38,719.0,646.65,464.63,340.39,Prague - Letňany,50.14089,14.51512,Central,Complete,Standard,,1.0,,,,
"CZK 13,500","CZK 4,500","CZK 18,000",732631,Studio,9/15/2022,5,Brick,10 to 30 years,30 m²,Fully furnished,Very good,Personal,G,,,1.0,,,126.42,179.79,94.37,516.65,103.38,245.39,333.11,277.2,232.31,362.64,Prague - Žižkov,50.08678,14.45409,Electric boiler,,Standard,,,,,,
"CZK 13,500","CZK 3,000","CZK 20,000",732685,2+kk,9/5/2022,5,Prefab concrete,,42 m²,Partly,Very good,,C,,,1.0,1.0,,111.85,1169.22,640.68,883.83,539.37,955.29,719.13,425.1,588.16,295.46,Prague - Žižkov,50.08774,14.47907,,,,,,,,,
"CZK 18,000","CZK 4,400","CZK 30,000",517723,2+kk,10/1/2022,4,Brick,,46 m²,Partly,,Personal,B,,,1.0,,,84.24,854.16,66.74,666.06,36.41,181.67,494.44,214.01,620.87,320.4,"Čumpelíkova, Prague - Kobylisy",50.1275464,14.4599018,Central,,,,,1.0,,,
"CZK 10,500","CZK 3,500","CZK 14,000",508804,1 bedroom,10/1/2022,2,Brick,,32 m²,Partly,Very good,Personal,,,,,,,97.42,775.46,434.8,564.79,33.22,419.85,703.27,593.35,1151.55,236.72,"Vykáňská, Prague - Strašnice",50.0782191,14.5043979,,Interior,Standard,,,,,1.0,
"CZK 12,000","CZK 5,000","CZK 20,000",731590,2+kk,8/29/2022,,Brick,Over 50 years,46 m²,Partly,Good,,G,,,,,,107.51,957.82,19.08,1367.93,79.59,248.01,375.18,199.96,506.8,438.33,Prague - Libeň,50.11625,14.46934,Electric boiler,,,,,,,,
"CZK 32,000","CZK 2,600","CZK 62,000",732664,3+kk,9/5/2022,2,Brick,,71 m²,Unfurnished,New-build,,B,1.0,,1.0,,1.0,80.58,970.2,288.35,326.95,469.13,383.3,436.86,1714.08,660.71,182.37,Prague - Třebonice,50.05601,14.29032,,,,,,1.0,,1.0,
"CZK 16,800","CZK 5,000","CZK 30,000",261360,1 bedroom,9/1/2022,1,Brick,Over 50 years,42 m²,Partly,Very good,Personal,,,,,,,331.24,781.05,684.31,744.39,389.49,703.4,548.2,708.51,1253.91,306.21,Prague - Suchdol,50.1402544,14.3836969,Central,Complete,Luxurious,,,,,,
"CZK 17,000","CZK 5,828","CZK 25,000",732658,2+kk,9/5/2022,1,Brick,10 to 30 years,55 m²,Fully furnished,New-build,Personal,D,,,,1.0,,352.01,626.03,109.91,442.25,295.99,353.28,376.87,436.79,384.62,300.21,Prague - Košíře,50.06769,14.36999,,,Standard,1.0,,1.0,,,
"CZK 20,000","CZK 9,000","CZK 20,000",732319,3+1,9/4/2022,2,Brick,,90 m²,Partly,Good,Other,G,,,,,,58.29,1048.72,549.93,1041.37,533.16,608.6,526.81,806.17,1257.17,530.28,Prague - Hodkovičky,50.02247,14.42174,,,,,1.0,,,1.0,
"CZK 17,000","CZK 4,148","CZK 17,000",651280,2+kk,9/15/2022,2,Brick,Up to 10 years,48 m²,Partly,New-build,Personal,B,1.0,,,1.0,1.0,228.11,1233.41,633.21,1332.18,221.1,1084.64,641.83,537.24,927.23,388.57,"Javorová, Prague - Kobylisy",50.136303,14.476185,Electric boiler,Complete,Standard,,,,,,
"CZK 13,500","CZK 3,000","CZK 27,000",716902,Studio,5/3/2022,3,Brick,Up to 10 years,37 m²,Fully furnished,New-build,Personal,B,,,1.0,,1.0,198.28,375.21,953.92,934.57,510.08,471.79,763.33,965.47,423.89,236.43,"Pavla Beneše, Prague - Letňany",50.13927,14.51786,Central,,Standard,,,1.0,,,
"CZK 41,100","CZK 13,700",,730539,2+kk,9/19/2022,2,,,68 m²,Fully furnished,,,,,,1.0,,,170.48,421.6,257.32,426.75,52.86,339.7,54.65,63.39,473.33,754.41,"Balbínova, Prague - Vinohrady",50.0795659,14.4357789,,,,,,,,,
"CZK 36,000","CZK 8,000","CZK 72,000",340507,5+1,10/1/2022,8,Other,10 to 30 years,150 m²,Partly,Very good,Personal,,,1.0,1.0,,1.0,247.96,376.79,351.93,311.97,246.91,302.19,383.0,570.13,857.55,296.31,"Volutová, Prague - Stodůlky",50.0498583,14.3378127,Distance,Interior,Luxurious,,,,,,
"CZK 25,000","CZK 4,000","CZK 29,000",684629,3+1,9/23/2022,2,Brick,,90 m²,Partly,Good,Personal,A,,1.0,,,,157.96,417.38,60.49,299.49,87.33,438.16,192.59,107.79,437.45,581.6,"Krásova, Prague - Žižkov",50.08552,14.44642,,Interior,,,,,,1.0,
"CZK 12,000","CZK 2,500","CZK 14,500",731909,Studio,9/19/2022,2,Prefab concrete,,33 m²,Partly,Very good,,A,,1.0,,,,84.12,1247.63,724.44,893.53,723.38,1241.82,428.2,294.51,777.75,176.41,Prague - Michle,50.04686,14.4677,,,,,,,,,
"CZK 21,900","CZK 3,000","CZK 24,900",628098,2 bedroom,9/30/2022,2,Brick,Up to 10 years,59 m²,Partly,Good,Personal,A,,,,,,158.41,417.83,60.94,299.04,87.78,438.61,193.04,108.24,437.9,582.05,"Krásova, Prague - Žižkov",50.085524,14.446418,,,Standard,,,,,1.0,
"CZK 12,000",CZK 700,"CZK 12,000",552380,Studio,9/5/2022,2,Brick,,25 m²,Fully furnished,Very good,Personal,C,,,,,,113.86,648.65,21.79,158.91,99.32,194.33,437.79,758.42,490.28,816.9,"Veletržní, Prague - Holešovice",50.1020087,14.4335784,Electric boiler,,,,,,,,
"CZK 13,990","CZK 3,554","CZK 17,544",732649,1 bedroom,9/7/2022,2,Brick,,37 m²,Fully furnished,Good,Personal,G,,,,1.0,,205.96,1473.39,136.32,1145.72,182.43,123.65,514.34,163.28,592.77,122.93,"Vyžlovská, Prague - Strašnice",50.06713416666,14.51026305555,,,,,,,"CZK 17,544",1.0,
"CZK 23,000","CZK 3,300","CZK 60,000",732646,3+kk,9/5/2022,9,Prefab concrete,,70 m²,Partly,New-build,Personal,G,,1.0,1.0,1.0,,185.74,575.87,76.32,249.37,246.31,307.77,497.11,243.58,367.86,341.3,Prague - Háje,50.02921,14.52862,Central,Complete,Luxurious,,1.0,,,,
"CZK 20,000","CZK 4,500","CZK 45,000",732644,1 bedroom,9/19/2022,2,Brick,,45 m²,Partly,Very good,,G,,,,,,410.17,1507.76,969.35,1170.81,576.77,1063.58,847.57,749.16,600.77,554.81,Prague - Košíře,50.06701,14.35662,,,,,,,,1.0,
"CZK 18,500","CZK 4,000","CZK 22,000",549834,2+kk,12/1/2022,1,Brick,Up to 10 years,98 m²,Fully furnished,Very good,Personal,,1.0,,,,,154.1,110.15,174.67,1486.96,120.82,918.33,1029.37,620.92,801.21,132.14,"Klementova, Prague - Stodůlky",50.0457666,14.3046522,Electric boiler,Complete,Luxurious,1.0,1.0,,,,
"CZK 21,000","CZK 5,000","CZK 21,000",625005,2 bedroom,9/1/2022,1,Brick,10 to 30 years,57 m²,Fully furnished,Very good,Personal,D,,,,,,204.28,447.36,120.4,316.12,133.65,468.15,168.81,137.77,299.77,570.13,"Husinecká, Prague - Žižkov",50.085831,14.446835,Gas boiler,Interior,Standard,,,,,,
"CZK 22,000","CZK 3,500","CZK 44,000",731901,2+kk,9/29/2022,7,Low-energy,,50 m²,Fully furnished,New-build,,E,,,,,,311.79,937.12,217.43,494.16,172.3,251.34,607.78,1093.67,297.97,798.29,Prague - Holešovice,50.10363,14.43617,,,,1.0,,,,,
"CZK 15,990","CZK 2,354","CZK 18,344",732638,3+kk,9/8/2022,5,Brick,,55 m²,Fully furnished,Good,Cooperative,G,,,1.0,1.0,,85.93,367.36,151.37,308.95,330.61,1309.05,339.93,609.93,1041.94,517.48,"Hlavní, Prague - Záběhlice",50.04760944444,14.49129833333,,,,,,,"CZK 18,344",1.0,
"CZK 59,000","CZK 9,500","CZK 118,000",432912,5+kk,9/1/2022,6,Brick,,240 m²,Fully furnished,,Personal,,,,1.0,,,174.74,280.54,98.82,188.39,115.11,446.45,286.03,336.05,977.41,264.84,Prague - Vinohrady,50.078327416966,14.455739663754,,,Luxurious,1.0,,,,1.0,
"CZK 11,000","CZK 3,500","CZK 14,500",732636,Studio,9/5/2022,,Brick,,21 m²,Fully furnished,Very good,,G,,,,,1.0,182.57,438.66,637.74,1044.28,300.21,795.39,189.81,1052.75,1908.9,130.4,Prague - Jinonice,50.05367,14.36012,,,,,,,,,
"CZK 25,000","CZK 4,000","CZK 29,000",576278,4+1,9/14/2022,2,Brick,,90 m²,Partly,Good,Personal,,,,,,,158.48,417.9,61.01,298.96,87.85,438.69,193.11,108.32,437.97,582.12,"Krásova, Prague - Žižkov",50.0855247,14.4464196,,,Standard,,,,,,
"CZK 7,000","CZK 2,000","CZK 10,000",732632,Small studio,9/5/2022,4,Other,,34 m²,Fully furnished,New-build,,G,,,1.0,,,178.58,1079.2,254.49,1044.37,461.31,619.85,1012.02,752.65,415.0,539.01,Prague - Stodůlky,50.05296,14.33228,,,,,,,,,
"CZK 17,000","CZK 4,800","CZK 17,000",726503,2 bedroom,7/19/2022,3,Brick,,64 m²,Fully furnished,Very good,Cooperative,,,,,,1.0,77.26,1194.19,749.99,1186.85,601.55,675.04,515.47,826.4,1235.44,627.62,Prague - Braník,50.02706,14.41658,,,Standard,,,,,1.0,
"CZK 15,900","CZK 3,000","CZK 18,900",685065,2 bedroom,9/20/2022,3,Brick,,65 m²,Partly,Good,Personal,,,,,,,157.96,417.38,60.49,299.49,87.33,438.16,192.59,107.79,437.45,581.6,"Krásova, Prague - Žižkov",50.08552,14.44642,,,,,,,,,
"CZK 13,500","CZK 2,500","CZK 25,000",731890,1 bedroom,8/31/2022,5,Prefab concrete,,34 m²,Unfurnished,Very good,,G,,,1.0,,,246.83,1125.71,266.13,1352.95,317.8,547.91,323.27,954.4,383.94,131.64,Prague - Záběhlice,50.05399,14.49154,,,,,,,,,
"CZK 13,500","CZK 3,500","CZK 20,000",347163,2+kk,9/12/2022,7,Brick,Up to 10 years,49 m²,Unfurnished,New-build,Personal,C,1.0,,1.0,,,62.17,938.18,217.05,750.17,651.91,209.62,600.37,598.77,1175.07,555.51,"Hornoměcholupská, Prague - Horní Měcholupy",50.0433142,14.5666989,Distance,,Standard,,,,,1.0,
"CZK 29,250","CZK 9,750",,730836,2+kk,10/31/2022,1,,,40 m²,Fully furnished,,,,,,,,,29.42,633.78,151.61,536.89,130.46,316.51,391.7,900.17,984.89,128.97,"Šporkova, Prague - Malá Strana",50.0876289,14.3978335,,,,,,,,,
"CZK 14,900","CZK 4,000","CZK 20,000",731332,Studio,12/15/2022,1,Brick,Over 50 years,32 m²,Unfurnished,Good,,G,,,,,,662.77,671.97,654.76,3976.71,693.43,964.64,2776.84,3399.37,829.83,566.35,Prague - Dubeč,50.06447,14.58301,Central,Interior,Standard,,,,,,
"CZK 13,500","CZK 3,500","CZK 26,000",718465,Studio,6/27/2022,4,Brick,,33 m²,Partly,New-build,Personal,A,1.0,,1.0,1.0,,79.0,1760.28,922.96,1519.14,289.88,1166.8,614.6,1227.94,1259.31,536.73,"Vrátnická, Prague - Modřany",50.0124216,14.4017606,,,Luxurious,,,,,1.0,
"CZK 31,425","CZK 10,475",,729524,Studio,9/27/2022,3,,,30 m²,Fully furnished,,,,,,1.0,,,210.86,390.29,319.5,985.86,301.65,338.01,858.33,290.45,385.77,539.9,"Strakonická, Prague - Smíchov",50.0643299,14.4102127,,,,,,,,,
"CZK 24,581","CZK 8,194",,729938,Studio,10/9/2022,1,,,32 m²,Fully furnished,,,,,,,,,447.58,805.32,396.64,450.11,197.32,945.56,256.47,627.41,458.07,336.59,"Nad Kolčavkou A, Prague - Libeň",50.1080609,14.4828384,,,,,,,,,
"CZK 24,000","CZK 3,892","CZK 24,000",731882,2+kk,8/31/2022,1,Low-energy,Up to 10 years,80 m²,Partly,Very good,,G,,,1.0,1.0,,405.6,1464.68,497.77,1080.01,146.99,1119.79,1146.85,267.71,674.66,28.68,Prague - Liboc,50.08978,14.33119,Central,,Standard,,,1.0,,1.0,
"CZK 28,000",CZK 500,"CZK 28,000",533114,3+1,9/8/2022,1,Brick,Up to 10 years,82 m²,Partly,,Personal,E,,,,,,165.58,704.11,211.41,196.9,129.03,337.11,559.55,554.51,499.96,268.51,"Žerotínova, Prague - Žižkov",50.088534,14.4649585,,Complete,,,,,,,
"CZK 17,900","CZK 4,000","CZK 21,900",731562,2+kk,8/31/2022,2,Other,,52 m²,Partly,New-build,,B,1.0,,1.0,,,229.9,947.02,205.09,713.91,247.68,447.39,154.37,412.65,1095.26,196.69,Prague - Modřany,50.0061,14.40679,,,,,,,,1.0,
"CZK 15,000","CZK 7,500","CZK 30,000",732495,2 bedroom,9/5/2022,2,Brick,,78 m²,Unfurnished,Good,,G,,,,,,134.33,305.85,402.68,2461.66,151.56,379.69,716.53,915.02,2639.7,463.98,Prague - Dolní Chabry,50.14444,14.44953,,,,,,,,1.0,
"CZK 79,000","CZK 20,000","CZK 158,000",714217,3+kk,9/1/2022,4,Other,,164 m²,Fully furnished,New-build,Personal,B,,,1.0,1.0,1.0,384.26,1775.9,682.53,228.18,659.39,778.18,602.6,888.16,165.88,617.77,"Ke Dvoru, Prague - Vokovice",50.09653,14.34031,Distance,,Luxurious,1.0,,,,,
"CZK 30,675","CZK 10,225",,731228,Studio,9/9/2022,2,,,30 m²,Fully furnished,,,,,,1.0,,,210.86,390.29,319.5,985.86,301.65,338.01,858.33,290.45,385.77,539.9,"Strakonická, Prague - Smíchov",50.0643299,14.4102127,,,,,,,,,
"CZK 12,900","CZK 5,000","CZK 20,000",683229,Studio,10/3/2022,1,Brick,Up to 10 years,31 m²,Fully furnished,New-build,Personal,A,,,1.0,,1.0,487.54,2166.24,1385.09,4808.93,936.78,1178.67,904.69,3237.92,3049.38,780.7,"Švihovská, Prague - Písnice",49.99614,14.47286,Distance,,Standard,,,,,1.0,
"CZK 16,000","CZK 1,500","CZK 20,000",643985,Studio,10/1/2022,8,Prefab concrete,,46 m²,Fully furnished,Very good,Personal,C,,,1.0,,,72.64,811.93,208.65,339.8,133.5,227.52,419.42,235.53,1583.83,303.0,"Seydlerova, Prague - Stodůlky",50.050322,14.351556,Electric boiler,Complete,,,,,,1.0,
"CZK 14,500",CZK 500,"CZK 25,000",609104,2 bedroom,9/5/2022,,Brick,,59 m²,,Good,Personal,G,,,,,,225.1,1115.58,252.13,729.25,344.37,1317.53,145.66,230.19,667.68,276.5,"Spojovací, Prague - Vysočany",50.101403,14.489725,,,,,,,,,
"CZK 39,600","CZK 13,200",,717648,2+kk,10/13/2022,2,,,46 m²,Fully furnished,,,,,,,,,249.05,258.88,108.69,237.41,65.07,536.83,294.74,273.73,806.33,231.2,"Míšeňská, Prague - Malá Strana",50.0876118,14.4080467,,,,,,,,,
"CZK 28,000","CZK 3,000","CZK 56,000",732487,2+kk,9/6/2022,3,Brick,,60 m²,Partly,Very good,,D,,,,,,,,,,,,,,,,Prague - Nové Město,50.07124,14.4155,,,,,,,,,
"CZK 37,500","CZK 12,500",,718920,2+kk,9/9/2022,3,,,60 m²,Fully furnished,,,,,,1.0,,,241.61,542.2,98.71,270.79,176.01,313.55,455.64,821.55,633.96,593.3,"Mečislavova, Prague - Nusle",50.0633237,14.4440058,,,,1.0,,,,1.0,
"CZK 30,000","CZK 6,000","CZK 30,000",732480,3+1,9/12/2022,5,Brick,,110 m²,Partly,Very good,,G,,,1.0,,,175.3,267.45,128.7,505.43,165.96,170.0,236.82,385.55,605.27,103.86,Prague - Holešovice,50.10212,14.44461,,,,,,,,,
"CZK 16,000","CZK 5,000","CZK 30,000",436530,2+kk,6/15/2021,3,Brick,Up to 10 years,48 m²,Fully furnished,Very good,Personal,A,1.0,,1.0,1.0,1.0,476.29,759.76,272.47,574.33,614.49,1017.63,374.01,200.02,805.08,409.87,Prague - Nusle,50.055112474159,14.448289199475,Distance,,Standard,,,1.0,,1.0,
"CZK 18,990","CZK 1,200","CZK 18,000",697963,Studio,7/9/2022,3,Brick,Up to 10 years,53 m²,Fully furnished,Very good,Personal,B,,,1.0,,,151.52,401.41,109.66,391.76,94.68,206.05,303.75,316.12,661.89,418.83,"Salmovská, Prague - Nové Město",50.07486,14.42255,Distance,Complete,Luxurious,1.0,,,,,
"CZK 16,900","CZK 3,000","CZK 16,900",682598,1 bedroom,10/1/2022,1,Brick,,50 m²,Partly,Very good,Personal,G,,,,1.0,1.0,276.94,538.07,192.49,734.47,116.14,237.14,176.65,167.91,731.97,327.41,"Vítkova, Prague - Karlín",50.08981,14.44593,,Complete,,,,,,,
"CZK 8,500",CZK 0,CZK 0,527805,4+1,9/1/2022,1,Brick,,20 m²,Fully furnished,Very good,Personal,,,,,,,221.95,691.06,248.12,670.43,675.12,695.1,971.86,902.24,857.91,255.45,Prague - Hostivař,50.0570207,14.5191051,Electric boiler,,,,,,,1.0,
"CZK 8,900","CZK 1,000","CZK 10,000",732473,Small studio,9/5/2022,1,Other,,18 m²,Fully furnished,Good,,F,,,,,,245.72,226.56,270.26,667.18,324.83,306.12,928.21,543.25,842.34,608.35,Prague - Libeň,50.11951,14.46319,,,,,1.0,,,,
"CZK 10,000","CZK 3,000","CZK 10,000",642394,Small studio,9/9/2022,1,Brick,,21 m²,Partly,Very good,Personal,G,,,,1.0,,40.4,128.96,206.2,624.34,291.79,589.26,489.02,532.48,381.68,101.04,"Jabloňová, Prague - Záběhlice",50.056632,14.502264,Distance,Interior,,,,,,,
"CZK 7,900",CZK 590,"CZK 15,800",64253,1 bedroom,10/1/2022,,Brick,,42 m²,Unfurnished,,Personal,,,,,,,303.44,218.62,136.84,87.72,143.96,232.59,274.5,621.56,498.88,216.61,"Kafkova, Prague - Dejvice",50.0981478,14.3988274,Electric boiler,,,,,,,,
"CZK 18,000","CZK 5,000","CZK 20,000",731774,2 bedroom,8/30/2022,3,Brick,,70 m²,Partly,Good,,G,,,,1.0,,161.29,337.38,55.19,381.29,71.73,300.17,292.09,311.56,471.93,346.14,Prague - Uhříněves,50.02907,14.60114,Electric boiler,,,,1.0,,,,
"CZK 29,900","CZK 2,603","CZK 33,000",732460,2 bedroom,8/29/2022,1,Other,,71 m²,,Good,Personal,,,,,,,333.08,298.96,45.33,214.75,54.27,39.01,271.19,790.45,189.87,583.72,"Opletalova, Prague - Nové Město",50.0812346,14.4298177,,,,,,,"CZK 4,485",,
"CZK 18,685","CZK 2,610","CZK 60,000",732458,3+kk,9/5/2022,2,Prefab concrete,,68 m²,Partly,Good,,C,,,1.0,1.0,,176.19,601.52,276.38,413.51,330.45,131.23,263.84,272.75,942.2,315.51,Prague - Horní Měcholupy,50.04115,14.56562,,,,,1.0,,,1.0,
"CZK 35,000","CZK 8,200","CZK 50,000",665597,4+kk,10/1/2022,2,Brick,,105 m²,Partly,Very good,Personal,G,,,1.0,1.0,,396.01,549.44,157.22,388.26,59.79,212.95,448.07,522.4,570.4,483.84,"Kubelíkova, Prague - Žižkov",50.08216,14.45073,,,,,,,,,
"CZK 20,000","CZK 4,900","CZK 40,000",732447,2 bedroom,11/1/2022,,Brick,,60 m²,Fully furnished,Very good,,G,,,,,,167.34,727.91,51.75,549.55,80.93,744.46,530.96,1064.93,83.46,228.05,Prague - Podolí,50.05359,14.41895,Central,Complete,Standard,,,,,,
"CZK 20,000",CZK 750,"CZK 20,000",678363,3+kk,9/1/2022,3,Brick,,70 m²,Fully furnished,Very good,Personal,E,,,,,,66.7,418.89,55.56,148.62,34.78,293.35,446.46,251.71,237.17,665.49,"Staropramenná, Prague - Smíchov",50.07204,14.40681,,,,,,,,,
"CZK 20,000","CZK 8,100","CZK 33,000",729666,3+kk,9/15/2022,1,Brick,,70 m²,Fully furnished,Good,Personal,G,,,1.0,,,202.84,1000.51,965.34,2744.15,598.14,946.39,806.09,3874.68,843.89,666.43,Prague - Štěrboholy,50.0747,14.55265,,,Standard,,1.0,,,1.0,
"CZK 130,000","CZK 15,000","CZK 145,000",732450,5+kk,11/1/2022,5,Brick,,212 m²,Partly,Very good,,G,,,1.0,,,41.4,344.12,274.72,457.52,50.64,434.5,143.34,584.82,59.77,467.53,Prague - Josefov,50.09114,14.41807,,,,,,,,,
"CZK 15,000","CZK 5,000",,728426,Studio,11/2/2022,12,,,25 m²,Fully furnished,,,,,,1.0,,,228.88,257.2,204.55,166.76,173.2,262.96,328.04,408.55,436.47,292.09,"Freyova, Prague - Vysočany",50.108944,14.501028,,,,,,,,,
"CZK 11,000","CZK 3,000","CZK 20,000",686129,Studio,10/10/2022,4,Brick,,26 m²,Partly,New-build,Personal,C,,,1.0,1.0,,549.23,662.36,441.09,761.17,468.73,740.0,498.65,448.69,636.62,748.27,"Perucká, Prague - Vinohrady",50.06851,14.43809,,,,1.0,,,,,
"CZK 11,000","CZK 4,500","CZK 11,000",732445,2 bedroom,9/5/2022,2,Brick,,50 m²,Partly,Good,,G,,,,,,138.36,260.49,64.57,2286.67,152.81,596.12,233.0,457.72,1468.53,482.31,Prague - Braník,50.0388,14.41097,,,,,,,,1.0,
"CZK 19,999","CZK 4,500","CZK 24,500",334624,Studio,9/1/2022,1,Brick,,39 m²,Fully furnished,New-build,Personal,,1.0,,1.0,1.0,,136.9,692.37,157.63,178.53,127.34,470.74,745.48,852.52,452.5,218.58,"Kališnická, Prague - Žižkov",50.089749,14.462776,Central,,Luxurious,,,1.0,,,
"CZK 25,000",CZK 0,"CZK 55,000",728125,2 bedroom,8/1/2022,3,Brick,,62 m²,Fully furnished,Very good,,G,,,,,,125.04,183.88,167.97,409.44,108.62,78.69,404.34,686.89,845.04,243.87,Prague - Smíchov,50.06945,14.40026,,,,,,,,,
"CZK 25,000","CZK 1,100","CZK 36,000",572986,3+1,10/1/2022,1,Brick,Up to 10 years,75 m²,Partly,Very good,Personal,,,,1.0,,,20.73,736.07,76.78,653.85,228.84,695.13,411.28,309.72,543.02,290.23,"Dvacátého osmého pluku, Prague - Vršovice",50.070779649373,14.463591322468,Gas boiler,Complete,Luxurious,,,,,1.0,
"CZK 11,000","CZK 3,500","CZK 20,000",732443,2+kk,9/5/2022,2,Prefab concrete,,39 m²,Fully furnished,Good,,G,,,1.0,,1.0,550.4,653.91,253.9,420.37,463.31,661.88,896.1,301.31,2128.23,399.99,Prague - Černý Most,50.10595,14.58328,,,,,,,,,
"CZK 42,000","CZK 7,000","CZK 51,000",732442,3+kk,9/5/2022,5,Brick,,97 m²,Partly,Very good,,G,,,1.0,,,344.33,616.92,69.31,274.61,44.69,137.75,322.3,866.01,188.27,454.99,Prague - Karlín,50.0938,14.45505,,,,,,,,,
"CZK 12,000","CZK 2,600","CZK 14,600",513194,2+kk,9/5/2022,1,Brick,Up to 10 years,28 m²,Fully furnished,Good,Personal,,,,,,,63.79,337.36,167.0,182.5,93.53,72.56,243.11,202.22,348.31,157.58,Prague - Holešovice,50.101482,14.449581,Gas boiler,Interior,Standard,1.0,,,,,
"CZK 26,000","CZK 4,000","CZK 60,000",725142,3+kk,10/1/2022,3,Brick,,70 m²,Partly,New-build,Personal,B,1.0,,1.0,1.0,1.0,102.6,979.52,389.37,632.25,469.04,711.41,316.23,477.86,771.51,402.85,Prague - Háje,50.02635,14.53098,,,,,,1.0,,1.0,
"CZK 25,380","CZK 8,460",,723857,2 bedroom,10/31/2022,5,,,35 m²,Fully furnished,,,,,,,,,220.05,826.22,174.81,602.88,97.41,601.22,415.82,330.65,569.7,247.12,"Bulharská, Prague - Vršovice",50.0719625,14.461813,,,,,,,,,
"CZK 33,000","CZK 4,000","CZK 33,000",732437,4+kk,9/5/2022,2,Brick,,98 m²,Partly,Very good,,G,,,1.0,1.0,,261.43,726.93,44.32,813.72,161.51,266.06,277.04,579.62,642.0,426.25,Prague - Břevnov,50.08814,14.36916,,,,,1.0,1.0,,1.0,
"CZK 36,000","CZK 4,000","CZK 35,000",732293,2+kk,9/20/2022,6,Brick,,80 m²,Fully furnished,Very good,,E,,,1.0,1.0,,109.24,338.67,210.43,245.14,72.06,262.46,126.24,372.44,234.85,464.61,Prague - Josefov,50.08998,14.41986,,,,,,,,,
"CZK 35,000","CZK 9,000","CZK 70,000",732438,4+1,10/1/2022,3,Brick,,144 m²,Partly,Very good,,G,,,,1.0,1.0,171.29,211.95,122.48,136.09,18.55,176.22,484.41,802.71,382.54,295.97,Prague - Bubeneč,50.10128,14.42327,,,,,,,,,
"CZK 11,500","CZK 1,500","CZK 25,000",487107,Studio,10/1/2022,3,Brick,,42 m²,Fully furnished,,Personal,,,,,,,222.64,1681.42,354.72,1363.51,362.9,1002.75,1121.52,1194.11,394.47,417.03,"Kundratka, Prague - Libeň",50.1136058,14.481854,,,,,,,,,
"CZK 39,900","CZK 5,600","CZK 45,500",730978,4+kk,9/1/2022,4,Brick,Over 50 years,128 m²,Fully furnished,Very good,Personal,G,,,1.0,1.0,,93.39,822.37,236.32,755.17,455.41,558.27,194.88,1179.37,603.42,182.98,Prague - Holešovice,50.11028,14.44754,,Complete,Luxurious,,,1.0,,1.0,
"CZK 40,000",CZK 0,"CZK 40,000",24335,3+kk,10/1/2022,4,Brick,Over 50 years,95 m²,Fully furnished,Very good,Personal,C,,,1.0,,,177.64,664.92,172.37,77.54,38.15,125.87,36.04,110.57,370.0,231.91,"Ječná , Prague - Nové Město",50.0755456,14.426963,Gas boiler,Complete,Luxurious,,,,,,
"CZK 36,933","CZK 5,400","CZK 73,866",672347,2+kk,4/1/2022,3,Brick,,51 m²,Fully furnished,Very good,Personal,G,,,1.0,,,282.53,471.09,253.69,175.41,29.12,259.96,353.34,531.47,169.48,322.7,"Čelakovského sady, Prague - Nové Město",50.07758,14.42989,Electric boiler,Complete,Luxurious,,,,,,
"CZK 21,000","CZK 4,500","CZK 40,000",732433,2+kk,9/5/2022,1,Brick,,57 m²,Partly,New-build,,G,1.0,,1.0,1.0,1.0,198.12,494.77,405.3,2112.15,214.94,623.55,623.8,428.45,1401.93,83.85,Prague - Čimice,50.13871,14.42853,,,,1.0,,1.0,,,
"CZK 12,900","CZK 3,000","CZK 26,000",447287,Small studio,9/1/2022,1,Brick,,25 m²,Fully furnished,,Personal,,,,,,,75.43,451.43,311.62,104.38,127.38,1147.33,212.99,644.0,475.35,292.96,Prague - Michle,50.0572447,14.4503987,,,,,,,,,
"CZK 19,000","CZK 1,400","CZK 19,000",666035,1 bedroom,6/1/2021,3,Brick,,47 m²,Partly,Very good,Personal,C,,,,,,240.37,535.85,128.78,264.25,148.06,598.17,238.39,1253.6,279.18,239.16,"Jana Zajíce, Prague - Bubeneč",50.10257,14.41939,Gas boiler,Complete,,,,,,,
"CZK 12,999","CZK 2,999","CZK 26,000",661680,Studio,10/1/2022,3,Other,,34 m²,Fully furnished,Very good,Personal,D,,1.0,,1.0,1.0,426.94,712.38,385.38,392.11,337.62,363.52,409.86,737.2,814.72,12.05,"Kvestorská, Prague - Michle",50.04843,14.44784,Distance,Complete,Luxurious,,,,,,
"CZK 12,900","CZK 1,100","CZK 14,000",681356,Studio,9/12/2022,3,Brick,,20 m²,Partly,New-build,Personal,G,,,1.0,,,187.64,722.0,114.27,106.66,7.49,148.42,243.33,399.08,36.36,385.04,"Národní, Prague - Staré Město",50.0826,14.41828,,,,,,,,,
"CZK 19,000","CZK 2,300","CZK 19,000",652947,2+kk,12/7/2022,3,Other,,45 m²,Partly,Very good,Personal,G,,,,,,364.04,699.62,456.52,1024.25,12.58,809.29,396.63,770.99,900.55,101.45,"Nový Svět, Prague - Hradčany",50.090696,14.392596,,,,,,,,,
"CZK 10,000","CZK 4,000","CZK 14,000",728693,Small studio,8/5/2022,2,Brick,,52 m²,Fully furnished,Good,,F,,,1.0,1.0,,212.43,580.3,119.29,271.06,3.98,312.44,103.71,314.89,364.72,599.05,Prague - Nové Město,50.07965,14.41828,,,,,,,,,
"CZK 63,750","CZK 21,250",,729471,3+1,10/10/2022,3,,,120 m²,Fully furnished,,,,,,1.0,,,73.01,281.28,58.33,478.54,20.37,379.07,102.37,138.49,668.56,481.36,"Francouzská, Prague - Vinohrady",50.0739894,14.440101,,,,,,,,,
"CZK 32,918","CZK 10,972",,731292,Studio,11/4/2022,2,,,35 m²,Fully furnished,,,,,,,,,247.87,258.88,108.69,237.41,65.07,538.8,263.81,273.73,806.33,230.99,"Míšeňská, Prague - Malá Strana",50.0876118,14.4080467,,,,,,,,,
"CZK 25,500","CZK 8,500",,727015,1 bedroom,9/21/2022,3,,,35 m²,Fully furnished,,,,,,1.0,,,97.26,259.91,105.72,291.36,79.07,194.41,340.41,525.24,106.28,298.87,"Koněvova, Prague - Žižkov",50.088447,14.458108,,,,,,1.0,,,
"CZK 23,000","CZK 3,500","CZK 30,000",731903,2+kk,10/1/2022,2,Brick,Over 50 years,81 m²,Partly,Very good,Personal,G,,,,,,378.93,951.45,269.95,786.53,428.13,920.27,279.63,122.79,839.47,361.04,Prague - Nusle,50.05516,14.44648,Central,Complete,Luxurious,,,,,,
"CZK 18,000","CZK 3,500","CZK 36,000",732416,2+kk,10/1/2022,1,Other,,55 m²,Fully furnished,New-build,,G,,,,,,255.28,1642.21,253.76,1682.19,270.57,259.65,810.52,415.67,1258.27,67.93,Prague - Hostivař,50.04474,14.51544,,,,1.0,,,,,
"CZK 18,500","CZK 3,000","CZK 30,000",567194,2+kk,9/1/2022,1,Brick,,68 m²,Fully furnished,Very good,Personal,G,,,,,,285.66,2069.77,240.71,1789.58,596.4,336.05,1506.92,381.52,1344.42,107.42,"Bolívarova, Prague - Břevnov",50.0761438,14.3363845,Gas boiler,Complete,,1.0,,,,,
"CZK 38,040","CZK 12,680",,724143,2 bedroom,9/9/2022,5,,,70 m²,Fully furnished,,,,,,,,,92.39,704.33,6.31,418.26,11.89,396.59,447.42,561.87,517.82,191.93,"Karoliny Světlé, Prague - Staré Město",50.0841726,14.4139535,,,,,,,,,
"CZK 22,500","CZK 7,500",,728694,2 bedroom,10/4/2022,9,,,53 m²,Fully furnished,,,,,,1.0,,,125.93,351.52,458.39,239.89,349.44,469.18,335.68,124.41,1424.09,330.78,"Arabská, Prague - Vokovice",50.0992269,14.3632307,,,,,,,,,
"CZK 60,000","CZK 20,000",,717693,2+kk,9/9/2022,3,,,,Fully furnished,,,,,,,,,177.2,646.63,182.16,39.81,37.58,122.34,27.5,101.85,349.84,194.18,"Ječná, Prague - Nové Město",50.0757302,14.4269087,,,,,,,,,
"CZK 29,250","CZK 9,750",,725020,2 bedroom,9/19/2022,3,,,65 m²,Fully furnished,,,,,,1.0,,,163.79,319.88,110.55,226.38,103.86,407.78,227.16,243.22,785.75,360.1,"Na Zbořenci, Prague - Nové Město",50.0769346,14.4169603,,,,,,,,,
"CZK 36,338","CZK 12,112",,728972,5+kk,9/20/2022,1,,,180 m²,Fully furnished,,,,,,,,,710.63,2420.81,2011.34,2281.37,826.06,2150.45,2487.2,2253.5,2584.79,783.97,"Ibišková, Prague - Křeslice",50.0183023,14.5625656,,,,1.0,,1.0,,1.0,
"CZK 26,250","CZK 8,750",,731290,2+kk,10/25/2022,3,,,46 m²,Fully furnished,,,,,,,,,91.53,437.84,79.6,137.33,1.11,181.86,414.36,266.21,251.67,662.32,"Lidická, Prague - Smíchov",50.0723918,14.4059555,,,,,,,,,
"CZK 52,500","CZK 17,500",,731817,2+kk,9/19/2022,3,,,80 m²,Fully furnished,,,,,,1.0,,,281.86,547.59,69.97,211.73,9.84,221.9,245.36,614.41,367.39,520.5,"Ve Smečkách, Prague - Nové Město",50.0795975,14.4273504,,,,,,,,,
"CZK 27,000","CZK 9,000",,732124,1 bedroom,11/1/2022,1,,,36 m²,Fully furnished,,,,,,,,,241.61,1008.07,337.84,676.78,180.71,627.3,876.02,1008.48,488.31,192.83,"Sanderova, Prague - Holešovice",50.104936,14.458846,,,,1.0,,,,1.0,
"CZK 41,438","CZK 13,812",,732123,Studio,11/1/2022,2,,,26 m²,Fully furnished,,,,,,,,,229.1,530.05,122.61,223.26,36.43,222.12,280.75,471.08,466.92,408.11,"Příčná, Prague - Nové Město",50.077834,14.422878,,,,,,,,,
"CZK 19,200","CZK 6,400",,732120,1 bedroom,11/1/2022,5,,,25 m²,Fully furnished,,,,,,,,,325.99,599.06,10.69,489.3,51.0,359.95,315.04,78.83,255.47,309.72,"Polská, Prague - Vinohrady",50.0787721,14.4457646,,,,,,,,,
"CZK 19,238","CZK 6,412",,732117,2 bedroom,11/1/2022,9,,,37 m²,Fully furnished,,,,,,1.0,,,255.2,724.57,83.91,563.08,180.49,649.38,230.57,184.27,375.6,146.05,"Horáčkova, Prague - Krč",50.046653,14.4354901,,,,,,,,,
"CZK 42,120","CZK 14,040",,724853,2+kk,9/12/2022,4,,,45 m²,Fully furnished,,,,,,1.0,,,336.41,302.29,48.66,211.39,57.6,35.65,274.52,787.09,193.2,587.05,"Opletalova, Prague - Nové Město",50.0812219,14.4297716,,,,,,,,,
"CZK 47,340","CZK 15,780",,717682,2+kk,9/9/2022,6,,,69 m²,Fully furnished,,,,,,1.0,,,104.56,349.59,143.75,145.93,108.83,150.53,431.56,393.96,289.53,329.01,"Na Maninách, Prague - Holešovice",50.1025661,14.4522431,,,,1.0,,,,1.0,
"CZK 56,475","CZK 18,825",,723104,3+kk,9/9/2022,2,,,67 m²,Fully furnished,,,,,,1.0,,,110.1,273.82,156.66,129.22,76.56,142.67,300.13,496.4,282.11,367.31,"Dlážděná, Prague - Nové Město",50.0865843,14.4323212,,,,1.0,,,,1.0,
"CZK 20,250","CZK 6,750",,732111,2 bedroom,11/1/2022,1,,,48 m²,Fully furnished,,,,,,1.0,,,163.79,319.88,110.55,226.38,103.86,407.78,227.16,243.22,785.75,360.1,"Na Zbořenci, Prague - Nové Město",50.0769346,14.4169603,,,,1.0,,,,1.0,
"CZK 31,050","CZK 10,350",,730431,3+1,11/1/2022,1,,,111 m²,Fully furnished,,,,,,,,,208.61,131.46,936.81,2564.81,336.74,613.32,243.84,2102.93,1889.94,338.05,"K Zámku, Prague - Dolní Počernice",50.0890765,14.5799076,,,,1.0,,,,1.0,
"CZK 21,750","CZK 7,250",,732112,2+kk,11/1/2022,1,,,56 m²,Fully furnished,,,,,,,,,367.14,971.43,109.11,519.79,345.16,908.48,267.85,184.01,845.29,349.25,"U Družstva Život, Prague - Nusle",50.0559404,14.4464229,,,,,,,,,
"CZK 14,500","CZK 3,000","CZK 20,000",731806,Studio,9/1/2022,3,Brick,,45 m²,Partly,New-build,,G,1.0,,1.0,,,192.27,910.61,150.25,326.7,59.39,306.72,360.7,594.12,374.26,65.73,Prague - Libeň,50.10481,14.488,,,,,,1.0,,1.0,
"CZK 12,000","CZK 4,500","CZK 12,000",532966,1 bedroom,9/15/2022,,Brick,Up to 10 years,50 m²,Fully furnished,Very good,Personal,C,,,,,,42.39,900.33,776.91,1023.52,561.54,907.81,1006.95,861.82,711.36,235.65,Prague - Modřany,49.9991704,14.4145554,Electric boiler,Complete,Luxurious,,,,,,
"CZK 33,750","CZK 11,250",,726019,2+kk,10/1/2022,6,,,75 m²,Fully furnished,,,,,,1.0,,,163.79,319.88,110.55,226.38,103.86,407.78,227.16,243.22,785.75,360.1,"Na Zbořenci, Prague - Nové Město",50.0769346,14.4169603,,,,1.0,,,,1.0,
"CZK 11,500","CZK 2,500","CZK 20,000",687853,Studio,10/18/2021,1,Brick,,20 m²,Fully furnished,Very good,Cooperative,D,,,,,1.0,153.14,1523.1,198.38,1031.93,203.02,600.34,388.81,834.53,567.51,252.38,"Podlipného, Prague - Libeň",50.11252,14.47381,,,,,,,,,
"CZK 24,900","CZK 3,500","CZK 29,000",654601,4+1,3/18/2021,1,Brick,,82 m²,Partly,Very good,Personal,D,,,1.0,,,46.3,228.22,75.34,50.93,103.42,117.88,259.66,768.69,188.5,361.28,"Bělohorská, Prague - Břevnov",50.08344,14.36248,Central,Complete,Luxurious,,,,,,
"CZK 14,000","CZK 4,300","CZK 42,000",731314,Studio,9/8/2022,,Brick,Up to 10 years,31 m²,Unfurnished,New-build,Personal,G,1.0,,1.0,1.0,,91.54,820.46,1038.67,2473.66,459.96,709.18,1822.92,652.03,467.42,170.28,Prague - Ďáblice,50.14495,14.47491,,,Standard,1.0,,,,,
"CZK 14,500","CZK 3,500","CZK 20,000",460708,Studio,10/1/2022,5,Brick,,18 m²,Partly,,Personal,,,,,,,126.75,443.61,90.84,239.9,90.13,257.23,296.01,378.63,212.13,176.29,"U Obecního dvora, Prague - Staré Město",50.0911789,14.4233778,,,,,,,,,
"CZK 32,925","CZK 10,975",,728156,2+kk,10/1/2022,3,,,50 m²,Fully furnished,,,,,,1.0,,,75.01,890.63,40.68,622.44,47.2,145.83,371.43,242.4,512.42,352.71,"Kubelíkova, Prague - Žižkov",50.0815843,14.4461973,,,,,,,,,
"CZK 25,000","CZK 5,000","CZK 25,000",650442,2+kk,3/15/2021,6,Brick,,75 m²,Fully furnished,New-build,Personal,A,,,1.0,,,439.43,329.93,177.27,299.2,234.8,530.92,164.73,508.99,866.38,246.87,Prague - Vinohrady,50.079607,14.453788,,,,1.0,,,,,
"CZK 15,000","CZK 4,000","CZK 20,000",732385,Studio,9/4/2022,2,Brick,,37 m²,Fully furnished,Very good,,G,,,1.0,,,126.31,568.82,34.12,471.97,318.17,484.09,216.12,291.14,592.92,165.24,Prague - Vršovice,50.07294,14.47068,,,,,,,,,
"CZK 14,800","CZK 3,200","CZK 35,000",732383,Studio,9/11/2022,3,Brick,Up to 10 years,46 m²,Partly,New-build,,B,1.0,,1.0,1.0,1.0,203.6,706.28,733.99,744.93,726.73,851.24,521.57,656.17,1027.14,493.16,Prague - Stodůlky,50.0609,14.30587,,,,,,,,1.0,
"CZK 30,000","CZK 5,500","CZK 30,000",729499,3+kk,9/1/2022,1,Brick,Up to 10 years,95 m²,Partly,Very good,Personal,C,,,1.0,1.0,1.0,315.45,289.9,124.78,287.21,368.47,255.49,664.31,332.75,923.22,132.51,Prague - Hlubočepy,50.03242,14.37739,Distance,,Standard,1.0,,,,,
"CZK 20,000","CZK 4,000","CZK 20,000",732384,2 bedroom,9/4/2022,2,Brick,,56 m²,Partly,Very good,,G,,,,1.0,1.0,185.26,595.66,156.14,448.5,141.95,466.27,189.28,299.96,582.88,174.0,Prague - Břevnov,50.08567,14.34655,,,,,,,,,
"CZK 17,000","CZK 8,000","CZK 34,000",732379,2 bedroom,9/4/2022,1,Brick,,65 m²,Partly,New-build,,G,,,,,,271.79,987.78,578.94,747.64,342.74,685.19,763.29,183.58,325.86,803.27,Prague - Radotín,49.98923,14.36573,,Complete,,,,,,,
"CZK 20,000","CZK 4,500","CZK 40,000",732301,2+kk,10/1/2022,2,Low-energy,Up to 10 years,63 m²,Partly,New-build,,B,1.0,,1.0,1.0,1.0,42.16,980.71,35.65,801.41,416.27,652.58,375.7,164.32,685.98,129.58,Prague - Strašnice,50.07176,14.49995,Central,,,,,1.0,,1.0,
"CZK 12,500",CZK 700,"CZK 13,200",713727,2+kk,9/12/2022,3,Brick,,45 m²,Partly,Good,Personal,G,,,,,,85.81,536.6,82.4,143.64,31.84,348.88,674.73,325.56,675.06,382.86,"Antala Staška, Prague - Krč",50.04078,14.43895,Electric boiler,,,,,,,,
"CZK 13,000","CZK 3,700","CZK 15,000",661944,Studio,10/1/2022,3,Brick,Up to 10 years,32 m²,Fully furnished,New-build,Personal,B,,1.0,1.0,1.0,,209.79,1264.1,641.88,1245.65,914.53,1190.94,1194.21,1204.06,1094.16,456.8,"Granitova, Prague - Hloubětín",50.10882,14.52671,Distance,,Standard,,,1.0,,,
"CZK 16,500","CZK 2,500","CZK 30,000",732373,3+1,10/1/2022,1,Prefab concrete,,76 m²,Partly,Very good,,G,,,,,,33.87,671.64,695.37,656.1,332.69,667.6,737.99,672.8,398.43,310.62,Prague - Záběhlice,50.05376,14.50915,,,,,,,,1.0,
"CZK 12,000","CZK 1,000","CZK 31,000",731777,Studio,9/1/2022,3,Other,10 to 30 years,49 m²,Fully furnished,Very good,,B,1.0,1.0,1.0,,,406.44,1042.14,249.25,1071.49,759.39,1028.76,543.05,720.52,1724.73,169.88,Prague - Letňany,50.12864,14.50206,Central,,Standard,,,,,,
"CZK 21,000","CZK 4,000","CZK 42,000",732374,2+kk,9/4/2022,6,Other,,60 m²,Fully furnished,New-build,,B,1.0,,1.0,1.0,1.0,353.71,1587.0,421.75,1358.43,500.97,1523.01,1264.99,1471.9,593.16,136.37,Prague - Vysočany,50.11201,14.51458,,,,,,1.0,,1.0,
"CZK 22,000","CZK 3,000","CZK 25,000",732369,2+kk,10/1/2022,4,Brick,,71 m²,Partly,Very good,,G,,,,,1.0,131.2,915.6,436.61,1235.47,302.16,337.8,329.96,850.35,145.78,308.46,Prague - Záběhlice,50.0558,14.49219,,,,,,,,1.0,
"CZK 15,000","CZK 3,000","CZK 25,000",644784,Studio,10/30/2022,2,Brick,,38 m²,Fully furnished,Very good,Personal,B,,,1.0,,,36.85,193.63,41.55,92.16,45.28,4.26,159.78,261.92,185.7,236.1,"Dlouhá, Prague - Staré Město",50.090309,14.426676,Distance,,,,,,,,
"CZK 12,000","CZK 4,000","CZK 16,000",246931,Small studio,9/12/2022,2,Brick,Up to 10 years,36 m²,Fully furnished,,Personal,C,,,,,,187.15,895.09,676.5,663.28,465.74,726.33,360.29,737.25,1044.35,514.08,"Hrubínova, Prague - Modřany",50.010788,14.4120482,Central,Complete,Standard,1.0,,,,,
"CZK 30,000","CZK 10,000",,718922,Studio,9/11/2022,5,,,45 m²,Fully furnished,,,,,,1.0,,,241.61,542.2,98.71,270.79,176.01,313.55,455.64,821.55,633.96,593.3,"Mečislavova, Prague - Nusle",50.0633237,14.4440058,,,,,,,,,
"CZK 9,500","CZK 4,000","CZK 9,500",397397,Small studio,9/4/2022,1,Prefab concrete,,27 m²,Partly,Very good,Personal,,,,,,,290.5,1478.11,6.35,1675.83,6.35,764.19,1025.9,1352.52,742.75,563.81,"Štúrova, Prague - Krč",50.0297479,14.4497107,,,,,,,,,
"CZK 12,000","CZK 3,000","CZK 15,000",645239,Small studio,10/1/2022,3,Brick,Up to 10 years,33 m²,Partly,New-build,Personal,B,1.0,,1.0,,1.0,144.37,1519.12,831.87,2175.27,613.06,1565.58,1200.65,1702.47,1184.09,625.33,"Sicherova, Prague - Kyje",50.115288,14.562752,Distance,,Standard,,,,,1.0,
"CZK 26,000","CZK 6,300","CZK 50,000",549924,3+1,10/1/2022,3,Brick,,80 m²,Fully furnished,Very good,Cooperative,,,,,1.0,1.0,217.06,836.0,532.68,1632.55,390.74,731.29,193.67,639.92,883.9,714.81,"Nová Šárka, Prague - Liboc",50.092312,14.3189191,Distance,Interior,Luxurious,,,1.0,,1.0,
"CZK 9,000","CZK 3,000","CZK 10,000",731055,Studio,8/24/2022,,Brick,,30 m²,Unfurnished,Good,,G,,,,1.0,,44.66,1073.48,629.27,1066.13,480.83,554.32,546.65,705.68,1266.62,663.27,Prague - Braník,50.02646,14.41749,,,,,1.0,,,,
"CZK 15,000","CZK 4,800","CZK 15,000",732350,2+kk,9/4/2022,1,Brick,,41 m²,Unfurnished,Very good,,G,,,,,,265.75,508.09,179.93,634.31,65.13,318.37,271.59,466.73,229.44,267.03,Prague - Nusle,50.06574,14.43265,,,,,,,,,
"CZK 13,900","CZK 4,600","CZK 20,000",732308,2+kk,9/4/2022,9,Prefab concrete,,42 m²,Partly,Very good,,G,,,1.0,1.0,,176.97,492.51,192.1,812.37,132.3,772.7,120.31,166.23,776.51,574.97,Prague - Michle,50.05216,14.45198,,,,,,,,,
"CZK 19,500","CZK 3,800","CZK 30,000",732345,2+kk,9/4/2022,6,Brick,,56 m²,Fully furnished,New-build,Personal,G,1.0,,1.0,1.0,1.0,58.52,1253.88,667.81,1377.07,400.72,515.98,653.42,623.94,409.38,385.51,Prague - Modřany,49.99955,14.40727,Distance,,Luxurious,,,1.0,,1.0,
"CZK 36,000","CZK 12,000",,719175,2 bedroom,9/9/2022,-1,,,50 m²,Fully furnished,,,,,,1.0,,,210.86,382.06,250.08,989.18,169.53,744.75,811.66,1049.67,387.48,543.22,"Strakonická, Prague - Smíchov",50.0643299,14.4102127,,,,,,,,,
"CZK 20,000","CZK 5,000","CZK 35,000",731959,2 bedroom,9/1/2022,2,Brick,Over 50 years,55 m²,Fully furnished,Very good,,G,,,,1.0,,105.35,795.48,322.76,1323.56,370.38,345.89,985.47,791.63,751.1,302.83,Prague - Smíchov,50.05994,14.40353,,,Standard,,,,,1.0,
"CZK 30,000","CZK 9,000","CZK 60,000",731752,3+kk,10/1/2022,10,Other,,120 m²,Fully furnished,New-build,,C,1.0,1.0,1.0,1.0,1.0,338.16,922.53,683.97,787.42,808.57,379.1,480.13,748.05,1280.49,389.82,Prague - Horní Měcholupy,50.04028,14.56921,,,,,,,,1.0,
"CZK 18,000","CZK 9,000","CZK 18,000",732340,3+kk,9/4/2022,1,Brick,,84 m²,Partly,Good,,F,,,,,,247.62,1288.13,427.98,1143.56,106.52,782.35,1001.92,643.38,1208.51,401.73,Prague - Kobylisy,50.13177,14.45644,,,,1.0,,,,,
"CZK 19,990","CZK 2,500","CZK 30,000",690553,2+kk,10/1/2022,2,Brick,Up to 10 years,41 m²,Partly,Very good,Personal,B,,,1.0,,,173.2,143.72,55.5,115.32,75.38,164.5,161.13,377.97,198.6,457.31,"Štítného, Prague - Žižkov",50.0851483,14.4512417,Electric boiler,Complete,Standard,,,,,,
"CZK 41,250","CZK 13,750",,719999,2+kk,10/16/2022,1,,,55 m²,Fully furnished,,,,,,1.0,,,76.78,951.56,41.94,296.91,109.07,229.41,371.34,325.8,517.82,388.28,"Rečkova, Prague - Žižkov",50.0904334,14.4705869,,,,,,,,,
"CZK 13,500","CZK 1,000","CZK 27,000",732261,2+kk,9/3/2022,1,Prefab concrete,,49 m²,Partly,Good,,G,,,1.0,1.0,,104.63,1369.05,148.72,1041.39,146.03,207.21,616.34,246.83,697.12,206.48,Prague - Strašnice,50.06724,14.50881,,,,,,,,,
"CZK 15,900","CZK 5,000","CZK 32,000",720255,2+kk,7/1/2022,1,Brick,,35 m²,Partly,New-build,,A,1.0,,,,1.0,,,,,,,,,,,Prague - Chodov,50.0401,14.48907,,,,,,,,,
"CZK 13,000",CZK 0,"CZK 13,000",731744,1 bedroom,8/30/2022,-2,Brick,,25 m²,Partly,Very good,,G,,,1.0,,1.0,526.23,1761.75,670.71,1678.77,518.16,1314.39,103.82,711.14,1340.53,1014.3,Prague - Smíchov,50.05165,14.40599,,,,,1.0,,,,
"CZK 14,900","CZK 5,000","CZK 30,000",720261,2+kk,7/1/2022,1,Brick,,45 m²,Partly,New-build,,A,1.0,,,,1.0,,,,,,,,,,,Prague - Chodov,50.0401,14.48907,,,,1.0,,,,,
"CZK 14,900","CZK 5,000","CZK 30,000",720267,Studio,7/1/2022,2,Brick,,35 m²,Partly,New-build,,A,1.0,,,,1.0,,,,,,,,,,,Prague - Chodov,50.0401,14.48907,,,,,,,,,
"CZK 36,000","CZK 12,000",,718218,2+kk,9/9/2022,2,,,45 m²,Fully furnished,,,,,,1.0,,,210.86,382.06,250.08,989.18,169.53,744.75,811.66,1049.67,387.48,543.22,"Strakonická, Prague - Smíchov",50.0643299,14.4102127,,,,,,,,,
"CZK 16,000","CZK 5,000","CZK 32,000",720270,Studio,7/1/2022,1,Brick,,42 m²,Partly,New-build,,A,1.0,,,,1.0,,,,,,,,,,,Prague - Chodov,50.0401,14.48907,,,,,,,,,
"CZK 19,990","CZK 2,790","CZK 20,000",731636,2+kk,9/5/2022,2,Brick,,45 m²,Unfurnished,Very good,Personal,G,,,,,,390.75,265.34,171.22,306.49,105.7,468.21,315.9,391.17,719.11,219.65,Prague - Vinohrady,50.07997,14.45165,Central,,,,,,,,
"CZK 15,900","CZK 2,800","CZK 25,000",728521,Studio,8/3/2022,2,Brick,,40 m²,Partly,New-build,,A,1.0,,,,1.0,138.36,154.26,257.27,2591.54,678.76,241.17,1890.72,330.89,686.21,0.47,Prague - Ďáblice,50.14425,14.48322,Electric boiler,,,1.0,,,,,
"CZK 42,075","CZK 14,025",,726062,2 bedroom,10/2/2022,6,,,80 m²,Fully furnished,,,,,,1.0,,,73.01,281.28,58.33,478.54,20.37,379.07,102.37,138.49,668.56,481.36,"Francouzská, Prague - Vinohrady",50.0739894,14.440101,,,,,,,,,
"CZK 33,000","CZK 8,850","CZK 70,000",727597,3+kk,9/1/2022,3,Brick,Up to 10 years,91 m²,Partly,Very good,Personal,,,,,,1.0,107.77,1186.64,810.63,1121.47,,993.06,1441.45,978.22,1317.44,446.23,Prague - Troja,50.12075,14.41037,,Complete,Luxurious,,,,,,
"CZK 14,500","CZK 4,200","CZK 19,000",732322,2+kk,9/4/2022,4,Prefab concrete,,43 m²,Fully furnished,Good,,G,,,1.0,1.0,1.0,115.85,1228.04,389.95,775.18,780.83,378.22,201.16,292.85,2004.87,310.84,Prague - Horní Počernice,50.11103,14.62093,Distance,,Standard,,,,,,
"CZK 9,500","CZK 2,300","CZK 14,000",732324,2+kk,9/4/2022,,Brick,,34 m²,Fully furnished,Very good,,E,,,,,,156.57,277.93,133.1,579.67,238.15,686.9,275.87,320.25,942.24,470.04,Prague - Košíře,50.0698,14.37914,,,,,,,,,
"CZK 18,000","CZK 6,000","CZK 24,000",470843,2+kk,10/1/2022,2,Brick,10 to 30 years,58 m²,Fully furnished,New-build,Personal,,1.0,,1.0,1.0,1.0,80.22,958.19,274.76,966.54,466.28,911.02,483.21,986.41,628.98,180.71,"K Netlukám, Prague - Uhříněves",50.0322565,14.6089774,Central,,Standard,,,1.0,,1.0,
"CZK 15,000","CZK 3,000","CZK 30,000",731719,2+kk,9/5/2022,2,Brick,,39 m²,Fully furnished,Good,,C,,,1.0,,,112.71,680.29,98.55,583.99,92.22,493.64,176.53,500.12,341.52,268.34,Prague - Nusle,50.06146,14.43617,,,,,,,,,
"CZK 14,000","CZK 3,500","CZK 28,000",389685,Studio,9/30/2022,2,Brick,,33 m²,Fully furnished,,Personal,B,,,,,,300.18,1944.82,455.39,2294.81,342.81,1542.23,418.67,1010.55,1568.37,645.97,"Výhledová, Prague - Hlubočepy",50.0465986,14.4062092,Electric boiler,,,1.0,,,,,
"CZK 63,413","CZK 21,137",,732321,3+kk,10/16/2022,3,,,62 m²,Fully furnished,,,,,,1.0,,,2.22,191.43,20.53,48.07,1.19,48.35,128.16,305.9,208.92,259.31,"Dlouhá, Prague - Staré Město",50.0907943,14.427063,,,,,,,,,
"CZK 31,875","CZK 10,625",,725887,2 bedroom,9/13/2022,2,,,65 m²,Fully furnished,,,,,,,,,181.41,298.0,1.34,322.55,4.35,512.55,359.47,791.01,446.67,323.95,"Karlova, Prague - Staré Město",50.0859967,14.4175762,,,,,,,,,
"CZK 15,500","CZK 4,000","CZK 19,500",731640,2 bedroom,9/15/2022,1,Brick,,57 m²,Partly,Good,,B,,,,,1.0,42.28,1333.45,38.11,1050.56,53.56,352.31,487.68,225.33,739.54,307.67,Prague - Strašnice,50.06666,14.49611,Central,,,,,,,,
"CZK 25,988","CZK 8,662",,728259,2 bedroom,11/1/2022,1,,,60 m²,Fully furnished,,,,,,,,,250.51,417.46,211.46,417.21,207.64,462.73,364.17,360.99,525.54,550.17,"Lublaňská, Prague - Vinohrady",50.0710848,14.4324122,,,,,,,,,
"CZK 37,500","CZK 12,500",,725775,2+kk,9/11/2022,4,,,60 m²,Fully furnished,,,,,,1.0,,,239.73,541.75,45.52,270.79,35.61,285.18,465.63,625.46,639.52,581.38,"Mečislavova, Prague - Nusle",50.0633237,14.4440058,,,,,,,,,
"CZK 15,750","CZK 5,250",,730902,1 bedroom,9/25/2022,3,,,30 m²,Fully furnished,,,,,,,,,217.38,2062.48,1281.33,4705.18,629.6,1074.91,597.5,3134.16,2915.46,646.77,"Švihovská, Prague - Písnice",49.9954018,14.4704771,,,,,,,,,
"CZK 23,000","CZK 4,000","CZK 46,000",730684,3+1,8/21/2022,1,Brick,,90 m²,Partly,Good,,G,,,,,,277.75,748.23,269.12,722.31,157.77,746.58,201.36,325.29,680.02,360.28,Prague - Strašnice,50.07413,14.49928,,,,1.0,,,,,
"CZK 46,530","CZK 15,510",,726063,2 bedroom,9/9/2022,2,,,48 m²,Fully furnished,,,,,,,,,158.42,248.82,154.82,246.13,112.68,264.3,390.21,408.3,154.53,114.55,"Řásnovka, Prague - Staré Město",50.0918754,14.4250902,,,,,,,,,
"CZK 37,125","CZK 12,375",,726070,2 bedroom,10/17/2022,2,,,90 m²,Fully furnished,,,,,,1.0,,,73.01,281.28,58.33,478.54,20.37,379.07,102.37,138.49,668.56,481.36,"Francouzská, Prague - Vinohrady",50.0739894,14.440101,,,,,,,,,
"CZK 24,938","CZK 8,312",,732307,1 bedroom,10/4/2022,2,,,16 m²,Fully furnished,,,,,,,,,254.83,288.07,110.12,571.95,81.97,421.88,80.01,71.59,804.26,588.21,"Americká, Prague - Vinohrady",50.0721161,14.4387295,,,,,,,,,
"CZK 34,500","CZK 11,500",,724514,2 bedroom,9/24/2022,5,,,76 m²,Fully furnished,,,,,,1.0,,,173.24,237.07,170.98,194.52,84.53,150.25,482.36,158.74,537.92,88.5,"Slezská, Prague - Vinohrady",50.076837,14.4602531,,,,,,,,,
"CZK 17,000","CZK 3,500","CZK 25,000",724007,2 bedroom,10/1/2022,7,Prefab concrete,,50 m²,Partly,Good,,F,,,1.0,,,389.25,774.13,323.7,739.31,727.09,294.3,706.95,822.24,966.06,553.44,Prague - Stodůlky,50.05252,14.33426,,,,,,,,1.0,
"CZK 24,999","CZK 4,900","CZK 24,999",731412,2+kk,8/27/2022,1,Brick,,57 m²,Fully furnished,New-build,,A,1.0,,1.0,1.0,1.0,181.87,1408.66,55.3,979.08,153,539.26,274.37,720.09,348.91,137.94,Prague - Libeň,50.1132,14.47331,,,,,1.0,,,,
"CZK 15,999",CZK 0,"CZK 32,000",732306,2+kk,9/4/2022,2,Prefab concrete,,42 m²,Fully furnished,Very good,,G,,,1.0,1.0,,167.01,946.33,179.53,881.67,216.56,212.48,403.77,549.44,926.51,156.92,Prague - Chodov,50.02596,14.52349,,Bathroom unit,Standard,,,,,,
"CZK 60,000","CZK 20,000",,717694,2+kk,9/18/2022,3,,,,Fully furnished,,,,,,,,,177.2,646.63,182.16,39.81,37.58,122.34,27.5,101.85,349.84,194.18,"Ječná, Prague - Nové Město",50.0757302,14.4269087,,,,,,,,,
"CZK 41,756","CZK 13,919",,728695,4+1,10/4/2022,2,,,102 m²,Fully furnished,,,,,,,,,183.27,1023.84,165.5,746.11,195.16,730.27,819.74,259.7,600.66,303.35,"Xaveriova, Prague - Smíchov",50.0626569,14.3913498,,,,,,,,,
"CZK 51,840","CZK 17,280",,728059,3+1,9/30/2022,2,,,85 m²,Fully furnished,,,,,,1.0,,,278.51,602.82,173.91,301.83,0.93,288.1,225.94,440.55,233.82,416.1,"Bílkova, Prague - Staré Město",50.0912254,14.4209612,,,,,,,,,
"CZK 28,425","CZK 9,475",,728696,2+kk,10/4/2022,5,,,45 m²,Fully furnished,,,,,,,,,120.02,538.45,85.43,335.62,47.85,333.62,182.79,195.16,543.36,341.26,"Lípová, Prague - Nové Město",50.0747395,14.424046,,,,,,,,,
"CZK 37,620","CZK 12,540",,728258,2 bedroom,10/1/2022,7,,,54 m²,Fully furnished,,,,,,1.0,,,379.66,564.73,5.21,191.31,38.84,242.1,65.9,705.75,343.76,422.75,"Michalská, Prague - Staré Město",50.0846396,14.4202484,,,,,,,,,
"CZK 27,195","CZK 9,065",,730051,2+kk,10/15/2022,1,,,50 m²,Fully furnished,,,,,,,,,255.31,501.77,459.42,715.23,218.51,523.94,431.76,479.05,374.11,261.13,"Na Balkáně, Prague - Žižkov",50.095259,14.4941569,,,,1.0,,,,1.0,
"CZK 39,000","CZK 13,000",,728062,2 bedroom,10/8/2022,7,,,92 m²,Fully furnished,,,,,,1.0,,,73.01,281.28,58.33,478.54,20.37,379.07,102.37,138.49,668.56,481.36,"Francouzská, Prague - Vinohrady",50.0739894,14.440101,,,,1.0,,,,1.0,
"CZK 51,656","CZK 17,219",,728895,2 bedroom,10/6/2022,4,,,60 m²,Fully furnished,,,,,,1.0,,,110.1,392.87,177.02,129.22,79.72,168.29,299.92,497.22,273.67,349.66,"Dlážděná, Prague - Nové Město",50.0865843,14.4323212,,,,,,,,,
"CZK 24,728","CZK 8,242",,731157,Studio,10/24/2022,3,,,30 m²,Fully furnished,,,,,,1.0,,,99.26,361.63,490.78,556.87,427.65,345.52,452.0,519.02,404.9,293.38,"Olšanská, Prague - Žižkov",50.0830187,14.4654473,,,,,,1.0,,,
"CZK 17,250","CZK 5,750",,731385,3+1,10/26/2022,5,,,90 m²,Fully furnished,,,,,,1.0,,,82.8,397.93,96.94,404.98,135.48,353.78,131.46,217.55,654.74,661.34,"Blanická, Prague - Vinohrady",50.0746503,14.439294,,,,,,,,,
"CZK 16,000","CZK 5,000","CZK 20,000",108533,Studio,9/5/2022,2,Brick,Up to 10 years,46 m²,Fully furnished,,Personal,C,,,1.0,,,282.87,2022.1,1184.77,1780.96,346.68,1428.61,876.42,1489.76,1212.92,798.55,"Vorařská, Prague - Modřany",50.0136409885,14.4001686573,Distance,,Standard,,,1.0,,1.0,
"CZK 20,000","CZK 4,000","CZK 20,000",732302,Studio,9/3/2022,4,Other,,42 m²,Fully furnished,Very good,,G,,,1.0,,,245.59,500.79,157.5,216.41,190.06,344.54,252.65,462.1,379.8,441.99,Prague - Vršovice,50.0687,14.4517,,,,,,1.0,,1.0,
"CZK 12,000","CZK 4,000","CZK 24,000",569039,Studio,9/4/2022,,Brick,,25 m²,Partly,,Cooperative,,,,,1.0,,183.66,607.6,91.73,145.2,267.7,898.45,78.38,668.7,484.97,54.56,"náměstí Na Balabence, Prague - Libeň",50.1055076,14.4839011,Distance,Complete,Standard,,,,,,
"CZK 12,000","CZK 3,000","CZK 15,000",494253,2+kk,9/12/2022,2,Brick,,47 m²,Partly,,Personal,,,,,,,285.2,1689.92,878.2,1448.79,330.4,1122.04,569.84,1183.18,1724.78,577.25,"Převoznická, Prague - Modřany",50.009959,14.4040533,,,Standard,,,,,,
"CZK 13,000","CZK 3,500","CZK 26,000",732298,Small studio,10/1/2022,5,Brick,,27 m²,Unfurnished,Good,,G,,,,,,300.2,346.13,242.74,505.67,74.26,511.17,211.23,158.33,185.85,232.99,Prague - Vinohrady,50.07635,14.46516,,,,,,,,,
"CZK 29,500","CZK 2,500","CZK 50,000",732297,2 bedroom,9/15/2022,2,Brick,,89 m²,Unfurnished,Very good,,G,,,,,,3.91,381.44,229.01,260.45,16.48,466.6,148.75,1136.15,147.38,206.85,Prague - Bubeneč,50.10095,14.41842,,,,,,,,1.0,
"CZK 16,000","CZK 3,500","CZK 45,000",612642,2 bedroom,1/1/2023,3,Brick,,56 m²,Partly,Very good,Personal,C,,,,1.0,,237.36,1110.63,155.7,1248.46,259.1,342.61,159.41,583.65,268.8,74.08,"Na Korábě, Prague - Libeň",50.11433,14.467836,Distance,,,,,,,,
"CZK 18,300","CZK 3,500","CZK 15,000",657015,1 bedroom,9/5/2022,1,Brick,,40 m²,Fully furnished,Very good,Personal,B,,,,,1.0,354.21,737.34,455.75,355.35,376.01,575.19,1043.45,328.66,1016.27,67.61,"Buštěhradská, Prague - Střešovice",50.09684,14.38976,Central,Exterior,Standard,,,,,,
"CZK 16,500","CZK 3,000","CZK 15,000",731453,Studio,9/5/2022,2,Brick,,30 m²,Fully furnished,Very good,,B,,,,,,354.21,737.34,455.75,355.35,376.01,575.19,1043.45,328.66,1016.27,67.61,Prague - Střešovice,50.09684,14.38976,,,,,,,,1.0,
"CZK 17,990","CZK 3,990","CZK 10,000",710368,Studio,9/30/2022,,Brick,,24 m²,Fully furnished,Very good,Personal,G,,,1.0,,,32.41,96.79,82.75,144.26,47.59,343.35,223.51,385.13,581.11,734.33,Prague - Vinohrady,50.0770962,14.4355937,,Complete,Luxurious,,,,,,
"CZK 14,000","CZK 4,000","CZK 20,000",546125,2 bedroom,9/1/2022,2,Prefab concrete,,62 m²,Partly,Very good,Cooperative,,,,,,,124.59,799.1,61.78,283.65,132.58,856.26,201.76,378.86,686.42,253.43,"Jivenská, Prague - Michle",50.0596592,14.4507815,Central,,,,,,,1.0,
"CZK 13,000","CZK 6,000","CZK 19,000",681499,Studio,10/1/2022,1,Brick,,40 m²,Fully furnished,Very good,Personal,F,,,,1.0,,153.1,467.97,106.55,224.73,285.57,487.53,190.0,338.31,720.17,416.19,"Jerevanská, Prague - Vršovice",50.0705441,14.4709632,Distance,,,,,,,,
"CZK 13,500","CZK 2,500","CZK 27,000",732283,Studio,9/3/2022,1,Brick,,25 m²,Partly,Very good,,G,,,,,,123.64,879.25,268.12,515.59,89.32,506.77,407.1,324.87,684.4,242.91,Prague - Nusle,50.05542,14.44107,,,,,1.0,,,,
"CZK 9,000","CZK 3,000","CZK 10,000",559804,Studio,12/1/2022,2,Brick,,30 m²,Partly,,Personal,,,,1.0,,,46.3,700.58,219.71,527.05,195.91,636.58,447.89,654.79,385.9,185.32,"Kolbenova, Prague - Vysočany",50.1104383,14.5092256,,,,,,,,,
"CZK 14,990","CZK 2,990","CZK 15,000",697953,Studio,9/6/2022,2,Brick,,29 m²,Fully furnished,Very good,Personal,B,,,1.0,,1.0,151.52,401.41,109.66,391.76,94.68,206.05,303.75,316.12,661.89,418.83,"Salmovská, Prague - Nové Město",50.07486,14.42255,,,,1.0,,,,,
"CZK 19,999","CZK 5,500","CZK 40,000",732277,Studio,11/1/2022,6,Brick,,39 m²,Unfurnished,Very good,,G,,,1.0,1.0,1.0,62.29,409.96,84.81,136.77,19.57,217.58,574.14,841.53,373.47,456.58,Prague - Karlín,50.09454,14.45286,Central,Complete,,1.0,,1.0,,,
