Price,Fees,Listing ID,Layout,Avaliable from,Floor space,Fully furnished,Floor,Lift,public_transport,post,shop,bank,restaurant,pharmacy,school,kindergarten,sports_field,playground,District,Latitude,Longitude,Refundable security deposit,Building type,Age,Designe,Condition,Ownership,EPC,Heating,New-build,Reconstruction,Terrace,Cellar,Balcony,Parking,Garage,Domácí mazlíčci vítáni,Enclosed balcony,Administrative fee,Plot space,Plot type
"CZK 29,580","CZK 9,860",740891,1 bedroom,11/16/2022,40 m²,Fully furnished,7,1.0,87.51,353.67,89.15,198.61,58.78,391.0,424.89,274.26,259.72,601.24,"Zborovská, Prague - Smíchov",50.0730365,14.4083833,,,,,,,,,,,,,,,,,,,,
"CZK 17,500","CZK 2,954",621757,Studio,9/12/2022,39 m²,Fully furnished,2,1.0,287.78,632.02,284.32,1023.79,212.63,704.51,528.72,663.39,621.77,179.67,"U Nikolajky, Prague - Smíchov",50.0658762,14.3930527,"CZK 35,000",Brick,Up to 10 years,Luxurious,New-build,Personal,B,Central,1.0,,,,,,,,,,,
"CZK 23,500","CZK 3,500",246363,2+kk,11/1/2022,64 m²,Fully furnished,4,1.0,445.68,383.8,153.32,598.7,231.91,394.35,94.28,421.47,659.65,331.65,"Pernerova, Prague - Karlín",50.0899848,14.4491976,"CZK 27,000",Brick,Up to 10 years,Luxurious,Very good,Personal,G,Gas boiler,,Interior,,,,,,,,,,
"CZK 12,400","CZK 3,700",420128,Small studio,7/1/2022,21 m²,Partly,5,,547.01,459.9,413.44,1625.07,241.32,1159.89,461.89,421.54,424.59,220.06,"Za Hládkovem, Prague - Střešovice",50.0889422,14.3834582,"CZK 15,000",Brick,30 - 50 years,Standard,,Personal,,Central,,Interior,1.0,1.0,,,,,,,,
"CZK 14,500","CZK 5,500",736192,2+kk,10/3/2022,61 m²,Partly,4,1.0,104.52,387.44,258.23,444.25,87.81,433.74,434.8,328.65,310.45,337.26,Prague - Libeň,50.10498,14.47881,"CZK 20,000",Brick,10 to 30 years,Standard,Good,,G,,,,,,,,,,,,,
"CZK 25,000","CZK 7,000",740880,3+1,9/16/2022,73 m²,Partly,9,1.0,150.21,1065.51,122.99,745.82,275.03,439.02,447.45,903.52,387.6,282.72,Prague - Strašnice,50.06914,14.48862,"CZK 50,000",Prefab concrete,,Standard,Very good,,G,Distance,,Complete,,1.0,1.0,1.0,1.0,1.0,,,,
"CZK 14,750","CZK 2,728",509665,Studio,9/19/2022,40 m²,Partly,3,1.0,224.4,1278.71,656.5,1260.26,929.14,1205.56,1200.64,1240.37,1130.47,482.15,"Granitova, Prague - Hloubětín",50.1087505,14.5266177,"CZK 32,000",Brick,Up to 10 years,Luxurious,New-build,Personal,B,Central,1.0,,,1.0,1.0,1.0,1.0,,,,,
"CZK 10,000","CZK 2,300",740875,2+kk,9/16/2022,64 m²,Fully furnished,1,,42.35,61.62,67.5,299.47,37.75,493.17,161.09,489.03,309.11,272.43,Prague - Malá Strana,50.08023,14.40446,"CZK 12,300",Brick,,,Very good,,G,,,,,1.0,,1.0,,,,,,
"CZK 18,500","CZK 2,500",612997,2+kk,9/1/2022,43 m²,Partly,2,,345.81,1564.53,580.73,1494.4,665.07,1339.74,266.38,953.97,2333.89,265.06,"Dolákova, Prague - Bohnice",50.134462,14.409814,"CZK 30,000",Prefab concrete,,,Very good,Personal,C,Central,,Complete,,,,1.0,,,,,,
"CZK 8,900","CZK 3,200",740872,1 bedroom,9/16/2022,30 m²,Partly,7,1.0,199.7,286.81,295.47,268.36,312.88,288.62,201.15,159.89,284.84,115.87,Prague - Hloubětín,50.10361,14.53686,"CZK 8,900",Brick,,,Very good,,D,,,,,,,1.0,,,,,,
"CZK 27,500","CZK 2,500",740869,2+kk,10/1/2022,80 m²,Partly,6,1.0,76.46,1107.89,147.24,346.66,213.11,540.3,323.99,810.87,580.16,920.59,Prague - Holešovice,50.10095,14.4371,"CZK 30,000",Brick,,,Very good,,G,,,,,1.0,,,,,,,,
"CZK 11,000","CZK 2,500",558580,Studio,10/1/2022,32 m²,Partly,2,,373.21,1008.33,345.05,695.97,340.31,423.14,423.27,736.47,111.65,176.35,Prague - Libeň,50.1102035,14.4760865,"CZK 20,000",Brick,,,,,,Central,,,,,,,,,,,,
"CZK 15,500","CZK 1,500",669807,Small studio,6/24/2021,32 m²,Fully furnished,1,,271.61,407.23,162.15,824.81,228.81,286.75,544.45,427.44,625.13,192.06,"V Olšinách, Prague - Vršovice",50.07122,14.48201,"CZK 17,000",Brick,,,Very good,Personal,B,Electric boiler,,Complete,,,,,,,,,,
"CZK 24,000","CZK 4,000",740861,3+kk,9/16/2022,69 m²,Partly,3,1.0,73.66,662.81,220.81,961.04,335.04,254.78,383.83,914.37,129.83,113.1,Prague - Záběhlice,50.05746,14.49419,"CZK 56,000",Prefab concrete,30 - 50 years,Luxurious,Very good,Personal,B,Central,,Complete,,,,,,,,,,
"CZK 14,500","CZK 5,500",520175,2 bedroom,10/1/2022,51 m²,,2,1.0,578.8,1553.35,752.62,1394.07,269.41,785.03,606.42,1201.42,1517.01,120.66,"Vodnická, Prague - Újezd u Průhonic",50.0215911,14.5257973,"CZK 30,000",Prefab concrete,10 to 30 years,Standard,Good,Personal,,Distance,,,,1.0,,,,,1.0,,,
"CZK 13,836","CZK 2,816",740726,2+kk,9/7/2022,43 m²,,1,,198.29,733.08,43.63,243.34,60.46,144.99,363.21,842.85,569.34,952.57,"Veletržní, Prague - Holešovice",50.1022256,14.4347155,"CZK 17,772",Other,,,Good,Personal,,,,,,,,,,,,"CZK 2,046",,
"CZK 21,529","CZK 1,366",740659,2 bedroom,9/12/2022,40 m²,,1,,204.37,904.66,10.86,581.29,182.35,473.73,416.59,275.75,281.31,344.57,"Biskupcova, Prague - Žižkov",50.0911605,14.4802851,"CZK 22,900",Other,,,Good,Personal,,,,,,,,,,,,"CZK 3,229",,
"CZK 26,000","CZK 2,603",732460,2 bedroom,8/29/2022,71 m²,,1,,333.08,298.96,45.33,214.75,54.27,39.01,271.19,790.45,189.87,583.72,"Opletalova, Prague - Nové Město",50.0812346,14.4298177,"CZK 30,295",Other,,,Good,Personal,,,,,,,,,,,,"CZK 3,902",,
"CZK 23,490","CZK 5,373",740855,3+kk,9/17/2022,76 m²,Unfurnished,2,1.0,151.97,883.72,585.3,933.79,589.81,914.64,518.63,217.0,792.6,57.54,"V zápolí, Prague - Michle",50.04956055555,14.46571722222,"CZK 28,863",Prefab concrete,,,Very good,Cooperative,G,,,,,,1.0,,,,,"CZK 28,863",,
"CZK 13,650","CZK 4,034",736170,Studio,9/11/2022,44 m²,Partly,8,,79.4,863.8,384.81,1183.67,250.36,286.0,278.16,798.55,93.98,256.66,Prague - Záběhlice,50.05582,14.49291,"CZK 25,000",Brick,,,Very good,,B,,,,,,1.0,,,1.0,,,,
"CZK 17,000","CZK 2,900",720257,Studio,10/1/2022,34 m²,Fully furnished,2,,226.24,190.13,468.45,1707.36,162.58,1210.63,353.69,249.01,567.5,331.26,Prague - Střešovice,50.08844,14.38422,"CZK 20,000",Brick,10 to 30 years,Luxurious,Very good,,B,Central,,Complete,1.0,,,,,,,,,
"CZK 19,000","CZK 3,000",736167,2+kk,9/11/2022,62 m²,Fully furnished,4,1.0,236.12,1109.92,250.41,408.38,297.61,371.55,424.12,636.14,451.49,184.56,Prague - Žižkov,50.09176,14.47078,"CZK 19,000",Other,,,Good,,G,,,,,,,,,1.0,,,,
"CZK 32,000","CZK 8,700",615596,3+kk,10/1/2022,70 m²,Fully furnished,1,1.0,208.11,638.18,179.69,194.68,163.23,152.57,309.4,135.74,472.95,431.05,"Sudoměřská, Prague - Žižkov",50.08139,14.45833,"CZK 64,000",Brick,Up to 10 years,Luxurious,New-build,Personal,D,Gas boiler,,Complete,1.0,,,,,,,,,
"CZK 20,000","CZK 4,000",695001,2+kk,10/1/2022,45 m²,Fully furnished,4,1.0,215.1,468.42,94.48,267.26,12.54,274.1,406.04,365.15,170.64,322.72,"Tusarova, Prague - Holešovice",50.101841946188,14.452939237593,"CZK 20,000",Brick,,,New-build,Personal,B,,,,,,,,,,,,,
"CZK 18,000","CZK 6,000",740455,2+kk,11/1/2022,40 m²,Partly,6,1.0,317.33,1055.83,319.91,994.2,511.31,589.65,249.0,153.79,171.13,150.28,Prague - Střížkov,50.12238,14.48598,"CZK 18,000",Prefab concrete,,,Very good,,G,,,,,1.0,,1.0,,,,,,
"CZK 21,500","CZK 4,500",545806,2+kk,11/1/2022,45 m²,Fully furnished,1,1.0,140.26,422.02,64.13,210.61,88.43,350.09,387.62,365.04,350.84,313.21,"Malešická, Prague - Žižkov",50.0869231,14.468838,"CZK 21,500",Brick,,Luxurious,Very good,Personal,C,,,Complete,,,,,,,,,,
"CZK 17,500","CZK 3,692",736159,2+kk,9/18/2022,49 m²,Fully furnished,2,1.0,186.56,1673.65,357.52,1785.95,374.33,363.41,914.28,497.1,1217.46,128.98,Prague - Hostivař,50.04464,14.51424,"CZK 22,000",Brick,,,New-build,,B,,1.0,,,,,1.0,,,1.0,,,
"CZK 19,500","CZK 5,365",711808,2+kk,10/1/2022,49 m²,Fully furnished,6,1.0,47.78,826.64,80.43,845.07,369.97,226.1,585.05,391.79,530.72,483.78,"Lehovecká, Prague - Hloubětín",50.1079,14.54644,"CZK 39,000",Brick,,,New-build,Personal,B,,,,,1.0,1.0,1.0,1.0,,,,,
"CZK 20,000","CZK 4,500",732644,1 bedroom,9/19/2022,45 m²,Partly,2,,410.17,1507.76,969.35,1170.81,576.77,1063.58,847.57,749.16,600.77,554.81,Prague - Košíře,50.06701,14.35662,"CZK 45,000",Brick,,,Very good,,G,,,,,,1.0,,,,,,,
"CZK 18,900","CZK 2,500",617859,2+kk,10/1/2022,67 m²,Partly,1,,154.34,430.86,85.42,317.28,40.01,296.07,3.5,332.81,125.75,134.0,"Náměstí Jiřího Z Lobkovic, Prague - Vinohrady",50.076683,14.468127,"CZK 20,000",Brick,Up to 10 years,Luxurious,Very good,Personal,C,,,Complete,,,,,,,,,,
"CZK 18,250","CZK 1,500",720582,1 bedroom,10/1/2022,34 m²,Fully furnished,2,,394.31,376.95,228.04,349.35,34.98,624.43,381.88,610.55,688.95,233.34,Prague - Malá Strana,50.08608290623,14.407474153125,"CZK 19,750",Brick,Over 50 years,Standard,Good,,G,,,Bathroom unit,,,,,,1.0,,,,
"CZK 18,000","CZK 4,000",740842,2 bedroom,9/16/2022,56 m²,Fully furnished,1,,162.99,184.97,166.43,505.52,148.72,274.78,139.94,254.78,426.37,176.79,Prague - Vršovice,50.07111,14.4754,"CZK 22,000",Brick,,,Very good,,G,,,,,,,,,,,,,
"CZK 14,500","CZK 3,500",329005,Studio,9/16/2022,34 m²,Fully furnished,2,,43.02,525.95,29.09,68.89,81.68,546.74,301.16,216.37,546.02,438.4,"Seifertova, Prague - Žižkov",50.0852364,14.4440628,"CZK 20,000",Brick,Up to 10 years,Standard,Very good,Personal,,Gas boiler,,Complete,,,,,,,,,,
"CZK 62,100","CZK 20,700",740838,5+kk,10/1/2022,219 m²,Fully furnished,6,1.0,122.69,292.83,150.02,222.27,31.53,246.25,406.08,512.95,283.22,254.06,"Křižíkova a, Prague - Karlín",50.0928722,14.4500782,,,,,,,,,,,1.0,,1.0,,1.0,,,,,
"CZK 13,000","CZK 3,500",732298,Small studio,10/1/2022,27 m²,Unfurnished,5,,300.2,346.13,242.74,505.67,74.26,511.17,211.23,158.33,185.85,232.99,Prague - Vinohrady,50.07635,14.46516,"CZK 26,000",Brick,,,Good,,G,,,,,,,,,,,,,
"CZK 12,900","CZK 2,000",518830,Studio,9/17/2022,16 m²,Partly,1,,363.46,258.54,126.12,285.48,117.52,279.33,160.1,216.5,295.22,467.37,"Vlkova, Prague - Žižkov",50.0839945,14.4485314,"CZK 10,000",Brick,Up to 10 years,Luxurious,Very good,Personal,,Gas boiler,,Complete,1.0,,,,,,,,,
"CZK 16,000","CZK 4,000",740831,2 bedroom,9/16/2022,67 m²,Partly,4,,138.65,538.39,316.24,173.65,150.58,1100.33,212.78,550.2,401.94,362.24,Prague - Michle,50.05769,14.45154,"CZK 16,000",Brick,,,Good,,E,,,,,,,,,,,,,
"CZK 13,500","CZK 4,500",470838,2 bedroom,10/1/2022,52 m²,Partly,11,1.0,259.13,1373.65,188.7,1390.35,537.41,149.19,307.46,548.31,804.35,238.4,"Zárubova, Prague - Kamýk",50.0143104,14.4355489,"CZK 18,000",Prefab concrete,,,,Cooperative,,,,,,1.0,,1.0,,,,,,
"CZK 18,000","CZK 7,000",740829,3+1,10/1/2022,65 m²,Unfurnished,1,,95.85,1375.47,143.54,1378.65,486.53,1459.37,731.38,629.77,857.12,623.77,Prague - Braník,50.04355,14.42459,"CZK 20,000",Brick,,,Very good,Personal,C,,,,,1.0,,,,,1.0,,,
"CZK 13,900","CZK 2,400",251709,Studio,9/30/2022,27 m²,Partly,2,,158.09,417.51,60.62,299.36,87.46,438.29,192.72,107.92,437.58,581.73,"Krásova, Prague - Žižkov",50.0855213,14.4464324,"CZK 16,300",Brick,Up to 10 years,Standard,Very good,Personal,A,,,Interior,,,,,,,,,,
"CZK 42,500",CZK 133,740147,4+kk,10/14/2022,109 m²,Fully furnished,9,1.0,,,,,,,,,,,Prague - Stodůlky,50.04595,14.32223,"CZK 85,000",Other,,,Very good,,A,,1.0,,1.0,1.0,1.0,1.0,,,,,,
"CZK 15,500",CZK 133,740156,Studio,11/9/2022,31 m²,Unfurnished,9,1.0,,,,,,,,,,,Prague - Stodůlky,50.04595,14.32223,"CZK 31,000",Other,,,Very good,,A,,1.0,,,1.0,1.0,1.0,,,,,,
"CZK 19,800",CZK 133,740163,2+kk,11/17/2022,49 m²,Unfurnished,3,1.0,,,,,,,,,,,Prague - Stodůlky,50.04595,14.32223,"CZK 39,600",Other,,,Very good,,A,,1.0,,,1.0,1.0,1.0,,,,,,
"CZK 21,700",CZK 133,740175,2 bedroom,11/11/2022,42 m²,Fully furnished,11,1.0,,,,,,,,,,,Prague - Stodůlky,50.04595,14.32223,"CZK 43,399",Other,,,Very good,,A,,1.0,,,1.0,,1.0,,,,,,
"CZK 17,000","CZK 5,500",422289,3+kk,9/1/2022,62 m²,Partly,1,,349.4,572.95,463.03,504.55,608.98,829.85,376.29,223.35,863.97,146.24,"Borošova, Prague - Háje",50.0303216,14.5380942,"CZK 34,000",Prefab concrete,,Standard,Very good,Cooperative,,Central,,Interior,,,,,,,1.0,,,
"CZK 11,990",CZK 0,613404,Small studio,9/11/2022,18 m²,Fully furnished,1,,153.14,505.33,91.47,187.05,15.88,379.79,532.9,338.15,323.61,703.92,"Na Bělidle, Prague - Smíchov",50.071815,14.406029,"CZK 5,000",Brick,,Standard,Good,Personal,G,Gas boiler,,Interior,,,,,,,,,,
"CZK 9,500","CZK 3,500",233679,Studio,9/30/2022,26 m²,Unfurnished,1,,324.39,1223.07,550.75,1160.08,265.26,926.24,647.58,929.38,339.95,445.52,"Cukrovarnická, Prague - Střešovice",50.094406,14.3743334,"CZK 15,000",Brick,Over 50 years,Standard,,Personal,,Electric boiler,,,,,,,,,,,,
"CZK 27,000","CZK 4,500",650956,3+kk,11/1/2022,92 m²,Partly,2,1.0,244.33,917.86,160.8,1025.44,297.16,974.62,189.3,478.74,1551.8,165.65,"Kytlická, Prague - Prosek",50.125208,14.507475,"CZK 27,000",Other,Up to 10 years,,Very good,Personal,C,Distance,1.0,,,1.0,,1.0,1.0,,1.0,,,
"CZK 16,000","CZK 4,300",736135,1 bedroom,9/11/2022,50 m²,Partly,3,,362.63,286.52,102.7,322.99,130.28,112.57,190.73,573.85,1253.21,319.82,Prague - Vokovice,50.09553,14.35921,"CZK 20,000",Brick,,,Very good,,G,,,,,1.0,,,,1.0,,,,
"CZK 12,000","CZK 1,200",740066,Studio,9/13/2022,33 m²,Partly,3,,429.59,654.83,143.72,975.57,351.62,416.14,603.04,603.04,451.23,424.94,Prague - Strašnice,50.06949,14.4829,"CZK 12,000",Brick,,,Very good,,G,,,Complete,,1.0,,,,,,,,
"CZK 20,000","CZK 4,234",740652,3+1,9/15/2022,69 m²,Fully furnished,5,1.0,154.43,1201.2,181.82,1139.58,270.26,451.99,261.69,222.9,229.57,170.87,Prague - Střížkov,50.12406,14.48501,"CZK 60,000",Prefab concrete,,Standard,Very good,Personal,C,Central,,Complete,,,,,,,1.0,,,
"CZK 11,900","CZK 1,000",740770,2+kk,10/1/2022,52 m²,Unfurnished,2,1.0,242.77,1353.2,303.92,1027.74,365.0,863.48,304.09,1008.73,1292.99,1118.85,Prague - Vysočany,50.10127,14.50541,"CZK 25,800",Brick,,,Good,Personal,G,,,,,,,,,,,,,
"CZK 14,000","CZK 2,000",193968,2+kk,9/19/2022,37 m²,Partly,2,,260.37,593.44,354.2,454.37,98.43,500.65,399.67,396.04,435.81,266.96,"Pod Jarovem, Prague - Žižkov",50.08913137914,14.487062352387,"CZK 22,000",Brick,Up to 10 years,,New-build,Personal,,Other,1.0,Complete,,1.0,,1.0,1.0,,,,,
"CZK 30,000","CZK 6,700",740804,2 bedroom,9/16/2022,71 m²,Partly,4,1.0,182.77,372.12,98.04,216.48,79.46,216.82,582.62,621.52,236.07,257.26,Prague - Holešovice,50.10463,14.45263,"CZK 45,000",Brick,,,Very good,Personal,G,,,,,,,,,1.0,,,,
"CZK 14,500","CZK 4,500",681593,Studio,10/1/2022,22 m²,Fully furnished,3,1.0,192.97,681.32,168.5,100.72,76.61,170.2,167.76,242.3,235.36,148.39,"Hálkova, Prague - Nové Město",50.0763,14.42761,"CZK 38,000",Other,,Standard,Very good,Personal,,Central,,Interior,,1.0,,1.0,,1.0,,,,
"CZK 14,000","CZK 2,927",727527,Studio,9/23/2022,32 m²,Unfurnished,2,1.0,134.1,1231.17,484.46,487.91,0.66,491.14,797.02,376.04,364.68,547.87,"5. května, Prague - Nusle",50.05624815,14.43716165,"CZK 30,000",Brick,,Standard,Good,Personal,E,,,Interior,,1.0,,,,,,,,
"CZK 21,990","CZK 2,181",740790,3+1,9/16/2022,73 m²,Unfurnished,3,1.0,26.99,405.1,124.86,515.68,220.14,375.91,316.83,445.76,397.01,161.74,"Ostromečská, Prague - Žižkov",50.08718638888,14.46056388888,"CZK 24,171",Prefab concrete,,,Very good,Personal,B,,,,,,1.0,,,,,"CZK 24,171",,
"CZK 22,500","CZK 4,500",732263,2+kk,10/1/2022,70 m²,Fully furnished,5,,103.95,769.3,376.39,634.05,166.32,268.33,409.9,342.03,573.96,371.36,Prague - Břevnov,50.0862,14.37286,"CZK 27,000",Brick,,,Very good,Personal,G,Electric boiler,,Complete,1.0,,,,,,,,,
"CZK 18,000","CZK 9,000",740787,2+kk,10/15/2022,53 m²,Partly,2,1.0,226.62,1165.68,327.76,1104.05,781.01,764.79,144.63,511.4,692.84,297.16,Prague - Prosek,50.11963,14.48566,"CZK 36,000",Other,,,New-build,,B,,1.0,,,1.0,1.0,,1.0,,,,,
"CZK 16,500","CZK 3,000",713897,1 bedroom,10/1/2022,38 m²,Fully furnished,9,1.0,259.03,728.41,87.75,566.92,184.32,653.22,234.41,180.43,379.43,149.88,"Horáčkova, Prague - Krč",50.04672,14.43545,"CZK 32,000",Prefab concrete,,,Good,Personal,G,Distance,,,,,,,,,1.0,,,
"CZK 33,000","CZK 3,000",740781,4+1,9/16/2022,125 m²,Partly,2,,245.49,324.34,443.7,957.46,358.12,444.67,207.73,1127.25,404.03,338.04,Prague - Radotín,49.98364,14.35419,"CZK 33,000",Brick,,,Very good,,G,,,,,1.0,,1.0,1.0,1.0,,,,
"CZK 17,000","CZK 4,750",736115,2+kk,10/1/2022,44 m²,Partly,2,1.0,169.16,1348.13,483.03,1114.07,235.3,1345.54,1083.35,660.09,816.23,272.89,Prague - Braník,50.04099,14.42687,"CZK 25,000",Prefab concrete,,,Very good,,G,,,,,,,,,,,,,
"CZK 15,000","CZK 3,500",662820,Studio,10/1/2022,43 m²,Partly,1,1.0,426.71,1033.48,242.4,1012.54,635.67,576.3,533.04,449.67,1259.73,70.72,"Zakšínská, Prague - Střížkov",50.13041,14.49516,"CZK 30,000",Brick,,,New-build,Personal,G,,,,,1.0,1.0,,1.0,,,,,
"CZK 15,700","CZK 2,500",656181,Studio,12/1/2022,45 m²,Partly,2,1.0,101.97,622.17,257.21,412.56,238.41,483.85,237.72,57.55,550.69,311.67,"Ambrožova, Prague - Žižkov",50.08781,14.4725,CZK 0,Brick,Up to 10 years,,New-build,Personal,B,Central,,Complete,,1.0,,1.0,,,,,,
"CZK 18,000","CZK 5,000",736114,2+kk,9/11/2022,60 m²,Unfurnished,2,,120.54,1414.18,754.5,1053.65,193.15,897.35,406.15,456.15,375.65,222.29,Prague - Prosek,50.11591,14.48947,"CZK 23,000",Brick,,,Very good,,G,,,,,,,,,,,,,
"CZK 17,000","CZK 1,500",284832,2+kk,9/2/2022,44 m²,Fully furnished,2,1.0,64.92,71.53,94.68,69.92,50.1,185.05,328.76,618.3,494.6,269.47,"Bělehradská, Prague - Nusle",50.065139,14.4397002,"CZK 18,000",Brick,Up to 10 years,Standard,Very good,Personal,,Electric boiler,,Complete,,,,,,1.0,,,,
"CZK 16,814","CZK 4,000",736112,2+kk,10/1/2022,53 m²,Partly,9,1.0,448.98,1037.24,116.71,1528.91,131.44,792.15,534.77,123.73,510.12,158.04,Prague - Háje,50.0383,14.5148,"CZK 33,628",Prefab concrete,,,Good,,C,,,,,1.0,,1.0,,,1.0,,,
"CZK 21,990","CZK 3,000",455181,3+kk,10/1/2022,100 m²,Partly,4,,92.0,311.29,92.67,91.73,15.68,54.71,375.6,680.19,587.48,437.71,"Čestmírova, Prague - Nusle",50.0643449,14.4422605,"CZK 25,000",Brick,,,,Personal,,,,,1.0,,,1.0,,,,,,
"CZK 9,500",CZK 600,740766,Studio,9/16/2022,26 m²,Partly,2,,178.14,878.55,72.65,592.97,166.66,447.63,428.28,264.23,269.79,333.05,Prague - Žižkov,50.09144,14.48046,"CZK 9,500",Brick,,,Very good,,G,,,,,,,,,,,,,
"CZK 15,000","CZK 4,995",550996,2+kk,10/1/2022,53 m²,Partly,3,1.0,117.14,1171.45,549.24,1193.78,821.88,1098.3,1101.56,1133.11,1023.21,358.57,"Saarinenova, Prague - Hloubětín",50.10775255,14.52682915,"CZK 19,500",Brick,Up to 10 years,,New-build,Personal,B,Distance,1.0,,,1.0,1.0,,,,,,,
"CZK 40,000","CZK 10,000",736109,5+kk,9/11/2022,130 m²,Unfurnished,1,1.0,67.1,196.96,125.57,1122.44,61.09,957.38,169.07,566.2,449.35,192.09,Prague - Hlubočepy,50.02866,14.36628,"CZK 50,000",Brick,,,Very good,,G,Distance,,Complete,1.0,,,,1.0,,,,,
"CZK 16,000","CZK 4,800",713260,2+kk,10/1/2022,47 m²,Fully furnished,4,1.0,229.2,309.17,108.89,100.72,25.31,205.44,309.96,539.76,280.22,254.91,"Kyjevská, Prague - Bubeneč",50.0995426,14.3993071,"CZK 25,000",Brick,,Standard,Very good,Personal,G,Gas boiler,,,,,,,,,,,,
"CZK 17,000","CZK 3,600",476614,2+kk,10/1/2022,68 m²,Partly,1,1.0,129.45,835.62,1.23,1969.68,88.84,789.46,493.02,1038.93,849.89,402.34,"Pelušková, Prague - Kyje",50.1090415,14.5576199,"CZK 15,000",Other,,,,Personal,B,,,,1.0,1.0,1.0,,1.0,,,,,
"CZK 13,000",CZK 0,740743,1 bedroom,10/1/2022,33 m²,Unfurnished,3,1.0,8.03,741.11,15.85,184.5,51.87,143.24,305.33,864.05,77.95,411.87,Prague - Dejvice,50.09823,14.40512,"CZK 15,000",Brick,,,Very good,,G,,,,,,,,,1.0,,,,
"CZK 26,250","CZK 8,750",731290,2+kk,10/1/2022,46 m²,Fully furnished,3,,91.53,437.84,79.6,137.33,1.11,181.86,414.36,266.21,251.67,662.32,"Lidická, Prague - Smíchov",50.0723918,14.4059555,,,,,,,,,,,,,,,,,,,,
"CZK 36,450","CZK 12,150",726075,3+kk,10/10/2022,82 m²,Fully furnished,6,1.0,101.2,551.63,76.94,167.66,45.43,94.55,322.6,504.78,539.56,607.69,"Rumunská, Prague - Vinohrady",50.0739629,14.4309041,,,,,,,,,,,,,,,,,,,,
"CZK 53,510","CZK 17,836",725486,4+1,10/14/2022,110 m²,Fully furnished,7,1.0,348.55,940.69,207.03,294.37,97.8,272.7,322.85,445.04,400.99,361.6,"Divadelní, Prague - Staré Město",50.0824664,14.4140344,,,,,,,,,,,1.0,,1.0,,,,,,,
"CZK 32,625","CZK 10,875",728257,3+kk,9/29/2022,80 m²,Fully furnished,2,,156.94,402.05,153.34,284.97,151.52,248.16,393.35,447.14,193.37,153.39,"Anežská, Prague - Staré Město",50.0920126,14.4239059,,,,,,,,,,,,,,,,,,,,
"CZK 25,808","CZK 8,602",725069,2 bedroom,9/23/2022,54 m²,Fully furnished,5,,221.57,827.75,176.34,604.4,98.94,602.74,417.35,332.18,571.22,245.6,"Bulharská, Prague - Vršovice",50.0720218,14.4618189,,,,,,,,,,,,,,,,,,,,
"CZK 37,500","CZK 12,500",732692,1 bedroom,11/5/2022,50 m²,Fully furnished,2,,187.82,338.29,111.0,241.4,39.4,347.76,25.85,486.49,569.58,575.91,"Karmelitská, Prague - Malá Strana",50.08657,14.4033198,,,,,,,,,,,,,,,,,,,,
"CZK 45,000","CZK 15,000",723086,2+kk,10/20/2022,70 m²,Fully furnished,4,1.0,285.3,547.87,69.97,206.93,9.84,222.16,245.36,617.77,369.53,523.86,"Ve Smečkách, Prague - Nové Město",50.0795975,14.4273504,,,,,,,,,,,,,,,,,,,,
"CZK 12,500",CZK 600,520204,Studio,9/16/2022,20 m²,Partly,5,,172.71,932.23,143.93,381.62,49.0,314.45,235.06,275.0,282.85,68.91,"Na Výtoni, Prague - Nové Město",50.0684511,14.4165468,"CZK 12,500",Brick,,,,Personal,,Electric boiler,,,,,,,,,,,,
"CZK 14,600",CZK 0,740732,2+kk,9/16/2022,45 m²,Partly,2,,117.53,779.67,30.06,420.36,163.77,136.61,396.58,771.24,332.19,248.01,Prague - Strašnice,50.07172,14.48794,"CZK 15,000",Brick,,,Very good,,C,,,,,1.0,,,,,,,,
"CZK 21,500",CZK 0,469987,Studio,9/10/2022,30 m²,Fully furnished,2,,112.61,288.33,82.92,401.54,17.16,94.52,269.64,278.36,374.77,330.92,"Sokolovská, Prague - Karlín",50.0925548,14.443799,"CZK 14,000",Brick,Up to 10 years,Standard,Very good,Personal,,Distance,,Complete,,,,,,,,,,
"CZK 13,500","CZK 2,000",740712,Small studio,10/1/2022,31 m²,Fully furnished,2,,11.33,1121.79,943.7,1128.6,518.61,758.69,855.84,1197.41,656.66,194.1,Prague - Řeporyje,50.03738,14.3223,"CZK 13,500",Brick,,,New-build,,A,,,,,,,,,,,,,
"CZK 17,000","CZK 7,000",735634,2+kk,10/1/2022,65 m²,Fully furnished,5,1.0,8.65,788.83,307.98,516.6,215.33,129.45,319.34,612.98,698.97,194.84,Prague - Michle,50.04294,14.45705,"CZK 25,000",Low-energy,,,New-build,Personal,C,Central,,,,1.0,1.0,,1.0,,,,,
"CZK 16,500","CZK 5,350",690118,2+kk,10/1/2022,57 m²,Partly,5,1.0,29.12,479.15,12.02,507.81,194.11,499.98,167.56,459.07,743.8,109.58,"Jeremiášova, Prague - Stodůlky",50.04383,14.33673,"CZK 30,000",Brick,,,New-build,Personal,B,,,,1.0,,,1.0,,,,,,
"CZK 13,836","CZK 2,816",740727,2+kk,9/7/2022,43 m²,,1,,198.29,733.08,43.63,243.34,60.46,144.99,363.21,842.85,569.34,952.57,"Veletržní, Prague - Holešovice",50.1022256,14.4347155,"CZK 17,772",Other,,,Good,Personal,,,,,,,,,,,,"CZK 2,046",,
"CZK 16,000","CZK 4,000",375750,2+kk,11/1/2022,68 m²,Fully furnished,7,1.0,60.13,1177.4,447.4,665.0,514.56,1256.24,754.55,1165.87,286.5,196.71,"Sídlištní, Prague - Lysolaje",50.1273584,14.3790758,CZK 0,Brick,10 to 30 years,,Very good,Personal,,,,,,1.0,,1.0,,,,,,
"CZK 15,900","CZK 2,450",608060,Studio,11/1/2022,44 m²,,8,1.0,89.31,505.89,306.33,293.11,254.61,424.48,246.7,541.34,681.4,176.73,"Československého exilu, Prague - Modřany",50.008761,14.415273,CZK 1,Brick,,,New-build,Personal,B,,1.0,,,,1.0,,,,,,,
"CZK 20,900","CZK 4,000",684331,2+kk,10/1/2021,47 m²,Fully furnished,,1.0,191.33,661.41,92.72,438.07,125.62,436.41,134.31,322.79,706.23,291.93,"Bulharská, Prague - Vršovice",50.07161,14.45719,"CZK 35,000",Prefab concrete,,Luxurious,Very good,Personal,B,Electric boiler,,Interior,1.0,1.0,1.0,1.0,,,1.0,,,
"CZK 16,000","CZK 2,300",552436,2+kk,10/1/2022,45 m²,Fully furnished,3,,132.96,761.07,260.83,649.61,323.64,720.69,408.76,573.22,304.33,70.71,Prague - Vysočany,50.1095027,14.5095619,"CZK 25,000",Brick,,,,Personal,,,,,,,1.0,,,,,,,
"CZK 20,000","CZK 5,000",367121,2 bedroom,10/1/2022,58 m²,Partly,3,1.0,98.12,581.06,94.69,157.13,155.37,601.84,356.27,271.47,501.52,493.5,"Husinecká, Prague - Žižkov",50.0858277,14.4445283,"CZK 25,000",Brick,,Standard,Very good,Personal,,Central,,Bathroom unit,,,1.0,,,,,,,
"CZK 12,000","CZK 3,000",494253,2+kk,9/12/2022,47 m²,Partly,2,,285.2,1689.92,878.2,1448.79,330.4,1122.04,569.84,1183.18,1724.78,577.25,"Převoznická, Prague - Modřany",50.009959,14.4040533,"CZK 15,000",Brick,,Standard,,Personal,,,,,,,,,,,,,,
"CZK 14,900","CZK 6,270",672794,2+kk,9/15/2022,43 m²,Partly,2,1.0,26.14,587.47,436.0,556.42,499.93,230.47,344.18,278.7,958.74,190.58,"Skuteckého, Prague - Řepy",50.06833,14.31078,"CZK 25,000",Prefab concrete,Up to 10 years,Standard,Very good,Personal,G,Distance,,Complete,,,,1.0,,,,,,
"CZK 24,500","CZK 5,500",469337,2+kk,10/1/2022,112 m²,Fully furnished,1,1.0,69.35,969.2,421.88,1090.11,379.58,558.23,685.4,555.27,845.41,574.35,Prague - Libeň,50.1193735,14.4697847,"CZK 49,000",Brick,,Luxurious,,Personal,B,Central,1.0,,1.0,1.0,,,1.0,,,,,
"CZK 19,000","CZK 2,910",410816,2+kk,,64 m²,Partly,5,1.0,230.65,1392.41,158.0,877.3,201.79,445.72,362.79,745.16,457.82,104.46,"Primátorská, Prague - Libeň",50.1127192,14.472558,"CZK 40,820",Brick,,,Very good,Personal,D,,,,,,,,,,,,,
"CZK 19,000","CZK 3,888",740701,2+kk,9/30/2022,55 m²,Fully furnished,2,,365.18,654.19,402.07,818.05,264.26,658.53,617.71,266.55,474.55,163.92,Prague - Žižkov,50.08948,14.49516,"CZK 19,000",Brick,,,Very good,,G,,,,,,1.0,,,,,,,
"CZK 14,000","CZK 4,000",740700,2+kk,9/15/2022,45 m²,Unfurnished,6,1.0,406.42,756.09,451.81,667.4,614.52,764.06,998.28,476.57,2230.41,136.07,Prague - Černý Most,50.1034,14.585,"CZK 28,000",Prefab concrete,,,Very good,,C,,,,,1.0,1.0,,,,,,,
"CZK 25,000","CZK 4,000",736032,3+kk,10/1/2022,75 m²,Partly,1,,40.51,481.23,461.74,460.6,465.29,485.27,612.79,332.41,325.03,201.17,Prague - Hostivař,50.05397,14.5223,"CZK 40,000",Brick,,,Very good,,D,,,Interior,1.0,1.0,,1.0,1.0,1.0,,,,
"CZK 20,000","CZK 5,000",736095,3+kk,9/10/2022,75 m²,Unfurnished,9,1.0,250.85,355.35,99.75,293.72,90.58,107.78,493.07,406.65,869.4,28.81,Prague - Střížkov,50.12481,14.49442,"CZK 25,000",Prefab concrete,,,Very good,Personal,C,Central,,,,,,,,,1.0,,,
"CZK 12,000","CZK 2,000",740680,1 bedroom,11/1/2022,37 m²,Partly,3,1.0,176.89,533.1,217.69,224.17,0.26,288.29,208.28,312.97,152.44,171.63,Prague - Háje,50.03194,14.52646,"CZK 28,000",Prefab concrete,,,Very good,Personal,G,,,,,,,1.0,,,,,,
"CZK 18,000","CZK 2,000",525069,2+kk,10/3/2022,54 m²,Partly,4,1.0,167.72,596.5,134.9,92.46,140.56,401.2,624.07,429.32,414.77,427.67,Prague - Smíchov,50.0711324,14.408221,"CZK 40,000",Brick,,Standard,,Personal,E,,,Complete,,,,1.0,,,,,,
"CZK 12,100","CZK 4,200",337550,2+kk,9/15/2022,44 m²,Partly,7,1.0,6.96,186.73,185.24,121.91,125.75,206.94,157.99,283.18,868.07,157.13,"V hůrkách, Prague - Stodůlky",50.050848,14.341537,"CZK 12,000",Prefab concrete,10 to 30 years,Standard,,Personal,,Central,,,,1.0,,,,,,,,
"CZK 15,000","CZK 2,500",740341,Studio,9/19/2022,35 m²,Partly,2,1.0,201.7,1308.66,142.89,1129.36,468.82,688.29,322.41,221.9,1021.18,245.67,Prague - Strašnice,50.07153,14.50459,"CZK 17,500",Brick,,Standard,New-build,Personal,B,Distance,1.0,,,1.0,1.0,,,,,,,
"CZK 11,000",CZK 800,740673,2+kk,11/1/2022,36 m²,Unfurnished,,,275.94,890.36,229.68,582.35,131.41,334.79,336.02,515.85,389.48,441.74,Prague - Břevnov,50.08345,14.37474,"CZK 11,000",Other,,,Very good,,G,,,,,,,,,1.0,,,,
"CZK 13,000","CZK 2,000",572645,Studio,10/1/2022,25 m²,Partly,2,1.0,153.64,1228.27,195.17,525.91,216.58,147.7,466.06,400.39,506.58,364.88,"Koulova, Prague - Dejvice",50.1078722,14.3936411,"CZK 15,000",Brick,,,,Personal,E,Other,,,,1.0,,,,,,,,
"CZK 24,413","CZK 8,137",740670,Studio,10/6/2022,35 m²,Fully furnished,1,1.0,237.21,722.71,270.23,1114.48,162.06,485.4,549.42,612.82,571.2,287.12,"U Nikolajky, Prague - Smíchov",50.0656652,14.3917771,,,,,,,,,,,1.0,,1.0,,1.0,,,,,
"CZK 13,000","CZK 3,000",694572,Studio,10/1/2022,33 m²,Partly,2,1.0,0.0,1000.33,188.6,812.32,714.06,181.17,662.52,660.92,1146.62,527.05,"Hornoměcholupská, Prague - Horní Měcholupy",50.04393,14.56686,"CZK 16,000",Brick,,,New-build,Personal,C,,1.0,,1.0,,,1.0,,1.0,,,,
"CZK 21,000","CZK 2,800",740660,Studio,10/17/2022,39 m²,Fully furnished,,,165.04,693.97,218.31,198.96,208.44,199.93,410.35,701.37,475.65,42.79,Prague - Libeň,50.10525,14.47206,"CZK 20,000",Prefab concrete,,,Very good,,B,,,,1.0,,,,,,,,,
"CZK 6,500","CZK 3,500",274361,Small studio,9/15/2022,15 m²,Fully furnished,5,,231.41,807.29,459.77,571.04,221.73,712.37,485.63,521.13,560.84,531.11,"Řehořova, Prague - Žižkov",50.0864912,14.4441978,"CZK 15,000",Brick,,Standard,Very good,Personal,,Electric boiler,,Complete,,,,,,,,,,
"CZK 25,000","CZK 10,000",736080,5+1,1/2/2023,150 m²,Unfurnished,7,1.0,245.6,379.18,349.57,314.36,249.29,299.83,380.64,572.51,859.93,298.7,Prague - Stodůlky,50.04988,14.33781,"CZK 30,000",Other,,,Very good,,C,,,,,,,1.0,1.0,,1.0,,,
"CZK 20,000","CZK 2,500",551612,3+kk,10/1/2022,70 m²,Partly,4,1.0,319.89,652.96,443.08,513.9,243.88,560.18,459.19,556.56,566.03,398.81,"Pod Jarovem, Prague - Žižkov",50.0896368,14.4890174,"CZK 30,000",Prefab concrete,,,,Cooperative,G,Central,,,,1.0,1.0,,,,1.0,,,
"CZK 29,000","CZK 5,967",729202,3+kk,10/1/2022,84 m²,Partly,6,1.0,333.78,242.88,48.87,1653.73,247.19,1109.77,1078.15,704.83,885.11,159.74,Prague - Stodůlky,50.04711,14.30195,"CZK 70,000",Brick,,,New-build,,C,,1.0,,,,1.0,1.0,1.0,,,,,
"CZK 20,000","CZK 5,000",649076,2+kk,12/1/2022,53 m²,Partly,1,1.0,94.3,1750.54,524.42,585.43,506.77,1100.36,554.38,1437.08,790.47,844.07,"Břeclavská, Prague - Kyje",50.095579,14.545925,"CZK 40,000",Brick,Up to 10 years,Luxurious,Very good,Personal,,Gas boiler,,,1.0,1.0,,1.0,1.0,,,,,
"CZK 14,000","CZK 3,000",731675,Studio,9/20/2022,34 m²,Fully furnished,4,1.0,159.96,318.63,144.94,410.41,117.64,270.71,737.06,831.3,943.97,238.54,Prague - Uhříněves,50.03064,14.59533,"CZK 30,000",Brick,,,Very good,,G,,,,,1.0,,1.0,,,1.0,,,
"CZK 29,647",CZK 993,740651,3+1,9/15/2022,83 m²,Fully furnished,2,1.0,90.57,499.7,90.96,526.63,147.09,92.51,336.48,285.14,527.98,377.58,Prague - Žižkov,50.08148,14.44679,"CZK 60,000",Brick,,,Very good,,B,,,,,,1.0,,,,,,,
"CZK 17,500","CZK 5,000",740648,2 bedroom,9/15/2022,58 m²,Partly,2,,168.52,601.11,188.98,427.62,114.89,345.84,262.68,771.05,114.89,162.44,Prague - Nusle,50.06141,14.43832,"CZK 20,000",Brick,,,Good,,G,,,,,,1.0,,,1.0,,,,
"CZK 17,900","CZK 3,400",206206,2+kk,9/20/2022,54 m²,Partly,3,1.0,432.16,1067.28,404.0,754.92,477.78,482.09,482.22,661.17,363.49,311.58,"Pivovarnická, Prague - Libeň",50.10973,14.47768,"CZK 40,000",Brick,Up to 10 years,Luxurious,Very good,Personal,B,,1.0,,,,,1.0,,,,,,
"CZK 20,000","CZK 4,900",732447,2 bedroom,11/1/2022,60 m²,Fully furnished,,,167.34,727.91,51.75,549.55,80.93,744.46,530.96,1064.93,83.46,228.05,Prague - Podolí,50.05359,14.41895,"CZK 40,000",Brick,,Standard,Very good,,G,Central,,Complete,,,,,,,,,,
"CZK 17,500","CZK 2,800",729925,1 bedroom,11/1/2022,33 m²,Partly,5,1.0,121.93,541.11,118.49,181.69,179.17,561.9,303.13,231.52,434.09,517.31,"Štítného, Prague - Žižkov",50.0853298,14.4497431,"CZK 30,000",Other,,,Very good,,C,,,,,,,,,,,,,
"CZK 15,000","CZK 3,000",740214,2+kk,9/17/2022,38 m²,Fully furnished,2,,104.83,287.99,564.93,2433.41,335.66,1368.03,1095.47,1713.21,1353.42,310.09,Prague - Libuš,50.0115,14.45983,"CZK 18,000",Brick,,,Very good,,D,,,,,,1.0,,1.0,,,,,
"CZK 14,000","CZK 1,500",686487,Studio,11/1/2022,27 m²,Fully furnished,3,1.0,248.3,264.57,167.06,164.99,46.52,349.24,214.57,1010.88,487.71,433.95,"Keramická, Prague - Bubeneč",50.10124,14.42167,"CZK 20,000",Brick,Over 50 years,,Very good,Personal,G,Electric boiler,1.0,Complete,,1.0,,,,,,,,
"CZK 26,500","CZK 4,500",600611,2+kk,9/26/2022,67 m²,Fully furnished,2,1.0,97.05,540.28,10.71,165.23,4.56,325.45,567.85,373.09,358.55,727.5,"Na Bělidle, Prague - Smíchov",50.071508,14.40566,"CZK 45,000",Brick,,,Very good,Personal,G,Central,,Complete,,,,,,,,,,
"CZK 17,500","CZK 5,500",729569,3+1,9/11/2022,78 m²,Partly,2,,326.98,1422.86,1524.63,2943.84,964.32,1176.46,367.48,2774.92,2964.44,947.04,Prague - Nebušice,50.11178,14.34242,"CZK 23,000",Brick,10 to 30 years,Standard,Very good,Personal,G,,1.0,Complete,,,,1.0,,,,,,
"CZK 10,000","CZK 3,000",212860,1 bedroom,9/15/2022,35 m²,Fully furnished,1,,403.21,811.64,1195.48,1482.11,687.15,573.5,785.49,1293.3,706.8,425.44,"Žilovská, Prague - Řeporyje",50.0349226,14.3210845,"CZK 13,000",Brick,,,,Personal,,Central,,,,,,,,,,,,
"CZK 60,000","CZK 8,000",736066,4+kk,11/7/2022,125 m²,Fully furnished,3,1.0,225.56,711.06,281.87,1102.83,150.41,497.04,537.78,601.18,559.55,275.48,Prague - Smíchov,50.06561,14.39198,"CZK 120,000",Low-energy,Up to 10 years,,New-build,Personal,B,Gas boiler,1.0,,,1.0,,1.0,1.0,,1.0,,,
"CZK 22,000",CZK 0,573658,2+kk,9/6/2019,45 m²,Fully furnished,1,1.0,100.52,2055.53,250.95,1942.2,442.95,2000.38,424.73,416.06,288.31,364.82,"Hlubočepská, Prague - Hlubočepy",50.0412007,14.396962,"CZK 22,000",Brick,,Luxurious,Very good,Personal,C,Central,,,1.0,1.0,,1.0,1.0,,,,,
"CZK 10,900","CZK 4,200",740589,2+kk,9/15/2022,43 m²,Unfurnished,10,1.0,106.88,828.11,136.33,811.17,224.98,257.07,613.9,652.26,738.25,340.8,Prague - Michle,50.04287,14.45982,"CZK 21,800",Prefab concrete,,,Good,,G,,,,,1.0,,1.0,,,,,,
"CZK 23,900","CZK 3,900",577288,2+kk,9/1/2022,60 m²,Fully furnished,6,1.0,183.97,1118.9,5.8,558.34,121.65,425.24,124.13,356.18,285.18,98.76,"Drahobejlova, Prague - Libeň",50.1060756,14.4904958,"CZK 40,000",Brick,,,Very good,Personal,C,Gas boiler,,,,1.0,1.0,1.0,,,,,,
"CZK 28,000","CZK 3,000",740574,2+kk,10/1/2022,50 m²,Fully furnished,2,1.0,181.84,271.59,65.24,146.03,134.72,180.18,306.17,594.3,353.1,492.87,Prague - Holešovice,50.09897,14.42431,"CZK 28,000",Brick,,,New-build,,G,,,,,,,,,,,,,
"CZK 13,000","CZK 4,000",620377,Studio,9/19/2022,41 m²,Fully furnished,3,1.0,127.28,1286.8,312.92,1287.21,289.42,983.87,1023.94,975.2,1498.78,451.0,Prague - Kobylisy,50.133324,14.455523,"CZK 30,000",Brick,,Luxurious,Very good,Personal,C,Distance,,,,,,,,,,,,
"CZK 14,700","CZK 3,200",740571,Small studio,10/1/2022,32 m²,Fully furnished,1,1.0,328.12,739.27,195.06,805.46,159.43,791.04,175.31,209.92,465.91,327.95,Prague - Michle,50.04707,14.46314,"CZK 16,000",Prefab concrete,,,Very good,,G,,,,,,,,,1.0,1.0,,,
"CZK 25,000","CZK 3,000",740562,2+kk,10/1/2022,58 m²,Fully furnished,6,1.0,283.25,286.13,169.89,496.56,193.42,648.6,413.97,211.22,129.23,129.61,Prague - Libeň,50.1022,14.47913,"CZK 50,000",Brick,Up to 10 years,Luxurious,New-build,,C,,1.0,,,1.0,,1.0,1.0,,1.0,,,
"CZK 16,000","CZK 4,700",740511,3+1,9/25/2022,52 m²,Partly,4,,187.71,1372.34,239.06,527.73,181.16,245.87,535.74,309.71,818.79,304.9,Prague - Kobylisy,50.12587,14.44605,"CZK 30,000",Brick,30 - 50 years,Standard,Very good,,D,Central,,,,1.0,,1.0,,,,,,
"CZK 33,000","CZK 7,000",740559,3+1,9/15/2022,118 m²,Partly,1,1.0,139.01,947.65,193.13,470.75,14.48,400.4,324.19,313.11,370.57,241.75,Prague - Nové Město,50.06909,14.41501,"CZK 33,000",Brick,,,Very good,,G,,,,,,1.0,,,,,,,
"CZK 13,000","CZK 2,700",465739,Studio,9/12/2022,42 m²,Partly,1,,172.35,187.38,350.23,1804.46,175.39,507.94,576.02,216.66,4922.15,134.61,"Neumannova, Prague - Zbraslav",49.964282,14.3845102,"CZK 20,000",Low-energy,,,Very good,Personal,B,Other,,,,,1.0,,,,,,,
"CZK 19,000","CZK 3,200",740553,3+kk,9/15/2022,60 m²,Partly,1,,201.76,826.62,427.74,342.19,309.48,311.96,533.47,800.7,639.18,121.43,Prague - Prosek,50.11773,14.5037,"CZK 19,000",Brick,,,Very good,,A,,,,,1.0,1.0,1.0,,1.0,,,,
"CZK 21,150","CZK 7,050",734662,2+kk,10/29/2022,60 m²,Fully furnished,5,1.0,568.91,1141.31,325.05,1116.62,882.39,718.5,640.87,567.67,1401.93,151.61,"Zakšínská, Prague - Střížkov",50.1311536,14.493582,,,,,,,,,,,,,,,1.0,,,,,
"CZK 19,238","CZK 6,412",732117,2 bedroom,11/1/2022,37 m²,Fully furnished,9,1.0,255.2,724.57,83.91,563.08,180.49,649.38,230.57,184.27,375.6,146.05,"Horáčkova, Prague - Krč",50.046653,14.4354901,,,,,,,,,,,,,,,,,,,,
"CZK 39,000","CZK 13,000",728062,2 bedroom,10/8/2022,92 m²,Fully furnished,7,1.0,73.01,281.28,58.33,478.54,20.37,379.07,102.37,138.49,668.56,481.36,"Francouzská, Prague - Vinohrady",50.0739894,14.440101,,,,,,,,,,,1.0,,1.0,,,,,,,
"CZK 22,493","CZK 7,497",732113,Studio,11/1/2022,30 m²,Fully furnished,3,1.0,258.66,685.78,233.92,407.82,154.16,415.37,547.3,506.41,132.73,464.34,"V Háji, Prague - Holešovice",50.1013638,14.4546402,,,,,,,,,,,,,,,1.0,,,,,
"CZK 33,750","CZK 11,250",726019,2+kk,9/18/2022,75 m²,Fully furnished,6,1.0,163.79,319.88,110.55,226.38,103.86,407.78,227.16,243.22,785.75,360.1,"Na Zbořenci, Prague - Nové Město",50.0769346,14.4169603,,,,,,,,,,,1.0,,1.0,,,,,,,
"CZK 32,925","CZK 10,975",728156,2+kk,11/2/2022,50 m²,Fully furnished,3,1.0,75.01,890.63,40.68,622.44,47.2,145.83,371.43,242.4,512.42,352.71,"Kubelíkova, Prague - Žižkov",50.0815843,14.4461973,,,,,,,,,,,,,,,,,,,,
"CZK 37,620","CZK 12,540",728258,2 bedroom,10/1/2022,54 m²,Fully furnished,7,1.0,379.66,564.73,5.21,191.31,38.84,242.1,65.9,705.75,343.76,422.75,"Michalská, Prague - Staré Město",50.0846396,14.4202484,,,,,,,,,,,,,,,,,,,,
"CZK 22,500","CZK 7,500",728694,2 bedroom,10/4/2022,53 m²,Fully furnished,9,1.0,125.93,351.52,458.39,239.89,349.44,469.18,335.68,124.41,1424.09,330.78,"Arabská, Prague - Vokovice",50.0992269,14.3632307,,,,,,,,,,,,,,,,,,,,
"CZK 33,675","CZK 11,225",731240,1 bedroom,10/22/2022,30 m²,Fully furnished,2,1.0,22.29,481.37,107.82,95.32,6.34,158.39,351.4,425.94,380.79,468.94,"Legerova, Prague - Vinohrady",50.0749602,14.4305105,,,,,,,,,,,,,,,,,,,,
"CZK 19,500","CZK 2,072",740546,Studio,9/15/2022,38 m²,Partly,1,1.0,170.33,699.26,223.59,204.25,213.73,205.22,415.63,706.65,480.94,37.51,Prague - Libeň,50.1051,14.47217,"CZK 39,000",Low-energy,,,New-build,,B,,1.0,,1.0,1.0,,,,1.0,,,,
"CZK 14,950","CZK 3,900",374295,2 bedroom,10/1/2022,70 m²,Fully furnished,1,,245.31,666.9,85.0,728.73,113.87,740.86,235.39,270.0,355.85,255.03,"Na úlehli, Prague - Michle",50.0464847,14.4619804,"CZK 17,950",Brick,Over 50 years,Luxurious,Very good,Personal,,,,Complete,,,,,,,,,,
"CZK 13,000","CZK 4,000",52943,Studio,9/9/2022,38 m²,Partly,6,1.0,243.12,1089.02,211.4,1186.05,550.39,1068.49,756.81,608.69,863.55,546.53,"Boloňská, Prague - Horní Měcholupy",50.0485760252,14.5593953133,"CZK 20,000",Brick,,,,Personal,C,Distance,,,,1.0,,,,,,,,
"CZK 28,000","CZK 5,800",549924,3+1,10/1/2022,80 m²,Fully furnished,3,,217.06,836.0,532.68,1632.55,390.74,731.29,193.67,639.92,883.9,714.81,"Nová Šárka, Prague - Liboc",50.092312,14.3189191,"CZK 35,000",Brick,,Luxurious,Very good,Cooperative,,Distance,,Interior,,1.0,1.0,1.0,1.0,,,,,
"CZK 22,500","CZK 4,400",639908,2+kk,9/15/2022,66 m²,Fully furnished,1,1.0,305.45,562.99,146.11,649.78,64.43,97.07,133.89,639.43,619.29,537.87,"Radimova, Prague - Břevnov",50.087756,14.366929,"CZK 30,000",Brick,Up to 10 years,Luxurious,New-build,Personal,,Central,1.0,,,,1.0,1.0,1.0,,,,,
"CZK 40,000","CZK 10,000",732699,2+kk,9/6/2022,53 m²,Fully furnished,1,1.0,3.57,190.08,21.88,46.72,0.16,49.7,126.81,307.26,210.27,260.67,Prague - Staré Město,50.09081,14.42708,"CZK 40,000",Brick,,,New-build,,E,,1.0,,,,,,,,,,,
"CZK 16,000","CZK 3,000",736119,2+kk,10/1/2022,70 m²,Fully furnished,1,,49.97,4883.86,2158.03,6112.9,2560.28,5549.15,2371.8,2363.9,3226.12,2297.08,Prague - Radotín,49.99739,14.32149,"CZK 40,000",Other,,,Very good,,G,,,,,,,1.0,,,,,,
"CZK 14,000","CZK 4,000",736226,Studio,10/1/2022,36 m²,Partly,3,,192.53,456.82,119.89,338.08,19.64,343.32,376.45,304.56,471.23,84.5,Prague - Libeň,50.10628,14.47564,"CZK 36,000",Brick,,,Good,Personal,G,,,,,1.0,,,,1.0,,,,
"CZK 17,000","CZK 3,500",690427,1 bedroom,9/16/2022,38 m²,Fully furnished,2,,132.58,644.27,190.48,1144.3,90.39,647.56,551.45,518.36,380.67,185.71,"Na Malovance, Prague - Střešovice",50.08606,14.38197,"CZK 20,000",Brick,Up to 10 years,Luxurious,Very good,Personal,F,Electric boiler,,Complete,,,,,,,,,,
"CZK 24,000","CZK 4,000",736042,3+kk,9/10/2022,62 m²,Fully furnished,4,1.0,253.63,329.93,373.63,769.17,428.21,409.5,848.42,442.52,722.76,450.26,Prague - Libeň,50.12057,14.46281,"CZK 30,000",Prefab concrete,,,Very good,,G,,,Complete,,1.0,,1.0,,,1.0,,,
"CZK 16,000","CZK 3,000",740484,Small studio,10/1/2022,20 m²,Partly,3,1.0,57.68,194.19,115.17,275.5,17.85,337.45,122.0,447.43,90.36,496.96,Prague - Josefov,50.08914,14.4189,"CZK 20,000",Brick,Over 50 years,Standard,Good,Personal,G,Electric boiler,,,,,1.0,,,1.0,,,,
"CZK 30,000","CZK 5,000",736030,3+kk,10/1/2022,90 m²,Partly,2,,40.51,481.23,461.74,460.6,465.29,485.27,612.79,332.41,325.03,201.17,Prague - Hostivař,50.05397,14.5223,"CZK 50,000",Brick,,,Very good,,D,,,Interior,,,,1.0,1.0,1.0,1.0,,,
"CZK 12,000","CZK 5,000",740482,1 bedroom,9/14/2022,49 m²,Unfurnished,4,1.0,143.0,801.15,446.25,446.97,145.7,205.07,249.71,625.3,711.29,125.21,Prague - Michle,50.04317,14.45583,"CZK 12,000",Brick,,,Very good,,G,,,,,,,,,,,,,
"CZK 23,000","CZK 5,600",740480,3+kk,9/15/2022,80 m²,Partly,1,1.0,205.17,1431.96,107.24,1002.38,176.31,562.56,297.68,743.39,372.21,161.25,Prague - Libeň,50.11285,14.47322,"CZK 23,000",Brick,,,Very good,,G,,1.0,,1.0,1.0,,1.0,1.0,,,,,
"CZK 15,000","CZK 1,000",156828,2+kk,9/15/2022,55 m²,Partly,2,1.0,84.37,456.69,100.05,159.78,82.88,240.73,521.73,209.38,806.54,292.6,"Baranova, Prague - Žižkov",50.0780634,14.4580267,"CZK 20,000",Brick,,,Very good,Personal,,Gas boiler,,,,,,,,,,,,
"CZK 15,000",CZK 420,736023,2+kk,9/9/2022,49 m²,Partly,5,,163.42,847.28,118.09,483.24,135.66,416.36,558.56,207.29,152.72,246.93,Prague - Žižkov,50.09141,14.48205,"CZK 45,000",Brick,,,Very good,,G,,,,,1.0,,,,,,,,
"CZK 22,000","CZK 4,000",678085,2+kk,11/1/2022,52 m²,Fully furnished,4,1.0,227.47,680.0,142.32,445.4,167.64,463.17,273.62,177.76,465.87,258.34,"Brunclíkova, Prague - Břevnov",50.08474,14.3458,"CZK 40,000",Prefab concrete,,,Very good,Cooperative,G,,,,,1.0,,,,,1.0,,,
"CZK 16,500","CZK 4,000",740473,2+kk,11/1/2022,57 m²,Fully furnished,1,,123.93,1019.24,125.91,504.12,326.9,146.6,363.86,919.31,224.05,242.87,Prague - Libeň,50.11009,14.47243,"CZK 20,500",Brick,,,Very good,,G,,,,,1.0,,,,,,,,
"CZK 22,000","CZK 5,000",736019,3+kk,9/9/2022,74 m²,Fully furnished,2,1.0,245.44,403.68,330.78,345.27,247.31,1530.22,191.23,75.47,974.63,78.1,Prague - Záběhlice,50.04935,14.48577,"CZK 40,000",Brick,,,Good,,G,,,,,,,,,,1.0,,,
"CZK 13,500","CZK 3,500",740469,1 bedroom,10/1/2022,41 m²,Partly,,,161.41,565.52,16.45,384.54,60.84,501.52,281.23,483.75,176.8,229.04,Prague - Vysočany,50.11019,14.50659,"CZK 23,000",Brick,,,Good,,G,,,,,,,,,1.0,,,,
"CZK 18,000",CZK 0,740467,2+kk,10/1/2022,64 m²,Partly,10,1.0,125.27,608.4,353.81,654.19,277.24,1424.43,205.16,1005.93,1240.37,177.61,Prague - Záběhlice,50.04349,14.49147,"CZK 20,000",Low-energy,,,New-build,Personal,B,,1.0,,1.0,1.0,,1.0,1.0,,,,,
"CZK 15,500","CZK 3,000",594828,2+kk,9/1/2021,52 m²,Partly,2,1.0,161.22,299.47,270.64,408.85,220.63,272.39,717.91,834.32,924.82,108.71,"Oty Bubeníčka, Prague - Uhříněves",50.029536,14.596783,"CZK 30,000",Brick,,,New-build,Personal,B,,1.0,,,,1.0,,,,,,,
"CZK 16,500","CZK 4,500",740464,2 bedroom,10/1/2022,54 m²,Unfurnished,3,,111.23,465.3,113.94,178.54,263.55,196.31,380.23,193.11,754.72,132.65,Prague - Břevnov,50.08759,14.34344,"CZK 20,000",Prefab concrete,,,Good,,G,,,,,,,,,,,,,
"CZK 20,000","CZK 2,600",736011,2 bedroom,10/1/2022,64 m²,Partly,3,1.0,206.62,276.52,187.01,644.85,0.07,440.71,289.07,280.35,505.58,292.11,Prague - Vinohrady,50.07428,14.44509,"CZK 30,000",Brick,,Standard,Very good,,G,,,,,1.0,,,,,,,,
"CZK 24,500","CZK 3,900",647743,2+kk,9/17/2022,52 m²,Fully furnished,6,1.0,321.74,272.42,32.18,227.85,42.93,69.06,244.65,812.35,163.33,572.38,"Opletalova, Prague - Nové Město",50.0814214,14.4299039,"CZK 28,400",Brick,,Luxurious,Very good,Personal,D,Central,,Complete,1.0,,,1.0,,,,,,
"CZK 17,000","CZK 3,500",736148,Studio,9/15/2022,38 m²,Partly,4,1.0,201.7,1308.66,142.89,1129.36,468.82,688.29,322.41,221.9,1021.18,245.67,Prague - Strašnice,50.07153,14.50459,"CZK 25,000",Other,,,New-build,,C,,1.0,,,1.0,1.0,,,,,,,
"CZK 20,000","CZK 3,000",740439,2 bedroom,9/14/2022,65 m²,Partly,1,,231.27,296.75,93.23,428.92,217.06,327.63,270.75,85.06,919.1,62.98,Prague - Krč,50.04259,14.44493,"CZK 30,000",Prefab concrete,,,Very good,,G,,,,,1.0,,,,1.0,,,,
"CZK 13,000","CZK 3,800",584694,2+kk,9/12/2022,30 m²,Fully furnished,1,,534.78,698.52,674.15,680.07,296.88,700.33,332.07,390.21,648.6,431.05,"Hostavická, Prague - Hloubětín",50.100688,14.537479,"CZK 25,000",Brick,,,Very good,Personal,C,,,,,,,,,,,,,
"CZK 17,500","CZK 1,500",740234,2 bedroom,9/13/2022,37 m²,Fully furnished,,,191.74,111.95,150.32,207.15,15.1,294.37,206.69,284.17,269.63,502.6,Prague - Smíchov,50.07473,14.4061,"CZK 35,000",Brick,,,Very good,,G,,,,,,,,,,,,,
"CZK 23,000","CZK 2,000",735452,2+kk,10/1/2022,52 m²,Partly,1,,45.71,924.4,146.26,646.66,8.7,711.02,847.67,166.72,774.55,203.9,Prague - Smíchov,50.06215,14.38988,"CZK 46,000",Brick,,,Very good,,G,,,,1.0,,,,,,,,,
"CZK 21,000","CZK 5,000",740438,2+kk,10/1/2022,67 m²,Unfurnished,1,1.0,492.65,1037.96,224.7,801.53,450.96,628.46,203.06,796.15,1537.15,306.46,Prague - Jinonice,50.05552,14.35149,"CZK 42,000",Brick,,,New-build,,C,,1.0,,,1.0,1.0,1.0,1.0,1.0,,,,
"CZK 36,000","CZK 4,500",740431,4+kk,10/3/2022,109 m²,Partly,1,1.0,150.09,1120.83,433.99,714.21,133.5,603.19,191.77,247.69,699.51,394.36,Prague - Prosek,50.11612,14.49523,"CZK 72,000",Brick,,,Very good,,C,,,,,1.0,1.0,1.0,1.0,1.0,,,,
"CZK 20,000","CZK 6,000",735997,2+kk,10/1/2022,45 m²,Fully furnished,4,1.0,242.11,743.55,234.62,558.09,149.5,127.18,136.73,332.66,432.82,258.55,Prague - Břevnov,50.08486,14.37363,"CZK 25,000",Brick,,,Very good,Personal,G,Central,,Complete,1.0,1.0,,,,,,,,
"CZK 13,500",CZK 900,735994,Studio,10/13/2022,36 m²,Fully furnished,1,1.0,299.61,830.42,217.57,420.67,239.38,349.77,271.45,168.63,1519.77,192.3,Prague - Stodůlky,50.04886,14.35063,"CZK 15,000",Prefab concrete,,,Very good,,B,,,,,,,,,,,,,
"CZK 17,000",CZK 750,528652,1 bedroom,10/1/2021,46 m²,Partly,1,,122.32,826.95,490.66,525.72,59.97,508.04,509.27,554.18,1182.14,310.03,"Polní, Prague - Břevnov",50.0874176,14.338491,"CZK 34,000",Brick,,,Very good,Personal,,,,,,,,,,,,,,
"CZK 9,500","CZK 2,500",660715,Studio,11/1/2022,24 m²,Partly,15,1.0,255.14,469.14,256.58,281.03,241.04,441.16,162.89,270.73,894.98,198.02,"Kyselova, Prague - Kobylisy",50.12683,14.46463,"CZK 12,000",Prefab concrete,,,Very good,Personal,D,Central,,,,,,,,,,,,
"CZK 25,000","CZK 4,000",725938,2+kk,9/1/2022,70 m²,Partly,3,,140.77,418.51,1.12,206.71,25.27,177.85,464.47,473.18,267.6,390.96,Prague - Karlín,50.0919,14.44126,"CZK 50,000",Brick,,,Very good,,C,,,,,,,,,,,,,
"CZK 19,900","CZK 2,240",740395,2+kk,9/14/2022,51 m²,Unfurnished,4,1.0,211.87,856.1,400.39,430.06,355.03,514.59,322.77,1589.94,536.58,163.37,"K Metru, Prague - Třebonice",50.057100029501,14.290155367891,"CZK 34,997",Low-energy,,,New-build,,B,,,,,,1.0,,1.0,,,,,
"CZK 18,500","CZK 6,481",735779,2 bedroom,9/9/2022,56 m²,Partly,2,1.0,41.98,356.63,4.86,100.0,232.49,376.19,313.21,397.14,644.72,464.72,Prague - Vršovice,50.06972,14.47084,"CZK 30,000",Brick,,,Very good,,D,,,,,,1.0,,,,1.0,,,
"CZK 9,000","CZK 5,000",740394,Small studio,10/1/2022,25 m²,Partly,3,,422.68,799.39,296.43,615.61,482.52,539.81,509.78,623.31,378.97,435.56,Prague - Košíře,50.06671,14.369,"CZK 14,000",Brick,,,Very good,,D,,,,,,,,,,,,,
"CZK 18,852","CZK 5,148",497125,2+kk,1/24/2021,55 m²,Fully furnished,1,1.0,289.31,1030.71,185.29,875.56,580.15,1000.2,374.44,2240.15,1249.45,201.42,"Sazovická, Prague - Zličín",50.0570157,14.2807456,"CZK 24,000",Brick,Up to 10 years,,New-build,Personal,,Central,1.0,,,,1.0,1.0,,,,,,
"CZK 13,500","CZK 4,500",740371,2+kk,11/1/2022,46 m²,Partly,3,1.0,271.13,822.14,255.41,3242.16,336.23,607.79,545.94,2194.8,1617.83,715.97,Prague - Písnice,50.00343,14.46142,"CZK 25,000",Prefab concrete,,,Very good,,G,,,,,1.0,,,,,,,,
"CZK 20,900","CZK 5,000",740339,3+1,12/1/2022,85 m²,Partly,6,1.0,295.99,1387.26,288.89,1322.47,196.37,544.47,184.59,421.81,481.75,131.87,Prague - Střížkov,50.12565,14.48266,"CZK 25,000",Prefab concrete,,,Good,,G,,,,,,,,,1.0,1.0,,,
"CZK 24,000","CZK 5,000",389695,3+1,10/1/2022,103 m²,Partly,4,1.0,213.95,640.16,267.15,268.06,207.81,187.11,185.54,362.22,1395.5,129.39,"Nušlova, Prague - Stodůlky",50.0529616,14.3490188,"CZK 29,000",Prefab concrete,,,,Personal,C,Central,,,,,1.0,,,,1.0,,,
"CZK 28,900","CZK 6,900",597277,2+kk,10/1/2022,163 m²,Fully furnished,1,1.0,204.78,220.55,344.6,739.69,326.74,248.67,634.81,422.18,334.29,77.67,"Olšanská, Prague - Žižkov",50.083151,14.46693,"CZK 40,000",Brick,Up to 10 years,Luxurious,Very good,Personal,G,Central,,,1.0,,,,1.0,,,,,
"CZK 17,000","CZK 3,750",740374,2 bedroom,9/14/2022,63 m²,Partly,3,1.0,1.56,745.18,82.04,521.84,185.39,520.18,334.78,202.28,657.67,201.61,Prague - Vršovice,50.07251,14.46021,"CZK 20,000",Brick,,,Good,,G,,,,,1.0,,,,,1.0,,,
"CZK 17,500","CZK 3,500",554687,2+kk,10/15/2022,40 m²,Fully furnished,2,1.0,36.05,792.81,20.0,597.08,172.08,638.36,366.32,329.81,486.26,346.96,"Dvacátého osmého pluku, Prague - Vršovice",50.0707338,14.4627954,"CZK 25,000",Brick,Up to 10 years,Luxurious,New-build,Personal,,Distance,1.0,,1.0,1.0,,,,,,,,
"CZK 24,900","CZK 5,000",732234,3+kk,9/15/2022,100 m²,Fully furnished,2,,407.13,1424.18,250.92,1362.56,410.67,783.94,319.99,524.97,364.23,289.83,Prague - Střížkov,50.12272,14.48252,"CZK 50,000",Brick,Up to 10 years,Standard,Very good,Personal,C,Central,,Complete,,,1.0,,1.0,,,,,
"CZK 18,500","CZK 3,500",735762,Studio,11/1/2022,34 m²,Partly,4,1.0,83.61,286.87,307.67,548.93,128.4,923.2,336.01,528.94,943.22,725.47,Prague - Michle,50.05357,14.45175,"CZK 18,500",Low-energy,,,New-build,,A,,1.0,,,1.0,1.0,,1.0,,,,,
"CZK 17,250","CZK 5,750",740359,3+1,10/26/2022,90 m²,Fully furnished,5,1.0,82.8,397.93,96.94,404.98,135.48,353.78,131.46,217.55,654.74,661.34,"Blanická, Prague - Vinohrady",50.0746503,14.439294,,,,,,,,,,,,,,,,,,,,
"CZK 14,956","CZK 2,816",735760,2+kk,9/9/2022,43 m²,Partly,4,1.0,198.73,733.52,43.19,243.78,60.02,145.43,363.65,843.29,568.9,953.01,Prague - Holešovice,50.10223,14.43472,"CZK 40,000",Brick,,,Good,,C,,,,,,,,,1.0,,,,
"CZK 25,000","CZK 1,500",726920,2+kk,10/1/2022,57 m²,Fully furnished,4,1.0,64.45,541.35,120.34,386.58,181.4,454.53,411.15,252.51,657.82,401.25,Prague - Vinohrady,50.07509,14.45867,"CZK 30,000",Brick,,,New-build,,C,,1.0,,1.0,1.0,,,1.0,,,,,
"CZK 12,500","CZK 3,000",740343,1 bedroom,9/14/2022,40 m²,Unfurnished,9,1.0,103.12,503.23,120.27,247.07,173.67,235.12,513.41,287.53,295.22,324.07,Prague - Háje,50.02997,14.52903,"CZK 12,500",Prefab concrete,,,Very good,,G,,,,,1.0,,,,,1.0,,,
"CZK 18,500","CZK 3,800",740337,2 bedroom,10/1/2022,56 m²,Fully furnished,3,,76.12,1347.56,668.51,1260.1,121.31,1301.67,1478.26,1459.58,1446.21,187.52,Prague - Hlubočepy,50.03134,14.39228,"CZK 35,000",Brick,,,Very good,,E,,,,,,1.0,,,1.0,,,,
"CZK 24,900","CZK 4,000",153530,2 bedroom,10/10/2022,85 m²,Fully furnished,2,,245.33,611.13,107.57,188.33,75.28,314.53,191.31,437.46,425.83,374.5,"Řeznická, Prague - Nové Město",50.0779312,14.4236575,"CZK 28,900",Brick,,,Very good,Personal,C,Gas boiler,,,,,,,,,,,,
"CZK 22,000","CZK 2,000",732494,4+1,9/19/2022,109 m²,Unfurnished,4,,48.5,696.65,44.54,182.75,130.46,200.48,212.5,566.1,277.8,240.64,Prague - Libeň,50.10621,14.47257,"CZK 22,000",Brick,,,Good,,G,,,,1.0,,,1.0,,,,,,
"CZK 18,000","CZK 4,000",446124,2+kk,9/1/2022,49 m²,Unfurnished,2,1.0,157.46,257.4,165.89,178.58,118.89,40.15,630.43,746.42,827.82,72.27,"Soukalova, Prague - Modřany",50.0058372,14.4149292,"CZK 18,000",Brick,Up to 10 years,Luxurious,,Personal,B,Distance,1.0,,,1.0,1.0,1.0,1.0,,,,,
"CZK 13,950","CZK 3,000",611835,Studio,10/17/2022,32 m²,Fully furnished,11,1.0,115.98,538.68,324.1,627.99,88.61,929.68,411.74,435.65,124.79,161.54,"Topolová, Prague - Záběhlice",50.056364,14.508174,"CZK 24,999",Prefab concrete,Up to 10 years,Luxurious,Very good,Personal,C,Central,,Complete,,,,,,,,,,
"CZK 41,250","CZK 13,750",719999,2+kk,10/16/2022,55 m²,Fully furnished,1,1.0,76.78,951.56,41.94,296.91,109.07,229.41,371.34,325.8,517.82,388.28,"Rečkova, Prague - Žižkov",50.0904334,14.4705869,,,,,,,,,,,,,,,,,,,,
"CZK 73,500","CZK 24,500",732122,4+kk,11/1/2022,150 m²,Fully furnished,7,1.0,151.96,732.59,114.81,122.42,123.15,23.69,324.18,773.09,503.18,376.18,"Jungmannova, Prague - Nové Město",50.0805317,14.4221981,,,,,,,,,,,1.0,,1.0,,,,,,,
"CZK 20,250","CZK 6,750",731156,2+kk,10/24/2022,49 m²,Fully furnished,2,1.0,84.02,732.97,86.86,659.07,276.51,744.0,408.19,306.62,634.43,198.98,"Na Míčánkách, Prague - Vršovice",50.0713305,14.4638794,,,,,,,,,,,,,,,,,,,,
"CZK 25,500","CZK 8,500",727015,1 bedroom,9/21/2022,35 m²,Fully furnished,3,1.0,97.26,259.91,105.72,291.36,79.07,194.41,340.41,525.24,106.28,298.87,"Koněvova, Prague - Žižkov",50.088447,14.458108,,,,,,,,,,,,,,,1.0,,,,,
"CZK 37,500","CZK 12,500",730647,Studio,9/26/2022,40 m²,Fully furnished,2,,87.49,353.69,89.13,198.59,58.79,391.02,424.91,274.28,259.74,601.22,"Zborovská, Prague - Smíchov",50.0730353,14.4083714,,,,,,,,,,,1.0,,1.0,,,,,,,
"CZK 52,500","CZK 17,500",731817,2+kk,9/18/2022,80 m²,Fully furnished,3,1.0,281.86,547.59,69.97,211.73,9.84,221.9,245.36,614.41,367.39,520.5,"Ve Smečkách, Prague - Nové Město",50.0795975,14.4273504,,,,,,,,,,,,,,,,,,,,
"CZK 51,840","CZK 17,280",728059,3+1,9/30/2022,85 m²,Fully furnished,2,1.0,278.51,602.82,173.91,301.83,0.93,288.1,225.94,440.55,233.82,416.1,"Bílkova, Prague - Staré Město",50.0912254,14.4209612,,,,,,,,,,,,,,,,,,,,
"CZK 31,425","CZK 10,475",729524,Studio,9/27/2022,30 m²,Fully furnished,3,1.0,210.86,390.29,319.5,985.86,301.65,338.01,858.33,290.45,385.77,539.9,"Strakonická, Prague - Smíchov",50.0643299,14.4102127,,,,,,,,,,,,,,,,,,,,
"CZK 48,645","CZK 16,215",732720,3+1,9/18/2022,55 m²,Fully furnished,2,,158.42,248.82,154.82,246.13,112.68,264.3,390.21,408.3,154.53,114.55,"Řásnovka, Prague - Staré Město",50.0918754,14.4250902,,,,,,,,,,,,,,,,,,,,
"CZK 24,728","CZK 8,242",731157,Studio,10/24/2022,30 m²,Fully furnished,3,1.0,99.26,361.63,490.78,556.87,427.65,345.52,452.0,519.02,404.9,293.38,"Olšanská, Prague - Žižkov",50.0830187,14.4654473,,,,,,,,,,,,,,,1.0,,,,,
"CZK 25,000","CZK 1,500",273648,2 bedroom,12/15/2022,60 m²,Partly,1,1.0,129.22,395.25,20.23,54.94,42.64,72.26,160.9,178.8,247.73,267.17,"V kolkovně, Prague - Staré Město",50.089521,14.4222709,"CZK 30,000",Brick,,,Very good,Personal,,Gas boiler,,Exterior,,1.0,,,,,,,,
"CZK 16,500","CZK 1,007",710208,1 bedroom,10/1/2022,50 m²,Fully furnished,3,1.0,112.71,414.13,348.89,141.65,130.37,1184.61,250.27,660.28,512.62,330.24,"Nuselská, Prague - Michle",50.05693,14.45058,"CZK 33,000",Brick,,,Good,Personal,G,Electric boiler,,,,1.0,,,,,,,,
"CZK 14,000","CZK 1,000",740315,Studio,10/1/2022,32 m²,Partly,2,1.0,28.26,769.36,14.05,474.48,49.52,15.93,729.5,225.87,172.18,144.93,Prague - Vinohrady,50.07791,14.47677,"CZK 17,000",Brick,,,Good,,G,,,,,,,,,,,,,
"CZK 17,000","CZK 1,000",735637,Small studio,9/20/2022,27 m²,Fully furnished,-1,,181.87,1408.66,55.3,979.08,153.0,539.26,274.37,720.09,348.91,137.94,Prague - Libeň,50.1132,14.47331,"CZK 25,000",Brick,Over 50 years,Standard,Very good,,D,Electric boiler,,Complete,1.0,1.0,,,,1.0,,,,
"CZK 19,900","CZK 4,900",740307,2+kk,10/15/2022,47 m²,Fully furnished,2,1.0,91.54,820.46,1038.67,2473.66,459.96,709.18,1822.92,652.03,467.42,170.28,Prague - Ďáblice,50.14495,14.47491,"CZK 24,800",Low-energy,,,New-build,,G,,1.0,,,1.0,1.0,1.0,1.0,,,,,
"CZK 25,000","CZK 1,000",220267,4+kk,10/1/2022,103 m²,Unfurnished,3,,49.94,361.1,51.58,161.04,54.31,377.01,432.32,281.68,267.14,677.91,"Zborovská, Prague - Smíchov",50.0728017,14.4080496,CZK 0,Brick,,,,Personal,E,Electric boiler,,,,,1.0,,,,,,,
"CZK 19,110","CZK 6,370",734261,2+kk,11/6/2022,35 m²,Fully furnished,-1,1.0,36.05,792.81,20.0,597.08,172.08,638.36,366.32,329.81,486.26,346.96,"Dvacátého osmého pluku, Prague - Vršovice",50.0707338,14.4627954,,,,,,,,,,,1.0,,1.0,,,,,,,
"CZK 81,750","CZK 27,250",735517,3+kk,11/7/2022,110 m²,Fully furnished,6,1.0,30.08,409.78,41.21,139.22,4.79,323.92,155.78,264.84,623.64,381.72,"Myslíkova, Prague - Nové Město",50.0781479,14.4179311,,,,,,,,,,,,,,,,,,,,
"CZK 21,675","CZK 7,225",740303,2+kk,9/22/2022,37 m²,Fully furnished,2,,225.17,389.32,85.52,291.11,21.43,182.66,399.09,407.81,264.34,338.91,"Prvního pluku, Prague - Karlín",50.0921776,14.4422993,,,,,,,,,,,,,,,,,,,,
"CZK 37,350","CZK 12,450",740301,3+1,10/1/2022,85 m²,Fully furnished,1,,216.39,493.32,88.49,464.51,94.0,302.83,170.63,436.86,676.2,502.87,"Legerova, Prague - Nové Město",50.0712192,14.4310182,,,,,,,,,,,,,,,,,,,,
"CZK 47,340","CZK 15,780",717682,2+kk,9/18/2022,69 m²,Fully furnished,6,1.0,104.56,349.59,143.75,145.93,108.83,150.53,431.56,393.96,289.53,329.01,"Na Maninách, Prague - Holešovice",50.1025661,14.4522431,,,,,,,,,,,1.0,,1.0,,,,,,,
"CZK 27,195","CZK 9,065",730051,2+kk,10/15/2022,50 m²,Fully furnished,1,,255.31,501.77,459.42,715.23,218.51,523.94,431.76,479.05,374.11,261.13,"Na Balkáně, Prague - Žižkov",50.095259,14.4941569,,,,,,,,,,,1.0,,1.0,,,,,,,
"CZK 46,530","CZK 15,510",726063,2 bedroom,9/30/2022,48 m²,Fully furnished,2,,158.42,248.82,154.82,246.13,112.68,264.3,390.21,408.3,154.53,114.55,"Řásnovka, Prague - Staré Město",50.0918754,14.4250902,,,,,,,,,,,,,,,,,,,,
"CZK 37,125","CZK 12,375",726070,2 bedroom,10/17/2022,90 m²,Fully furnished,2,1.0,73.01,281.28,58.33,478.54,20.37,379.07,102.37,138.49,668.56,481.36,"Francouzská, Prague - Vinohrady",50.0739894,14.440101,,,,,,,,,,,,,,,,,,,,
"CZK 42,075","CZK 14,025",726062,2 bedroom,10/27/2022,80 m²,Fully furnished,6,1.0,73.01,281.28,58.33,478.54,20.37,379.07,102.37,138.49,668.56,481.36,"Francouzská, Prague - Vinohrady",50.0739894,14.440101,,,,,,,,,,,,,,,,,,,,
"CZK 63,413","CZK 21,137",732321,3+kk,10/29/2022,62 m²,Fully furnished,3,1.0,2.22,191.43,20.53,48.07,1.19,48.35,128.16,305.9,208.92,259.31,"Dlouhá, Prague - Staré Město",50.0907943,14.427063,,,,,,,,,,,,,,,,,,,,
"CZK 39,600","CZK 13,200",717648,2+kk,10/28/2022,46 m²,Fully furnished,2,,249.05,258.88,108.69,237.41,65.07,536.83,294.74,273.73,806.33,231.2,"Míšeňská, Prague - Malá Strana",50.0876118,14.4080467,,,,,,,,,,,,,,,,,,,,
"CZK 74,813","CZK 24,937",740299,4+1,11/13/2022,136 m²,Fully furnished,3,1.0,305.35,603.07,123.44,366.02,52.59,406.0,368.79,628.46,396.1,92.23,"Betlémská, Prague - Staré Město",50.0837893,14.416317,,,,,,,,,,,,,,,,,,,,
"CZK 56,475","CZK 18,825",723104,3+kk,9/18/2022,67 m²,Fully furnished,2,1.0,110.1,273.82,156.66,129.22,76.56,142.67,300.13,496.4,282.11,367.31,"Dlážděná, Prague - Nové Město",50.0865843,14.4323212,,,,,,,,,,,1.0,,1.0,,,,,,,
"CZK 32,250","CZK 10,750",740298,2 bedroom,9/18/2022,89 m²,Fully furnished,3,1.0,82.8,397.93,96.94,404.98,135.48,353.78,131.46,217.55,654.74,661.34,"Blanická, Prague - Vinohrady",50.0746503,14.439294,,,,,,,,,,,,,,,,,,,,
"CZK 26,070","CZK 8,690",740296,2+kk,10/24/2022,46 m²,Fully furnished,1,1.0,398.77,1101.82,147.31,665.45,292.55,528.58,163.83,1077.37,579.1,95.11,"Na Střelnici, Prague - Karlín",50.0934489,14.4603259,,,,,,,,,,,,,,,,,,,,
"CZK 31,050","CZK 10,350",730431,3+1,11/1/2022,111 m²,Fully furnished,1,,208.61,131.46,936.81,2564.81,336.74,613.32,243.84,2102.93,1889.94,338.05,"K Zámku, Prague - Dolní Počernice",50.0890765,14.5799076,,,,,,,,,,,1.0,,1.0,,,,,,,
"CZK 48,128","CZK 16,042",733049,3+kk,10/10/2022,78 m²,Fully furnished,5,1.0,122.69,292.83,150.02,222.27,31.53,246.25,406.08,512.95,283.22,254.06,"Křižíkova a, Prague - Karlín",50.0928722,14.4500782,,,,,,,,,,,1.0,,1.0,,1.0,,,,,
"CZK 56,250","CZK 18,750",730578,2+kk,10/19/2022,47 m²,Fully furnished,3,1.0,145.3,409.63,254.35,292.12,59.28,309.45,136.5,419.43,177.03,511.6,"Elišky Krásnohorské, Prague - Josefov",50.0906304,14.4198248,,,,,,,,,,,,,,,,,,,,
"CZK 37,500","CZK 12,500",740295,2+kk,11/11/2022,60 m²,Fully furnished,4,1.0,239.73,541.75,45.52,270.79,35.61,285.18,465.63,625.46,639.52,581.38,"Mečislavova, Prague - Nusle",50.0633237,14.4440058,,,,,,,,,,,,,,,,,,,,
"CZK 29,925","CZK 9,975",731228,Studio,9/19/2022,30 m²,Fully furnished,2,1.0,210.86,390.29,319.5,985.86,301.65,338.01,858.33,290.45,385.77,539.9,"Strakonická, Prague - Smíchov",50.0643299,14.4102127,,,,,,,,,,,,,,,,,,,,
"CZK 36,750","CZK 12,250",719175,2 bedroom,9/21/2022,50 m²,Fully furnished,-1,1.0,210.86,382.06,250.08,989.18,169.53,744.75,811.66,1049.67,387.48,543.22,"Strakonická, Prague - Smíchov",50.0643299,14.4102127,,,,,,,,,,,,,,,,,,,,
"CZK 30,000","CZK 10,000",718922,Studio,10/11/2022,45 m²,Fully furnished,5,1.0,241.61,542.2,98.71,270.79,176.01,313.55,455.64,821.55,633.96,593.3,"Mečislavova, Prague - Nusle",50.0633237,14.4440058,,,,,,,,,,,,,,,,,,,,
"CZK 32,400","CZK 10,800",740293,2 bedroom,10/1/2022,65 m²,Fully furnished,5,1.0,163.79,319.88,110.55,226.38,103.86,407.78,227.16,243.22,785.75,360.1,"Na Zbořenci, Prague - Nové Město",50.0769346,14.4169603,,,,,,,,,,,,,,,,,,,,
"CZK 36,338","CZK 12,112",728972,5+kk,9/20/2022,180 m²,Fully furnished,1,,710.63,2420.81,2011.34,2281.37,826.06,2150.45,2487.2,2253.5,2584.79,783.97,"Ibišková, Prague - Křeslice",50.0183023,14.5625656,,,,,,,,,,,1.0,,1.0,,1.0,,,,,
"CZK 37,350","CZK 12,450",730539,2+kk,9/19/2022,68 m²,Fully furnished,2,1.0,170.48,421.6,257.32,426.75,52.86,339.7,54.65,63.39,473.33,754.41,"Balbínova, Prague - Vinohrady",50.0795659,14.4357789,,,,,,,,,,,,,,,,,,,,
"CZK 18,750","CZK 6,250",732114,Studio,11/1/2022,25 m²,Fully furnished,1,,272.71,301.68,85.68,246.48,43.26,206.77,19.97,254.25,110.99,588.48,"Štítného, Prague - Žižkov",50.0855201,14.4494539,,,,,,,,,,,,,,,,,,,,
"CZK 24,746","CZK 2,746",729276,2+kk,10/1/2022,67 m²,Fully furnished,3,1.0,111.04,906.67,54.66,823.1,19.22,367.11,296.48,265.97,89.92,140.7,Prague - Břevnov,50.08491,14.37892,"CZK 48,000",Brick,,,Very good,,G,,,,,,1.0,1.0,,,,,,
"CZK 10,000","CZK 3,000",740283,2 bedroom,9/14/2022,40 m²,Unfurnished,2,1.0,41.66,728.45,87.4,945.74,24.13,269.62,640.07,446.23,819.52,649.07,Prague - Smíchov,50.06138,14.40084,"CZK 10,000",Brick,,,Wrong,,G,,,,,,,,,,,,,
"CZK 18,000","CZK 6,000",470843,2+kk,10/1/2022,58 m²,Fully furnished,2,1.0,80.22,958.19,274.76,966.54,466.28,911.02,483.21,986.41,628.98,180.71,"K Netlukám, Prague - Uhříněves",50.0322565,14.6089774,"CZK 24,000",Brick,10 to 30 years,Standard,New-build,Personal,,Central,1.0,,,1.0,1.0,1.0,1.0,,,,,
"CZK 25,000","CZK 3,000",740274,2+kk,10/1/2022,50 m²,Fully furnished,3,,316.29,2255.72,674.36,1994.02,118.25,1093.54,1345.47,1784.1,804.06,967.69,Prague - Motol,50.06708,14.34391,"CZK 28,000",Other,,,Very good,,A,,,,,1.0,1.0,,1.0,,,,,
"CZK 19,000","CZK 5,000",733267,3+1,9/19/2022,66 m²,Partly,6,1.0,224.08,922.37,434.67,1592.85,284.95,264.63,705.34,1143.7,773.85,157.27,Prague - Horní Počernice,50.11099,14.6042,"CZK 38,000",Prefab concrete,,,Very good,Personal,C,,,,,1.0,,1.0,,,1.0,,,
"CZK 16,900","CZK 4,900",732166,Studio,10/1/2022,40 m²,Partly,1,1.0,431.98,1790.04,192.2,1091.3,358.27,456.8,743.28,258.45,328.61,778.19,Prague - Dejvice,50.11174,14.39087,"CZK 21,800",Brick,,,New-build,,B,,,,1.0,1.0,,1.0,1.0,,,,,
"CZK 25,000","CZK 6,000",740273,3+kk,9/14/2022,75 m²,Fully furnished,2,,306.51,1179.53,410.07,1895.18,122.8,1225.98,778.85,1362.88,1258.73,88.5,Prague - Kyje,50.11,14.56032,"CZK 62,000",Brick,,,Very good,,E,,,,,1.0,1.0,,1.0,,,,,
"CZK 20,000","CZK 4,000",735629,2+kk,10/1/2022,66 m²,Partly,5,1.0,214.43,454.85,301.64,222.66,263.56,95.28,727.66,874.15,307.27,377.88,Prague - Vysočany,50.11143,14.4972,"CZK 25,000",Other,,,Very good,,C,,,,,,1.0,1.0,,,,,,
"CZK 28,000","CZK 5,000",731753,3+kk,10/1/2022,62 m²,Partly,9,1.0,282.04,976.86,137.68,1624.39,519.38,742.9,629.66,1257.83,99.38,73.97,Prague - Krč,50.02579,14.4531,"CZK 40,000",Prefab concrete,30 - 50 years,Luxurious,New-build,Personal,B,Central,,Complete,,,,,,,1.0,,,
"CZK 18,000","CZK 5,500",740264,2+kk,9/13/2022,47 m²,Partly,1,1.0,47.78,188.22,36.83,126.53,117.75,271.26,35.21,165.37,353.58,279.19,Prague - Libeň,50.10235,14.47493,"CZK 23,500",Brick,,,Very good,,G,,,,,1.0,,,,,,,,
"CZK 16,000","CZK 4,500",740263,2+kk,9/13/2022,56 m²,Partly,2,1.0,508.94,939.25,148.17,918.31,746.83,665.98,438.81,535.34,1344.59,196.4,Prague - Střížkov,50.13048,14.49656,"CZK 30,000",Brick,10 to 30 years,Standard,Very good,Personal,G,Distance,,,,,,1.0,,,1.0,,,
"CZK 27,000","CZK 4,000",740240,3+kk,9/14/2022,84 m²,Fully furnished,3,1.0,231.77,294.75,152.66,568.98,331.54,570.64,401.09,115.12,542.99,114.84,Prague - Strašnice,50.07788,14.49567,"CZK 54,000",Low-energy,,,New-build,,B,,1.0,,,1.0,1.0,1.0,1.0,,,,,
"CZK 16,000","CZK 2,500",462082,1 bedroom,11/1/2022,36 m²,Fully furnished,5,1.0,86.51,317.7,82.53,284.41,118.01,123.98,100.56,208.31,473.02,258.41,"Lipanská, Prague - Žižkov",50.0843187,14.4541252,"CZK 16,000",Brick,Up to 10 years,Standard,Good,Personal,C,Gas boiler,,,,1.0,,,,1.0,,,,
"CZK 16,000","CZK 4,500",634083,2+kk,10/1/2022,65 m²,Unfurnished,2,,85.61,218.94,23.75,72.42,79.73,113.55,227.25,279.42,538.77,366.16,Prague - Smíchov,50.076804,14.404503,"CZK 21,000",Brick,Over 50 years,Standard,Very good,Personal,G,Central,,Interior,,,,,,,,,,
"CZK 20,500","CZK 4,500",152409,2+kk,11/1/2022,59 m²,Partly,3,,119.75,61.4,80.0,134.67,77.64,182.98,344.37,261.31,388.97,211.35,"Chrudimská, Prague - Vinohrady",50.0770799,14.462622,"CZK 41,000",Brick,10 to 30 years,,Very good,Personal,,Central,,,,,1.0,,,,,,,
"CZK 15,500","CZK 5,000",740226,2+kk,9/23/2022,52 m²,Unfurnished,2,1.0,154.03,279.67,351.1,1304.3,240.66,1139.24,651.51,877.71,920.96,282.13,Prague - Hlubočepy,50.02917,14.36234,"CZK 25,000",Low-energy,,,New-build,,G,,1.0,,,,1.0,,,,,,,
"CZK 18,000","CZK 3,500",740217,2+kk,10/1/2022,51 m²,Partly,3,,66.95,660.67,244.26,86.75,112.54,136.38,341.77,200.62,215.83,282.89,Prague - Vinohrady,50.07759,14.47252,"CZK 20,000",Brick,,,Very good,,G,,,,,,1.0,,,,,,,
"CZK 12,000","CZK 4,700",732311,Studio,9/4/2022,21 m²,Fully furnished,4,1.0,218.58,1120.37,177.35,538.81,22.86,0.18,49.51,432.88,106.29,197.71,Prague - Vyšehrad,50.06697,14.41656,"CZK 12,000",Brick,,,Very good,,G,,,,,,,,,,,,,
"CZK 27,750","CZK 4,050",735596,2+kk,9/8/2022,55 m²,Partly,4,1.0,255.26,443.02,204.3,366.36,123.82,505.56,447.22,390.7,376.15,681.6,Prague - Smíchov,50.07376,14.4094,"CZK 30,000",Brick,,,Very good,,G,,,,,,,,,,,,,
"CZK 21,900","CZK 6,500",288880,1 bedroom,9/16/2022,40 m²,Fully furnished,3,,155.43,635.73,116.88,416.91,211.27,239.55,65.19,711.04,125.56,503.16,"Umělecká, Prague - Holešovice",50.1022043,14.4276994,"CZK 30,000",Brick,,,,Personal,,,,,,,,,,,,,,
"CZK 17,500","CZK 3,000",604429,1 bedroom,9/15/2022,32 m²,Partly,4,,362.81,259.2,126.77,286.13,118.18,279.99,159.44,215.84,295.88,466.72,"Vlkova, Prague - Žižkov",50.083992,14.448523,"CZK 24,000",Brick,Up to 10 years,Standard,Very good,Personal,A,Gas boiler,,Complete,,,1.0,,,,,,,
"CZK 16,001","CZK 1,000",540339,2+kk,10/1/2022,44 m²,Unfurnished,1,,112.34,1546.08,445.39,1520.99,176.6,1203.39,1177.64,257.39,369.76,280.43,"Čistovická, Prague - Řepy",50.0743287,14.3177437,"CZK 28,000",Brick,,,,Personal,G,,,,,,,,,,,,,
"CZK 18,300","CZK 1,500",624279,3+1,12/1/2022,52 m²,,2,,215.16,586.2,164.17,470.6,188.39,302.5,110.53,688.16,172.84,443.61,"Umělecká, Prague - Holešovice",50.102638,14.427271,"CZK 39,600",Brick,,,Good,Personal,G,,,,,,,,,,,,,
"CZK 13,900","CZK 2,900",740178,Studio,9/13/2022,33 m²,Partly,5,,394.69,845.57,258.55,783.94,569.03,470.76,192.74,191.91,353.99,236.83,Prague - Prosek,50.12189,14.48855,"CZK 21,000",Prefab concrete,,,Very good,,G,,,,,,,,,,1.0,,,
"CZK 15,925","CZK 4,575",740173,2+kk,9/13/2022,52 m²,Unfurnished,4,1.0,150.86,265.4,226.54,267.34,114.96,275.23,687.78,273.78,434.79,244.57,"Buzulucká, Prague - Dejvice",50.0991457,14.3938064,"CZK 33,000",Brick,,,Good,,F,,,,,,1.0,,,,,,,
"CZK 14,001",CZK 500,627804,Studio,10/1/2022,35 m²,Partly,1,,243.09,1970.14,252.89,1866.0,635.27,1498.09,1421.75,499.88,463.59,522.93,"Čistovická, Prague - Řepy",50.07479,14.324004,"CZK 26,000",Brick,Up to 10 years,Standard,New-build,Personal,G,Gas boiler,,,1.0,,,,,,,,,
"CZK 21,000","CZK 6,090",740162,3+kk,9/13/2022,75 m²,Partly,3,1.0,164.87,439.16,432.66,463.74,426.4,592.04,195.68,76.72,1353.66,169.08,Prague - Prosek,50.12534,14.49986,"CZK 40,000",Prefab concrete,,,Very good,,G,,,,,1.0,,,,,1.0,,,
"CZK 12,000","CZK 5,000",613818,2+kk,10/1/2022,38 m²,Partly,1,1.0,486.81,716.01,249.42,532.23,435.51,492.8,428.83,576.31,443.1,352.18,"Lovčenská, Prague - Košíře",50.066707,14.369458,"CZK 17,000",Brick,Up to 10 years,Standard,New-build,Personal,B,Central,1.0,,,,,,,,,,,
"CZK 28,000","CZK 8,500",740167,2 bedroom,10/1/2022,80 m²,Fully furnished,2,,388.09,370.72,221.81,343.13,41.23,618.21,375.66,616.81,682.72,239.59,Prague - Malá Strana,50.08615,14.40739,"CZK 29,500",Brick,,,Good,,G,,,,,,,,,1.0,,,,
"CZK 18,285","CZK 4,100",688096,Studio,9/19/2022,27 m²,Fully furnished,4,1.0,282.53,471.09,253.69,175.41,29.12,259.96,353.34,531.47,169.48,322.7,"Čelakovského sady, Prague - Nové Město",50.07758,14.42989,"CZK 36,570",Brick,Up to 10 years,Luxurious,Very good,Personal,G,,,Complete,,,,,,,,,,
"CZK 19,000","CZK 1,500",633891,2 bedroom,11/1/2022,62 m²,Partly,9,1.0,224.41,1183.29,348.35,1221.67,567.86,367.53,1422.99,603.12,1197.17,92.39,"V Dolině, Prague - Michle",50.058705,14.469281,"CZK 38,000",Brick,30 - 50 years,Standard,Very good,Personal,G,Central,,,,1.0,1.0,,1.0,,1.0,,,
"CZK 17,500","CZK 3,500",735574,Studio,9/8/2022,42 m²,Fully furnished,2,1.0,225.65,1912.7,1075.38,1671.57,442.3,1319.22,767.02,1380.36,1360.16,689.15,Prague - Modřany,50.01262,14.40006,"CZK 35,000",Brick,,,New-build,,B,,1.0,,,1.0,1.0,,,,,,,
"CZK 16,000","CZK 4,000",735568,2+kk,9/8/2022,43 m²,Fully furnished,7,1.0,421.8,467.0,477.27,465.81,451.06,471.04,946.44,886.09,721.08,438.89,Prague - Hostivař,50.05468,14.5162,"CZK 16,000",Prefab concrete,,,Very good,,G,,,,,1.0,,1.0,,,,,,
"CZK 13,000","CZK 3,700",541238,Studio,10/1/2022,27 m²,Partly,6,1.0,85.21,560.98,14.88,551.17,98.54,690.21,231.73,215.69,227.14,216.17,"Francouzská, Prague - Vinohrady",50.0719134,14.4459199,"CZK 26,000",Brick,,,Very good,Personal,,,,,,,,,,,,,,
"CZK 21,000","CZK 4,000",740148,Studio,9/13/2022,29 m²,Fully furnished,3,,81.7,318.33,56.85,540.81,73.4,434.01,143.43,179.55,689.32,502.13,Prague - Vinohrady,50.07329,14.43979,CZK 0,Brick,Up to 10 years,,New-build,,G,Electric boiler,1.0,,,,,,,,,,,
"CZK 24,000",CZK 115,740125,2+kk,9/23/2022,75 m²,Fully furnished,1,1.0,158.33,979.99,325.26,907.87,442.93,579.1,220.8,325.99,759.32,80.7,Prague - Prosek,50.11827,14.48981,"CZK 75,000",Brick,Up to 10 years,Luxurious,Very good,Personal,B,Distance,1.0,,1.0,1.0,,1.0,1.0,,,,,
"CZK 14,000",CZK 0,740146,2+kk,10/1/2022,47 m²,Partly,3,,38.34,697.03,160.39,207.72,94.5,215.89,325.01,631.55,881.49,406.16,Prague - Kobylisy,50.12288,14.45318,CZK 0,Brick,,,Very good,,G,,,,1.0,1.0,,,,1.0,,,,
"CZK 17,500","CZK 2,200",740150,1 bedroom,10/3/2022,63 m²,Partly,2,1.0,263.67,565.81,51.73,229.96,25.33,237.4,260.85,599.57,385.61,505.66,Prague - Nové Město,50.07946,14.42719,"CZK 35,000",Brick,,,Very good,,G,,,,,,,,,,,,,
"CZK 18,000","CZK 6,000",740139,3+1,10/2/2022,77 m²,Partly,2,,562.58,552.41,596.44,2498.7,470.12,724.48,760.66,2487.16,1235.39,164.46,Prague - Nebušice,50.10792,14.32317,"CZK 20,000",Brick,,,Very good,,G,,,,1.0,,,,,,,,,
"CZK 12,000","CZK 2,000",374160,Small studio,8/1/2022,27 m²,Partly,2,,271.98,1.82,477.93,1716.85,221.15,1220.11,364.79,264.89,625.35,340.74,"Parléřova, Prague - Střešovice",50.0882217,14.383877,"CZK 24,000",Brick,Up to 10 years,,Very good,Personal,,,,,1.0,,,,,1.0,,,,
"CZK 14,500","CZK 3,500",11641,2+kk,10/1/2022,46 m²,Partly,5,,204.05,530.01,158.8,868.48,183.87,526.71,292.86,444.17,212.94,92.92,"Přecechtělova, Prague - Stodůlky",50.0368598,14.337017,"CZK 18,000",Other,,,Very good,Other,,,,,,,,,,,,,,
"CZK 32,000","CZK 6,000",628613,3+1,9/1/2022,89 m²,Fully furnished,1,1.0,167.95,912.97,160.16,349.44,164.94,418.89,576.42,448.95,290.35,341.84,"Slavojova, Prague - Nusle",50.064215,14.424948,"CZK 50,000",Brick,30 - 50 years,Standard,Very good,Personal,G,Electric boiler,,Complete,,,,,,,,,,
"CZK 13,700","CZK 2,400",643640,Studio,9/20/2022,41 m²,Fully furnished,2,1.0,249.79,1708.58,113.54,1390.67,390.06,1029.9,1070.5,905.99,153.29,209.21,"U Pekařky, Prague - Libeň",50.114484,14.479922,"CZK 25,000",Brick,Up to 10 years,Luxurious,New-build,Personal,C,Gas boiler,1.0,Complete,,1.0,,1.0,1.0,,,,,
"CZK 7,000","CZK 2,300",434923,5+1,9/16/2022,132 m²,Fully furnished,3,,323.81,1077.94,840.8,1539.77,513.13,998.99,847.87,744.82,635.79,579.03,"K Ovčínu, Prague - Kobylisy",50.1382249,14.4761647,"CZK 14,000",Brick,10 to 30 years,Luxurious,Very good,Personal,B,Electric boiler,,,,,,,,,,,,
"CZK 15,580","CZK 1,440",577869,2+kk,9/19/2022,42 m²,Partly,4,,232.54,712.2,301.69,1009.67,252.03,393.41,334.16,610.2,900.51,339.38,"Vrchlického, Prague - Košíře",50.0703151,14.3848167,"CZK 26,000",Brick,,Standard,Very good,Personal,G,Gas boiler,,Complete,,1.0,,,,,,,,
"CZK 25,000","CZK 6,800",564750,2+kk,10/1/2022,83 m²,Unfurnished,2,1.0,94.12,1035.27,410.95,880.05,369.07,634.38,296.02,245.35,845.01,41.97,"Valečovská, Prague - Prosek",50.1176567,14.4904889,"CZK 50,000",Brick,Up to 10 years,Luxurious,New-build,Personal,,Central,1.0,,,,,,1.0,,,,,
"CZK 19,900","CZK 2,800",683271,3+1,10/1/2022,65 m²,Partly,3,1.0,177.5,128.51,41.35,121.16,142.45,102.21,477.18,544.74,540.92,75.86,"Jílovská, Prague - Lhotka",50.02401,14.43294,"CZK 39,800",Prefab concrete,,Standard,Very good,Personal,G,Central,,,,1.0,,,,1.0,1.0,,,
"CZK 15,000","CZK 3,500",361151,Studio,9/15/2022,32 m²,Partly,4,1.0,215.32,438.18,296.02,743.11,644.93,658.37,353.14,432.92,563.02,240.72,"Nad přehradou, Prague - Horní Měcholupy",50.042408,14.5513031,"CZK 30,000",Brick,Up to 10 years,,,Personal,B,,,,,,1.0,1.0,,,,,,
"CZK 19,000","CZK 7,000",717074,3+kk,7/17/2022,70 m²,Partly,4,1.0,308.56,1634.51,436.46,1306.85,349.52,524.17,348.51,340.78,1137.55,177.49,"Nedvězská, Prague - Strašnice",50.06891,14.50447,"CZK 40,000",Prefab concrete,10 to 30 years,Standard,Very good,Personal,G,Distance,,,,,,,,,,,,
"CZK 14,000","CZK 5,000",739857,2+kk,10/1/2022,45 m²,Partly,1,1.0,429.33,534.68,324.57,678.96,356.22,304.44,802.95,398.09,470.61,168.39,Prague - Chodov,50.027,14.48908,"CZK 24,000",Prefab concrete,,,Very good,,G,,,,,1.0,,,,1.0,,,,
"CZK 13,600","CZK 4,000",509706,2+kk,10/1/2022,44 m²,Partly,5,1.0,232.66,691.04,252.66,1520.0,426.73,381.53,707.27,420.94,767.02,179.28,Prague - Kamýk,50.0156196,14.4454164,"CZK 36,000",Prefab concrete,,,,Personal,D,Central,,Exterior,,,,,,,,,,
"CZK 11,500","CZK 2,900",572649,Studio,10/1/2022,32 m²,Fully furnished,1,,2.67,1404.03,47.64,1376.7,52.19,1551.03,345.73,245.89,573.99,628.07,"Dvorecké náměstí, Prague - Podolí",50.0467108,14.4153928,"CZK 22,000",Brick,,Luxurious,Very good,Personal,,,,Complete,,1.0,,,,,,,,
"CZK 13,000","CZK 3,500",739764,Studio,9/15/2022,30 m²,Partly,1,1.0,134.44,356.11,378.19,328.8,316.37,472.52,183.43,154.05,1234.15,99.24,Prague - Střížkov,50.12568,14.49787,"CZK 16,500",Prefab concrete,,Standard,Very good,,G,Central,,Complete,,1.0,,,,1.0,,,,
"CZK 13,000","CZK 3,500",189770,2+kk,11/1/2022,41 m²,Partly,3,1.0,106.5,524.73,58.79,291.75,139.31,410.38,738.89,329.25,561.23,186.21,"Vikova, Prague - Krč",50.0412387,14.4375439,"CZK 16,500",Prefab concrete,30 - 50 years,Standard,Very good,Personal,D,Distance,,Complete,,,,,,,,,,
"CZK 41,438","CZK 13,812",732123,Studio,11/1/2022,26 m²,Fully furnished,2,,229.1,530.05,122.61,223.26,36.43,222.12,280.75,471.08,466.92,408.11,"Příčná, Prague - Nové Město",50.077834,14.422878,,,,,,,,,,,,,,,,,,,,
"CZK 15,000","CZK 5,000",728426,Studio,11/2/2022,25 m²,Fully furnished,12,1.0,228.88,257.2,204.55,166.76,173.2,262.96,328.04,408.55,436.47,292.09,"Freyova, Prague - Vysočany",50.108944,14.501028,,,,,,,,,,,,,,,,,,,,
"CZK 25,380","CZK 8,460",723857,2 bedroom,10/31/2022,35 m²,Fully furnished,5,,220.05,826.22,174.81,602.88,97.41,601.22,415.82,330.65,569.7,247.12,"Bulharská, Prague - Vršovice",50.0719625,14.461813,,,,,,,,,,,,,,,,,,,,
"CZK 25,500","CZK 8,500",732231,2+kk,11/2/2022,48 m²,Fully furnished,3,1.0,188.32,492.36,64.31,169.76,16.44,202.35,307.51,551.4,544.96,488.43,"Řeznická, Prague - Nové Město",50.0781758,14.4220203,,,,,,,,,,,,,,,,,,,,
"CZK 27,830","CZK 9,277",728696,2+kk,10/4/2022,45 m²,Fully furnished,5,,120.02,538.45,85.43,335.62,47.85,333.62,182.79,195.16,543.36,341.26,"Lípová, Prague - Nové Město",50.0747395,14.424046,,,,,,,,,,,,,,,,,,,,
"CZK 24,938","CZK 8,312",732307,1 bedroom,10/4/2022,16 m²,Fully furnished,2,,254.83,288.07,110.12,571.95,81.97,421.88,80.01,71.59,804.26,588.21,"Americká, Prague - Vinohrady",50.0721161,14.4387295,,,,,,,,,,,,,,,,,,,,
"CZK 27,750","CZK 9,250",730836,2+kk,9/29/2022,40 m²,Fully furnished,1,,29.42,633.78,151.61,536.89,130.46,316.51,391.7,900.17,984.89,128.97,"Šporkova, Prague - Malá Strana",50.0876289,14.3978335,,,,,,,,,,,,,,,,,,,,
"CZK 20,250","CZK 6,750",732111,2 bedroom,11/1/2022,48 m²,Fully furnished,1,1.0,163.79,319.88,110.55,226.38,103.86,407.78,227.16,243.22,785.75,360.1,"Na Zbořenci, Prague - Nové Město",50.0769346,14.4169603,,,,,,,,,,,1.0,,1.0,,,,,,,
"CZK 24,581","CZK 8,194",729938,Studio,11/10/2022,32 m²,Fully furnished,1,,447.58,805.32,396.64,450.11,197.32,945.56,256.47,627.41,458.07,336.59,"Nad Kolčavkou A, Prague - Libeň",50.1080609,14.4828384,,,,,,,,,,,,,,,,,,,,
"CZK 18,000",CZK 0,739599,3+kk,10/1/2022,60 m²,Partly,2,,292.41,506.43,376.44,451.06,128.33,1515.53,214.91,782.66,1248.42,275.58,Prague - Záběhlice,50.04634,14.49227,"CZK 22,000",Brick,30 - 50 years,,Good,Cooperative,G,Central,,,,,,,,,,,,
"CZK 17,000","CZK 5,000",730297,Studio,9/1/2022,38 m²,Fully furnished,5,1.0,280.58,594.53,280.71,334.69,330.61,408.9,573.31,547.03,561.08,221.57,Prague - Strašnice,50.07897,14.48762,"CZK 34,000",Low-energy,,,Very good,,C,,,,,,1.0,1.0,,,,,,
"CZK 16,000","CZK 5,000",739592,2+kk,9/13/2022,54 m²,Fully furnished,2,,325.81,475.58,119.88,333.54,93.48,290.59,208.75,517.96,627.14,299.3,Prague - Krč,50.04613,14.44293,"CZK 21,000",Brick,,,Very good,,B,,,,,1.0,,,,,1.0,,,
"CZK 39,000","CZK 7,060",599969,2+kk,9/15/2022,70 m²,Fully furnished,2,1.0,77.13,250.7,147.09,542.62,38.78,590.26,187.21,518.82,358.39,313.11,"Šeříková, Prague - Malá Strana",50.081584,14.406318,"CZK 29,000",Brick,Up to 10 years,Luxurious,New-build,Personal,G,Gas boiler,1.0,Complete,1.0,,1.0,,,,,,,
"CZK 10,000",CZK 0,609306,Small studio,9/8/2022,22 m²,Fully furnished,,,419.78,689.05,336.56,510.31,483.75,541.04,177.96,624.54,698.68,163.17,"Nad Kuliškou, Prague - Košíře",50.066947,14.373544,"CZK 10,000",Brick,,,Very good,,G,,,,,,,,,,,,22 m²,
"CZK 27,000","CZK 9,000",732124,1 bedroom,11/1/2022,36 m²,Fully furnished,1,,241.61,1008.07,337.84,676.78,180.71,627.3,876.02,1008.48,488.31,192.83,"Sanderova, Prague - Holešovice",50.104936,14.458846,,,,,,,,,,,1.0,,1.0,,,,,,,
"CZK 60,000","CZK 20,000",717694,2+kk,10/2/2022,,Fully furnished,3,,177.2,646.63,182.16,39.81,37.58,122.34,27.5,101.85,349.84,194.18,"Ječná, Prague - Nové Město",50.0757302,14.4269087,,,,,,,,,,,,,,,,,,,,
"CZK 60,000","CZK 20,000",717693,2+kk,10/2/2022,,Fully furnished,3,,177.2,646.63,182.16,39.81,37.58,122.34,27.5,101.85,349.84,194.18,"Ječná, Prague - Nové Město",50.0757302,14.4269087,,,,,,,,,,,,,,,,,,,,
"CZK 31,500","CZK 10,500",734260,2+kk,11/6/2022,41 m²,Fully furnished,5,,394.46,497.82,253.13,432.3,279.54,389.35,316.56,724.72,695.79,345.02,"Krchlebská, Prague - Krč",50.0471114,14.4429584,,,,,,,,,,,,,,,,,,,,
"CZK 41,625","CZK 13,875",720848,4+kk,10/2/2022,112 m²,Fully furnished,4,1.0,168.35,737.87,30.76,217.13,7.9,216.51,106.1,336.15,114.49,565.37,"Ostrovní, Prague - Nové Město",50.0806286,14.4175374,,,,,,,,,,,1.0,,1.0,,,,,,,
"CZK 48,435","CZK 16,145",730649,3+1,10/20/2022,108 m²,Fully furnished,3,1.0,170.36,424.31,260.04,428.7,73.65,305.75,38.65,29.43,439.38,720.46,"Balbínova, Prague - Vinohrady",50.0795643,14.4361068,,,,,,,,,,,,,,,,,,,,
"CZK 23,265","CZK 7,755",734259,1 bedroom,11/6/2022,34 m²,Fully furnished,5,,192.54,684.55,33.13,461.2,44.3,459.54,274.15,304.32,543.36,239.67,"Bulharská, Prague - Vršovice",50.0717467,14.4598954,,,,,,,,,,,,,,,,,,,,
"CZK 19,125","CZK 6,375",728424,2 bedroom,10/6/2022,45 m²,Fully furnished,10,1.0,256.77,316.9,138.95,255.27,129.78,146.97,532.26,445.84,886.9,24.33,"Jablonecká, Prague - Střížkov",50.1245336,14.4947443,,,,,,,,,,,,,,,,,,,,
"CZK 59,250","CZK 19,750",717599,4+kk,9/18/2022,90 m²,Fully furnished,2,1.0,140.09,527.92,223.64,125.85,37.89,66.77,510.79,1001.31,1180.94,559.23,"Stroupežnického, Prague - Smíchov",50.0710929,14.4032595,,,,,,,,,,,,,,,,,,,,
"CZK 63,750","CZK 21,250",729471,3+1,10/10/2022,120 m²,Fully furnished,3,1.0,73.01,281.28,58.33,478.54,20.37,379.07,102.37,138.49,668.56,481.36,"Francouzská, Prague - Vinohrady",50.0739894,14.440101,,,,,,,,,,,,,,,,,,,,
"CZK 39,000","CZK 13,000",732116,2 bedroom,11/10/2022,72 m²,Fully furnished,3,1.0,73.01,281.28,58.33,478.54,20.37,379.07,102.37,138.49,668.56,481.36,"Francouzská, Prague - Vinohrady",50.0739894,14.440101,,,,,,,,,,,,,,,,,,,,
"CZK 19,800","CZK 6,600",735462,3+1,10/19/2022,90 m²,Fully furnished,5,1.0,82.8,397.93,96.94,404.98,135.48,353.78,131.46,217.55,654.74,661.34,"Blanická, Prague - Vinohrady",50.0746503,14.439294,,,,,,,,,,,,,,,,,,,,
"CZK 51,656","CZK 17,219",728895,2 bedroom,10/6/2022,60 m²,Fully furnished,4,1.0,110.1,392.87,177.02,129.22,79.72,168.29,299.92,497.22,273.67,349.66,"Dlážděná, Prague - Nové Město",50.0865843,14.4323212,,,,,,,,,,,,,,,,,,,,
"CZK 41,756","CZK 13,919",728695,4+1,10/4/2022,102 m²,Fully furnished,2,,183.27,1023.84,165.5,746.11,195.16,730.27,819.74,259.7,600.66,303.35,"Xaveriova, Prague - Smíchov",50.0626569,14.3913498,,,,,,,,,,,,,,,,,,,,
"CZK 34,500","CZK 11,500",728709,2+kk,10/8/2022,45 m²,Fully furnished,6,1.0,73.01,281.28,58.33,478.54,20.37,379.07,102.37,138.49,668.56,481.36,"Francouzská, Prague - Vinohrady",50.0739894,14.440101,,,,,,,,,,,,,,,,,,,,
"CZK 37,500","CZK 12,500",718920,2+kk,10/11/2022,60 m²,Fully furnished,3,1.0,241.61,542.2,98.71,270.79,176.01,313.55,455.64,821.55,633.96,593.3,"Mečislavova, Prague - Nusle",50.0633237,14.4440058,,,,,,,,,,,1.0,,1.0,,,,,,,
"CZK 36,000","CZK 12,000",735565,2+kk,9/18/2022,45 m²,Fully furnished,2,1.0,210.86,390.29,319.5,985.86,301.65,338.01,858.33,290.45,385.77,539.9,"Strakonická, Prague - Smíchov",50.0643299,14.4102127,,,,,,,,,,,,,,,,,,,,
"CZK 37,500","CZK 12,500",733712,2+kk,10/2/2022,56 m²,Fully furnished,5,1.0,240.81,540.67,44.44,271.87,34.53,284.1,466.7,624.38,640.6,582.46,"Mečislavova, Prague - Nusle",50.0633339,14.4440155,,,,,,,,,,,,,,,,,,,,
"CZK 36,675","CZK 12,225",731158,2+kk,10/24/2022,55 m²,Fully furnished,2,1.0,170.48,421.6,257.32,426.75,52.86,339.7,54.65,63.39,473.33,754.41,"Balbínova, Prague - Vinohrady",50.0795659,14.4357789,,,,,,,,,,,,,,,,,,,,
"CZK 13,000","CZK 2,200",523224,Studio,9/8/2022,36 m²,Fully furnished,4,1.0,408.63,1641.92,476.67,1413.35,555.89,1577.93,1319.91,1526.82,648.08,209.06,"Kolbenova, Prague - Vysočany",50.111912452778,14.513683039148,"CZK 15,000",Other,,,,Personal,B,Central,1.0,,,,,,,,1.0,,,
"CZK 20,000","CZK 6,500",531164,2+kk,10/1/2022,61 m²,Partly,4,1.0,362.37,1757.6,48.17,1386.97,502.63,984.94,979.72,829.72,93.77,220.29,"Nad Bání, Prague - Libeň",50.1154659,14.4798462,"CZK 45,000",Brick,Up to 10 years,,New-build,Personal,B,,1.0,,,1.0,1.0,1.0,1.0,,,,,
"CZK 18,000","CZK 6,000",617313,3+1,10/1/2022,75 m²,Partly,2,,217.79,769.38,234.37,530.41,302.17,444.7,355.22,169.49,607.25,16.23,"Černockého, Prague - Chodov",50.0292,14.523939,"CZK 20,000",Prefab concrete,30 - 50 years,Standard,Good,Personal,B,Central,,Exterior,,,,,,,1.0,,,
"CZK 14,500","CZK 4,500",480081,2+kk,10/1/2022,57 m²,Partly,2,1.0,239.44,1017.27,104.44,942.37,541.16,389.02,516.83,393.42,1072.46,77.74,"Makedonská, Prague - Střížkov",50.129613,14.4929063,"CZK 19,000",Brick,Up to 10 years,Standard,New-build,Personal,B,Central,1.0,,,,1.0,,,,,,,
"CZK 17,500","CZK 3,900",607379,Studio,9/15/2022,24 m²,Fully furnished,2,1.0,148.83,419.07,71.5,195.07,56.82,331.69,329.58,642.28,911.37,462.1,"Gorazdova, Prague - Nové Město",50.074462,14.414953,"CZK 36,000",Brick,Up to 10 years,Standard,Very good,Personal,E,Central,,Complete,,,,,,,,,,
"CZK 11,000","CZK 2,400",291697,2+kk,9/13/2022,32 m²,Fully furnished,1,,205.58,1108.24,482.01,1081.9,111.62,1132.83,566.45,627.77,500.45,503.79,"Hornoměcholupská, Prague - Hostivař",50.0517467,14.5312487,CZK 0,Brick,,,,Personal,,,,,,,,,,,,,,
"CZK 19,000","CZK 5,120",652836,Studio,10/1/2022,59 m²,Fully furnished,2,1.0,62.53,1099.2,686.55,791.19,452.69,772.93,906.21,844.17,329.03,496.04,"Radičova, Prague - Břevnov",50.08058,14.3746,"CZK 38,000",Brick,Up to 10 years,Luxurious,New-build,Personal,A,Distance,1.0,,1.0,1.0,1.0,1.0,1.0,,,,,
"CZK 39,500","CZK 4,000",612035,3+1,10/1/2022,95 m²,Fully furnished,4,1.0,241.15,198.45,145.7,539.73,28.01,386.45,150.23,164.2,896.88,670.28,"Záhřebská, Prague - Vinohrady",50.072345,14.437588,"CZK 79,000",Brick,Over 50 years,Standard,Very good,Personal,E,Gas boiler,,Complete,,,1.0,,,,,,,
"CZK 13,500","CZK 4,000",524061,Small studio,9/30/2022,24 m²,Fully furnished,2,,91.78,580.81,32.71,585.83,4.83,464.23,508.34,544.94,531.96,283.89,"Michelská, Prague - Michle",50.050462,14.4588805,"CZK 24,999",Brick,Up to 10 years,,,Personal,D,Electric boiler,,Interior,,,,,,,,,,
"CZK 14,000","CZK 4,187",475489,2+kk,10/1/2022,40 m²,Partly,3,1.0,316.19,1517.0,291.47,904.47,523.14,563.29,719.55,399.94,1217.25,123.35,"Mirovická, Prague - Kobylisy",50.1301776,14.4485142,"CZK 28,000",Prefab concrete,,,Very good,Personal,,Distance,,,,,1.0,,,,,,,
"CZK 20,103","CZK 2,097",732299,2+kk,10/1/2022,64 m²,Partly,5,1.0,121.07,514.35,0.41,175.09,21.51,296.98,441.48,400.59,261.11,376.14,Prague - Holešovice,50.10249,14.4527,"CZK 40,000",Brick,,,New-build,,G,,1.0,,,1.0,1.0,1.0,,,,,,
"CZK 17,000","CZK 2,663",520762,Studio,10/1/2022,33 m²,Partly,6,1.0,454.04,809.88,434.66,484.42,353.37,771.43,492.68,609.29,683.92,296.54,"Freyova, Prague - Vysočany",50.1053168,14.5019662,"CZK 34,000",Brick,,,,Personal,B,,1.0,,,,,1.0,,,,,,
"CZK 18,000","CZK 4,000",303914,2+kk,10/1/2022,43 m²,Partly,12,1.0,468.22,728.65,448.84,403.19,272.14,690.2,506.86,384.18,655.25,215.31,"Freyova, Prague - Vysočany",50.10547599,14.5020472394,"CZK 18,000",Brick,Up to 10 years,Standard,New-build,Personal,,Central,1.0,,,1.0,,1.0,,,,,,
"CZK 11,500","CZK 3,000",694057,Small studio,9/13/2022,35 m²,Partly,3,1.0,30.15,606.25,417.88,138.81,109.0,176.09,318.33,806.62,770.13,315.87,"Stroupežnického, Prague - Smíchov",50.0718592,14.4026525,"CZK 29,000",Brick,,,Good,Personal,D,,,,,,,,,1.0,,,,
"CZK 12,000","CZK 3,000",736087,Studio,9/10/2022,26 m²,Fully furnished,1,,107.24,1090.96,310.0,747.62,287.97,705.42,484.33,458.93,687.76,203.17,Prague - Nusle,50.05744,14.44172,"CZK 12,000",Brick,,Standard,Very good,,G,Electric boiler,,,,,,,,1.0,,,,
"CZK 18,000","CZK 4,000",738062,2+kk,9/12/2022,53 m²,Fully furnished,4,,140.43,192.7,275.57,462.44,229.16,261.26,120.24,96.33,534.26,253.95,Prague - Břevnov,50.08823,14.34953,"CZK 40,000",Brick,,,Very good,,G,,,,,1.0,,,,,,,,
"CZK 12,000","CZK 2,800",362812,Small studio,10/1/2022,32 m²,Unfurnished,2,,380.89,1044.93,381.98,557.79,318.11,541.01,649.96,1042.44,475.72,636.87,"Pod kaštany, Prague - Bubeneč",50.1005573,14.4084997,"CZK 15,000",Brick,,Standard,Good,Personal,G,Gas boiler,,Interior,,,,,,,,,,
"CZK 18,000","CZK 2,038",678045,2+kk,10/1/2022,47 m²,Partly,1,,234.53,890.93,125.68,740.59,387.89,682.36,975.35,409.59,703.6,63.12,Prague - Dejvice,50.0986737,14.3736855,"CZK 36,000",Brick,,,Very good,Personal,G,,,,,,,,,,,,,
"CZK 22,400","CZK 3,500",645615,2+kk,12/1/2022,61 m²,Partly,4,1.0,102.61,622.8,256.57,411.93,239.04,483.21,237.09,56.91,551.32,311.03,"Ambrožova, Prague - Žižkov",50.087815,14.472505,CZK 0,Brick,Up to 10 years,Luxurious,New-build,Personal,B,Central,1.0,Complete,1.0,1.0,1.0,1.0,,,,,,
"CZK 23,000","CZK 3,500",430585,2+kk,10/1/2022,53 m²,Fully furnished,4,1.0,239.09,882.58,446.42,643.02,229.17,685.62,588.31,252.8,374.45,191.71,"Olgy Havlové, Prague - Žižkov",50.0886908,14.4828424,"CZK 53,000",Brick,,,New-build,Personal,,,1.0,,,1.0,1.0,,,,1.0,,,
"CZK 12,000","CZK 3,000",725587,Studio,9/18/2022,33 m²,Partly,,,817.84,1330.16,1030.06,1156.88,691.6,1186.71,1014.98,1019.92,1014.62,670.9,Prague - Vokovice,50.10321,14.35191,"CZK 25,000",Brick,,,Very good,,G,,,,1.0,,,,,,,,,
"CZK 22,000","CZK 6,000",735470,3+kk,10/17/2022,74 m²,Partly,3,1.0,405.96,554.48,127.21,416.85,404.22,445.92,164.65,727.62,580.02,145.17,Prague - Modřany,50.00835,14.41991,"CZK 40,000",Prefab concrete,,,Very good,,G,,,,,1.0,1.0,,,,,,,
"CZK 18,000","CZK 3,500",734031,Studio,10/1/2022,34 m²,Fully furnished,,,249.44,775.46,296.54,454.56,346.44,471.4,754.24,623.73,388.52,189.67,Prague - Strašnice,50.07918,14.48536,"CZK 18,000",Brick,10 to 30 years,Standard,Very good,Personal,G,Central,,,1.0,,,,,,,,,
"CZK 13,500","CZK 2,800",524929,Studio,9/1/2018,32 m²,Fully furnished,1,,321.01,3235.79,590.23,3591.25,347.74,2875.71,2207.72,2716.78,2751.33,367.32,"Kestřanská, Prague - Cholupice",49.9887823,14.4454149,"CZK 16,300",Brick,,,,Personal,,,,,,,1.0,,,1.0,,,,
"CZK 18,000","CZK 4,000",737808,2+kk,9/19/2022,55 m²,Unfurnished,3,1.0,232.61,146.06,13.95,221.87,10.19,63.91,278.39,443.83,1225.33,285.5,Prague - Vokovice,50.09625,14.3602,"CZK 18,000",Prefab concrete,,,Very good,,C,Central,,Complete,,1.0,,1.0,,,1.0,,,
"CZK 14,000",CZK 700,453907,2+kk,10/1/2022,40 m²,Partly,2,,144.87,225.65,56.34,206.91,16.86,222.73,312.31,464.55,357.25,334.34,"Na Spojce, Prague - Vršovice",50.0676958,14.4567292,"CZK 20,000",Brick,,,Very good,Personal,,,,Complete,,,,,,,,,,
"CZK 16,500","CZK 3,331",492630,2+kk,10/1/2022,53 m²,Fully furnished,2,1.0,355.4,903.76,583.42,1031.58,338.62,863.49,598.27,754.11,532.05,81.03,"Karla Kryla, Prague - Stodůlky",50.0368204,14.330625,"CZK 30,000",Brick,,,,Personal,,,,,,1.0,,,,,1.0,,,
"CZK 20,500",CZK 880,381587,2 bedroom,9/12/2022,90 m²,Unfurnished,3,,72.57,89.05,84.69,56.33,4.22,136.59,320.86,798.22,409.8,337.3,"Šmeralova, Prague - Bubeneč",50.1002722,14.4225082,"CZK 20,500",Brick,,,,Personal,,,,,,,,,,,,,,
"CZK 18,000","CZK 3,497",737805,Studio,10/4/2022,30 m²,Fully furnished,2,1.0,244.01,756.43,234.11,1131.0,356.53,408.8,300.81,423.96,1217.3,415.74,Prague - Košíře,50.07148,14.3846,"CZK 25,000",Brick,,,Very good,,G,,,,,,,,,1.0,,,,
"CZK 18,200","CZK 1,800",632473,Studio,10/1/2022,43 m²,Fully furnished,1,1.0,294.94,409.3,45.18,338.8,178.53,254.54,193.85,710.73,84.22,381.6,"U Studánky, Prague - Bubeneč",50.102025,14.425824,"CZK 40,000",Brick,Up to 10 years,Luxurious,Very good,Personal,A,Electric boiler,,Complete,,,,,,,,,,
"CZK 28,400","CZK 6,000",737804,3+kk,10/1/2022,91 m²,Fully furnished,5,1.0,411.66,1945.02,535.38,1619.56,1273.47,741.19,1073.41,1354.32,1057.83,53.96,Prague - Vysočany,50.10469,14.51504,"CZK 50,000",Brick,Up to 10 years,Standard,Very good,Personal,B,Central,1.0,,,1.0,1.0,1.0,,,1.0,,,
"CZK 12,000","CZK 3,000",737802,2+kk,9/19/2022,44 m²,Partly,3,1.0,372.24,595.96,363.77,889.08,667.91,825.75,526.91,608.99,598.11,44.36,Prague - Horní Měcholupy,50.04313,14.55293,"CZK 15,000",Prefab concrete,,,Good,,E,,,,,1.0,,,,,,,,
"CZK 11,990","CZK 1,759",737803,Studio,9/17/2022,38 m²,Fully furnished,5,1.0,239.9,898.28,492.58,763.17,617.18,354.86,455.88,556.66,1256.24,365.57,"Modenská, Prague - Horní Měcholupy",50.04008111111,14.56814888888,"CZK 13,749",Other,,,New-build,Personal,B,,1.0,,,1.0,1.0,1.0,,,,"CZK 13,749",,
"CZK 16,500","CZK 4,300",687239,2+kk,12/1/2022,45 m²,Fully furnished,2,1.0,325.71,968.96,162.26,2110.68,160.3,997.63,1050.9,1575.88,2007.31,224.0,"K Beranovu, Prague - Dolní Chabry",50.13979,14.44901,"CZK 25,000",Brick,Up to 10 years,Standard,New-build,Personal,C,Central,1.0,,,1.0,1.0,1.0,,,,,,
"CZK 22,000","CZK 3,360",551447,2+kk,9/13/2022,51 m²,Partly,2,1.0,283.79,148.02,158.99,1617.01,45.16,1048.39,1159.42,750.98,931.26,135.54,Prague - Stodůlky,50.0460523,14.3020788,"CZK 40,000",Brick,Up to 10 years,Standard,,Personal,B,Central,1.0,,1.0,,,,,,,,,
"CZK 30,000","CZK 6,000",729867,3+kk,9/1/2022,86 m²,Partly,3,1.0,619.74,957.8,1278.08,1960.39,141.51,1073.98,1363.22,1191.22,343.89,293.25,Prague - Letňany,50.14159,14.52344,"CZK 60,000",Brick,Up to 10 years,,New-build,,B,Central,,,,,1.0,,1.0,,,,,
"CZK 16,000","CZK 4,000",735075,2+kk,9/12/2022,41 m²,Partly,1,,370.75,1265.27,341.98,843.86,320.29,1025.67,1000.01,218.25,1013.68,332.92,Prague - Dejvice,50.09786,14.37792,"CZK 20,000",Brick,,,Good,,G,,,,,,,,,,,,,
"CZK 20,000","CZK 5,000",737556,2+kk,9/12/2022,56 m²,Fully furnished,4,,159.19,701.35,186.0,393.34,186.98,214.61,352.62,518.89,577.8,707.14,Prague - Břevnov,50.08317,14.37215,"CZK 25,000",Brick,,,New-build,,G,,1.0,,,,,,,,,,,
"CZK 15,500","CZK 4,000",735446,Studio,9/7/2022,23 m²,Fully furnished,3,1.0,51.7,1483.2,433.92,1157.74,558.05,744.26,305.46,1138.73,1422.98,612.08,Prague - Vysočany,50.103156,14.5190992,"CZK 20,000",Other,Up to 10 years,Luxurious,New-build,Personal,G,Central,1.0,Complete,1.0,,,,,,,,,
"CZK 17,900","CZK 1,100",682818,2+kk,10/1/2022,48 m²,Partly,1,1.0,17.57,739.23,73.61,650.68,225.68,691.96,414.44,312.88,539.86,293.39,"28. pluku, Prague - Vršovice",50.07087,14.46352,"CZK 25,000",Brick,,,Very good,Personal,G,,,,,,1.0,,,,,,,
"CZK 12,000","CZK 2,000",729672,Studio,9/22/2022,21 m²,Partly,5,,124.98,538.05,121.55,184.75,182.23,558.84,300.08,228.47,431.04,520.36,"Husinecká, Prague - Žižkov",50.085698,14.4449948,"CZK 20,000",Other,,,Very good,,C,Electric boiler,,,,,1.0,,,,,,,
"CZK 13,950","CZK 3,000",731066,Studio,9/1/2022,30 m²,Partly,4,1.0,183.47,1118.41,6.3,558.83,121.16,424.75,123.63,355.68,284.69,98.26,Prague - Libeň,50.10608,14.4905,"CZK 28,000",Brick,,,Very good,,C,,,,,,,,,,,,,
"CZK 12,500","CZK 3,000",267720,Studio,8/23/2022,45 m²,Fully furnished,5,,140.65,1330.58,511.17,1085.56,206.79,1317.03,1111.5,640.52,844.37,273.91,"Roškotova, Prague - Braník",50.0405931,14.4265259,CZK 0,Prefab concrete,,,,Personal,,,,,,,,,,,,,,
"CZK 8,000","CZK 5,000",736857,2 bedroom,9/12/2022,45 m²,Fully furnished,3,,439.24,803.13,302.68,845.82,712.62,459.25,468.41,195.87,457.01,228.95,Prague - Strašnice,50.08273,14.49127,"CZK 10,000",Brick,,,Good,,G,,,,,,,,,,,,,
"CZK 15,000","CZK 4,000",736943,2 bedroom,10/1/2022,45 m²,Partly,2,,709.72,829.85,448.06,2370.89,383.39,437.8,764.25,716.18,1821.64,649.04,Prague - Braník,50.03496,14.42055,CZK 0,Brick,,,Very good,,G,,,,1.0,,,1.0,,,,,,
"CZK 16,000","CZK 1,000",731534,1 bedroom,9/15/2022,46 m²,Partly,4,1.0,322.68,961.45,241.53,635.99,345.47,659.58,372.47,616.98,945.84,448.11,Prague - Vysočany,50.10386,14.50184,"CZK 32,000",Brick,,,Very good,,G,,,,,1.0,,,,,,,,
"CZK 50,000","CZK 10,610",682234,5+kk,9/1/2022,162 m²,Partly,11,1.0,163.07,1109.71,303.21,956.68,424.05,1002.96,901.98,592.06,631.83,462.98,"Malešická, Prague - Žižkov",50.0870673,14.4834726,"CZK 100,000",Other,,,New-build,Personal,C,,,,1.0,1.0,,,1.0,,,,,
"CZK 6,000","CZK 1,000",736716,3+1,9/12/2022,30 m²,Partly,1,,377.25,753.08,261.66,548.17,290.84,743.07,518.13,1036.84,152.09,363.49,Prague - Podolí,50.05343,14.42159,"CZK 11,000",Brick,,,Good,,A,,,,1.0,1.0,1.0,1.0,1.0,1.0,1.0,,,
"CZK 15,000","CZK 3,000",736774,2 bedroom,10/1/2022,59 m²,Fully furnished,4,1.0,160.51,891.21,172.92,1260.14,211.56,233.02,511.7,375.22,911.85,297.92,Prague - Kamýk,50.01649,14.44124,"CZK 25,000",Prefab concrete,,,Very good,,C,,,,,1.0,,1.0,,,,,,
"CZK 23,500","CZK 5,300",736366,3+kk,11/1/2022,73 m²,Partly,4,1.0,323.41,762.05,330.66,685.11,338.94,572.48,543.73,248.59,403.57,40.43,Prague - Řepy,50.06796,14.30066,"CZK 40,000",Prefab concrete,,Standard,Very good,,G,Central,,Complete,,1.0,,,,,1.0,,,
"CZK 13,500","CZK 3,000",725391,Studio,8/1/2022,31 m²,Partly,2,1.0,229.9,947.02,205.09,713.91,247.68,447.39,154.37,412.65,1095.26,196.69,Prague - Modřany,50.0061,14.40679,"CZK 16,500",Brick,,,New-build,,A,,1.0,,,,,,,,,,,
"CZK 15,000","CZK 4,000",589495,1 bedroom,10/5/2022,31 m²,Fully furnished,5,1.0,281.46,602.99,267.93,692.17,403.95,688.3,1195.3,523.48,1247.72,159.24,"Peroutkova, Prague - Jinonice",50.058519,14.377489,"CZK 15,000",Brick,Up to 10 years,Standard,New-build,Personal,C,Distance,1.0,Complete,,,,,,,,,,
"CZK 23,000","CZK 9,000",735408,3+1,9/7/2022,105 m²,Unfurnished,5,1.0,174.31,478.5,120.42,94.53,46.33,21.42,249.47,441.3,567.11,636.54,Prague - Vinohrady,50.07382,14.43183,"CZK 46,000",Brick,,,Very good,,C,,,,,,,,,,,,,
"CZK 12,000","CZK 3,200",732486,Studio,11/25/2022,38 m²,Partly,1,,29.62,74.69,161.27,2384.66,205.43,349.84,301.39,274.67,1230.51,244.29,Prague - Braník,50.03619,14.41129,"CZK 15,200",Brick,,,Very good,,G,,,,,1.0,,,,,,,,
"CZK 12,990",CZK 0,681721,Small studio,9/7/2022,20 m²,Fully furnished,1,,155.39,507.59,93.73,189.31,18.14,382.05,535.16,340.41,325.87,706.18,"Na Bělidle, Prague - Smíchov",50.07176,14.40601,"CZK 5,000",Brick,,Standard,Good,Personal,G,Gas boiler,,Interior,,,,,,,,,,
"CZK 12,500","CZK 3,000",736501,Studio,10/1/2022,33 m²,Fully furnished,7,1.0,454.04,809.88,434.66,484.42,353.37,771.43,492.68,609.29,683.92,296.54,Prague - Vysočany,50.10533,14.50202,"CZK 15,500",Brick,,,Very good,,B,,,,,,1.0,,,,,,,
"CZK 24,000","CZK 5,200",733392,Studio,9/10/2022,35 m²,Fully furnished,3,1.0,130.34,674.95,328.7,662.91,182.49,531.16,929.62,307.24,572.75,335.78,Prague - Smíchov,50.06745,14.40788,"CZK 48,000",Brick,,,New-build,Personal,B,,,,,1.0,,,,,,,,
"CZK 24,000","CZK 1,500",736375,3+kk,9/12/2022,60 m²,Partly,3,,109.1,334.01,224.08,266.59,387.33,602.89,288.34,323.48,678.15,288.82,Prague - Háje,50.03098,14.53461,"CZK 24,000",Prefab concrete,,,Very good,,A,,,,,,,,,,,,,
"CZK 20,000","CZK 8,819",736368,2+kk,11/1/2022,90 m²,Partly,4,,161.3,899.35,320.1,1764.87,3.18,853.19,435.36,1102.65,913.61,415.0,Prague - Kyje,50.10999,14.5568,"CZK 40,000",Brick,,,Very good,Personal,A,,,,1.0,1.0,1.0,,1.0,1.0,,,,
"CZK 29,690",CZK 0,731887,2+kk,8/31/2022,50 m²,Fully furnished,2,1.0,399.93,432.91,26.98,381.82,37.96,635.24,269.06,511.7,970.71,313.61,Prague - Vinohrady,50.07956,14.45426,"CZK 25,000",Brick,,,Very good,,G,,,,,,,,,,,,,
"CZK 19,500","CZK 1,500",736364,1 bedroom,9/12/2022,33 m²,Partly,2,,316.39,1037.18,438.67,1135.95,350.35,1013.99,444.71,245.89,1993.85,180.33,Prague - Kobylisy,50.13508,14.47123,"CZK 20,000",Prefab concrete,,,Very good,,B,,,,,1.0,,,,1.0,,,,
"CZK 7,500","CZK 1,500",688853,Other,7/1/2022,31 m²,Unfurnished,,,200.57,849.52,203.4,687.9,182.43,686.24,524.74,415.67,640.86,162.21,"Bulharská, Prague - Vršovice",50.07186,14.46305,"CZK 18,000",Brick,,,Very good,Personal,G,,,,,,,,,,,,,
"CZK 23,100","CZK 5,000",732565,2+kk,10/1/2022,58 m²,Partly,3,1.0,345.23,1172.16,708.71,1335.11,118.68,1025.21,877.35,1167.12,43.97,292.3,"Cukrovarnická, Prague - Střešovice",50.094640315475,14.368989679002,"CZK 40,000",Other,Up to 10 years,Luxurious,New-build,Personal,B,Central,1.0,Complete,,1.0,,,1.0,,1.0,,,
"CZK 14,000","CZK 3,500",500196,2+kk,10/1/2022,47 m²,Partly,4,,248.63,1168.93,208.62,888.88,144.29,155.85,471.33,302.49,1263.33,91.95,"Holečkova, Prague - Smíchov",50.0726461,14.3900917,"CZK 17,500",Brick,,,,Personal,C,,,,,,,,,,,,,
"CZK 18,000","CZK 4,000",416712,2+kk,,52 m²,Partly,1,,208.66,1004.29,152.28,823.14,67.65,367.15,296.52,363.58,10.17,238.32,Prague - Břevnov,50.0843838,14.3782596,"CZK 22,000",Brick,,,Very good,Personal,B,,,,,,,,,,,,,
"CZK 14,000","CZK 3,500",735179,Studio,9/7/2022,27 m²,Fully furnished,3,1.0,335.07,589.94,203.34,490.57,272.38,255.37,249.48,103.14,1050.25,44.47,Prague - Střížkov,50.12665,14.49526,"CZK 28,000",Prefab concrete,,,Very good,,G,,,,,1.0,1.0,,,,,,,
"CZK 35,900","CZK 6,000",714313,2+kk,10/2/2022,54 m²,Fully furnished,2,1.0,272.02,210.14,23.15,386.93,95.61,262.55,143.76,286.0,485.98,170.46,"Kollárova, Prague - Karlín",50.09127,14.44921,CZK 0,Brick,Up to 10 years,Standard,New-build,Personal,C,Central,1.0,,1.0,1.0,,1.0,,,,,,
"CZK 35,000","CZK 9,000",732438,4+1,10/1/2022,144 m²,Partly,3,,171.29,211.95,122.48,136.09,18.55,176.22,484.41,802.71,382.54,295.97,Prague - Bubeneč,50.10128,14.42327,"CZK 70,000",Brick,,,Very good,,G,,,,,1.0,,1.0,,,,,,
"CZK 28,000","CZK 4,500",736199,3+kk,9/30/2022,71 m²,Partly,1,1.0,115.76,2692.59,582.06,2669.69,596.64,2422.04,1894.42,1805.42,1543.94,105.72,Prague - Modřany,49.99122,14.4164,"CZK 28,000",Brick,Up to 10 years,Luxurious,New-build,Personal,C,,1.0,,1.0,1.0,,,1.0,,,,,
"CZK 35,000",CZK 490,584599,3+1,10/1/2022,115 m²,Fully furnished,3,,235.09,750.04,190.44,609.02,147.66,390.52,438.65,258.58,274.37,269.57,"Krkonošská, Prague - Vinohrady",50.07954,14.444944,"CZK 35,000",Brick,,Luxurious,Very good,Personal,G,Electric boiler,,Complete,,,,,,,,,,
"CZK 25,000","CZK 3,500",603233,2+kk,9/20/2022,45 m²,Fully furnished,3,1.0,371.48,502.43,57.05,243.25,28.96,223.58,26.92,689.96,327.98,363.81,"Michalská, Prague - Staré Město",50.084426,14.42005,"CZK 25,000",Brick,,Standard,Very good,Personal,,Gas boiler,,,,,,,,,,,,
"CZK 22,500","CZK 4,500",143341,2+kk,9/19/2022,52 m²,Fully furnished,5,1.0,352.95,593.06,21.78,1215.46,540.56,1003.74,518.7,442.18,509.85,433.27,"Vřesová, Prague - Troja",50.1267803,14.4324409,"CZK 22,500",Brick,,,,Personal,,Central,1.0,,,1.0,,1.0,,,,,,
"CZK 14,500","CZK 3,900",736222,Studio,9/12/2022,36 m²,Partly,4,,112.71,1186.18,101.83,1028.19,56.44,779.74,433.23,768.44,926.9,143.6,Prague - Karlín,50.09687,14.46518,"CZK 29,000",Prefab concrete,,,Very good,,G,,,,1.0,,,,,,,,,
"CZK 18,000","CZK 4,000",730591,2+kk,8/20/2022,42 m²,Partly,11,1.0,225.25,509.23,210.61,197.57,313.05,374.5,333.7,365.29,434.6,205.29,Prague - Háje,50.0292,14.53153,"CZK 37,000",Prefab concrete,,,Very good,Personal,A,Central,,Complete,,1.0,,,,,,,,
