Price,Fees,Refundable security deposit,Listing ID,Layout,Avaliable from,Floor,EPC,Floor space,Fully furnished,Condition,Building type,Lift,public_transport,post,shop,bank,restaurant,pharmacy,school,kindergarten,sports_field,playground,District,Latitude,Longitude,Balcony,Terrace,Age,Designe,Ownership,Heating,Terasa 4 m²,Sklep 4 m²,Garage,New-build,Parking,Terasa 12 m²,Reconstruction,Sklep 2 m²,Balkón 6 m²,Terasa 8 m²,Balkón 7 m²,Sklep 5 m²,Balkón 2 m²,Lodžie 4 m²,Lodžie 9 m²,Balkón 8 m²,Sklep 8.1 m²,Balkón 1 m²,Sklep 8 m²,Lodžie 7 m²,Sklep 3.1 m²,Lodžie 1 m²,Terasa 20 m²,Sklep 3 m²,Terasa 5 m²,Lodžie 3 m²,Terasa 32 m²,Domácí mazlíčci vítáni,Administrative fee,Cellar,Balkón 4 m²,Lodžie 10 m²,Sklep 15 m²,Balkón 5 m²,Terasa 9 m²,Balkón 9 m²,Balkón 10 m²,Lodžie 5 m²,Balkón 3 m²,Balkón 40 m²,Terasa 50 m²,Sklep 6 m²,Balkón 15 m²,Terasa 25 m²,Lodžie 14.6 m²,Terasa 10 m²,Terasa 24 m²,Lodžie 6 m²,Sklep 12 m²,Enclosed balcony,Lodžie 5.1 m²,Terasa 11 m²,Lodžie 8 m²,Sklep 7 m²,Terasa 1 m²,Terasa 37 m²,Sklep 1 m²,Terasa 17 m²,Terasa 15 m²,Sklep 14 m²,Terasa 13 m²,Balkón 8.73 m²,Terasa 2.67 m²,Sklep 28 m²,Lodžie 15 m²,Balkón 18 m²,Sklep 3.2 m²,Balkón 30 m²,Terasa 18 m²,Terasa 200 m²,Terasa 350 m²,Sklep 10 m²,Balkón 11 m²,Balkón 28 m²,Balkón 2.29 m²,Terasa 16.1 m²,Terasa 6 m²,Terasa 14 m²,Balkón 13 m²,Balkón 33 m²,Terasa 29 m²,Terasa 100 m²,Terasa 30 m²,Terasa 7 m²,Terasa 45 m²,Balkón 6.1 m²,Sklep 4.1 m²,Terasa 10.1 m²,Terasa 83 m²,Sklep 6.4 m²,Balkón 96 m²,Terasa 27.6 m²,Sklep 1.2 m²,Lodžie 2.7 m²,Lodžie 13 m²,Terasa 19 m²,Sklep 20 m²,Balkón 12 m²,Terasa 14.1 m²,Terasa 40 m²,Balkón 70 m²,Plot space,Lodžie 12 m²
"CZK 11,500","CZK 3,800","CZK 12,000",747463,Small studio,10/25/2022,4,G,21 m²,Fully furnished,Very good,Brick,1.0,180.24,561.73,109.12,301.5,0.46,241.06,390.47,969.32,291.58,421.06,Prague - Karlín,50.09458,14.45509,,,,,,,,,,,,,,,,,,,,,,,,,,,,,,,,,,,,,,,,,,,,,,,,,,,,,,,,,,,,,,,,,,,,,,,,,,,,,,,,,,,,,,,,,,,,,,,,,,,,,,,,,,,,,
"CZK 20,175","CZK 6,725",,744561,Studio,12/9/2022,2,,33 m²,Fully furnished,,,1.0,103.76,101.45,145.18,163.35,18.04,250.43,455.25,533.02,419.63,148.07,"Sokolovská, Prague - Karlín",50.0933405,14.449225,,,,,,,,,,,,,,,,,,,,,,,,,,,,,,,,,,,,,,,,,,,,,,,,,,,,,,,,,,,,,,,,,,,,,,,,,,,,,,,,,,,,,,,,,,,,,,,,,,,,,,,,,,,,,
"CZK 34,898","CZK 11,632",,744188,2 bedroom,12/5/2022,4,,90 m²,Fully furnished,,,1.0,82.8,397.93,96.94,404.98,135.48,353.78,131.46,217.55,654.74,661.34,"Blanická, Prague - Vinohrady",50.0746503,14.439294,,,,,,,,,,,,,,,,,,,,,,,,,,,,,,,,,,,,,,,,,,,,,,,,,,,,,,,,,,,,,,,,,,,,,,,,,,,,,,,,,,,,,,,,,,,,,,,,,,,,,,,,,,,,,
"CZK 32,250","CZK 10,750",,746652,2 bedroom,12/19/2022,3,,89 m²,Fully furnished,,,1.0,82.8,397.93,96.94,404.98,135.48,353.78,131.46,217.55,654.74,661.34,"Blanická, Prague - Vinohrady",50.0746503,14.439294,,,,,,,,,,,,,,,,,,,,,,,,,,,,,,,,,,,,,,,,,,,,,,,,,,,,,,,,,,,,,,,,,,,,,,,,,,,,,,,,,,,,,,,,,,,,,,,,,,,,,,,,,,,,,
"CZK 34,425","CZK 11,475",,742129,2 bedroom,11/1/2022,6,,85 m²,Fully furnished,,,1.0,228.78,477.17,188.19,476.21,152.93,354.17,176.92,420.71,579.69,570.91,"Wenzigova, Prague - Nové Město",50.0708256,14.4316409,1.0,1.0,,,,,,,,,,,,,,,,,,,,,,,,,,,,,,,,,,,,,,,,,,,,,,,,,,,,,,,,,,,,,,,,,,,,,,,,,,,,,,,,,,,,,,,,,,,,,,,,,,,,,,,,,,,
"CZK 16,000","CZK 1,000","CZK 20,000",581561,Studio,11/1/2022,2,B,43 m²,Fully furnished,New-build,Brick,,234.41,357.34,159.96,2095.09,51.1,484.0,276.41,2488.18,416.64,280.22,"Slavětínská, Prague - Klánovice",50.09285,14.667203,,,Up to 10 years,Luxurious,Personal,Distance,1.0,1.0,1.0,1.0,1.0,,,,,,,,,,,,,,,,,,,,,,,,,,,,,,,,,,,,,,,,,,,,,,,,,,,,,,,,,,,,,,,,,,,,,,,,,,,,,,,,,,,,,,,,,,,,,,,,,,
"CZK 20,000","CZK 1,787","CZK 40,000",747458,2 bedroom,10/25/2022,4,G,51 m²,Fully furnished,Very good,Brick,,257.65,999.84,76.83,327.05,63.37,149.96,322.0,276.46,425.93,352.0,"Buchovcova, Prague - Žižkov",50.09032,14.47262,,,,,,,,,,,,,,,,,,,,,,,,,,,,,,,,,,,,,,,,,,,,,,,,,,,,,,,,,,,,,,,,,,,,,,,,,,,,,,,,,,,,,,,,,,,,,,,,,,,,,,,,,,,,,
"CZK 26,175","CZK 8,725",,747460,Studio,12/24/2022,5,,29 m²,Fully furnished,,,1.0,199.29,530.26,41.72,442.51,28.42,296.91,250.49,239.04,477.71,395.44,"Slavíkova, Prague - Žižkov",50.0799163,14.4476377,1.0,1.0,,,,,,,,,,,,,,,,,,,,,,,,,,,,,,,,,,,,,,,,,,,,,,,,,,,,,,,,,,,,,,,,,,,,,,,,,,,,,,,,,,,,,,,,,,,,,,,,,,,,,,,,,,,
"CZK 37,425","CZK 12,475",,747459,2+kk,12/24/2022,3,,60 m²,Fully furnished,,,1.0,170.48,421.6,257.32,426.75,52.86,339.7,54.65,63.39,473.33,754.41,"Balbínova, Prague - Vinohrady",50.0795659,14.4357789,,,,,,,,,,,,,,,,,,,,,,,,,,,,,,,,,,,,,,,,,,,,,,,,,,,,,,,,,,,,,,,,,,,,,,,,,,,,,,,,,,,,,,,,,,,,,,,,,,,,,,,,,,,,,
"CZK 17,000","CZK 2,000","CZK 30,000",525017,2+kk,11/1/2022,3,C,38 m²,Partly,Very good,Prefab concrete,,483.75,1103.55,494.41,737.27,348.93,513.91,727.52,346.53,642.68,319.58,Prague - Libeň,50.120086582637,14.446705930164,,,30 - 50 years,Standard,Personal,,,,,,,1.0,,,,,,,,,,,,,,,,,,,,,,,,,,,,,,,,,,,,,,,,,,,,,,,,,,,,,,,,,,,,,,,,,,,,,,,,,,,,,,,,,,,,,,,,,,,,,,,,,
"CZK 56,250","CZK 18,750",,747450,2+kk,12/4/2022,3,,47 m²,Fully furnished,,,1.0,145.3,409.63,254.35,292.12,59.28,309.45,136.5,419.43,177.03,511.6,"Elišky Krásnohorské, Prague - Josefov",50.0906304,14.4198248,,,,,,,,,,,,,,,,,,,,,,,,,,,,,,,,,,,,,,,,,,,,,,,,,,,,,,,,,,,,,,,,,,,,,,,,,,,,,,,,,,,,,,,,,,,,,,,,,,,,,,,,,,,,,
"CZK 17,000","CZK 7,269","CZK 24,000",747297,2+kk,10/24/2022,9,G,59 m²,Fully furnished,Very good,Prefab concrete,1.0,98.46,811.24,163.79,285.18,344.94,266.59,281.48,532.52,226.88,272.41,"Rýmařovská, Prague - Letňany",50.1358,14.50692,,,10 to 30 years,Luxurious,Personal,Electric boiler,,,,,,,Complete,1.0,,,,,,,,,,,,,,,,,,,,,,,,,,,,,,,,,,,,,,,,,,,,,,,,,,,,,,,,,,,,,,,,,,,,,,,,,,,,,,,,,,,,,,,,,,,,,,,
"CZK 21,000","CZK 6,000","CZK 21,000",747428,3+kk,11/1/2022,9,G,75 m²,Partly,Very good,Prefab concrete,1.0,363.0,578.15,448.16,522.77,63.15,1587.24,269.56,854.38,1320.13,204.04,"Postupická, Prague - Záběhlice",50.04569,14.49196,,,,,,,,,,,1.0,,,1.0,1.0,,,,,,,,,,,,,,,,,,,,,,,,,,,,,,,,,,,,,,,,,,,,,,,,,,,,,,,,,,,,,,,,,,,,,,,,,,,,,,,,,,,,,,,,,,,,,,
"CZK 28,000","CZK 1,387","CZK 42,000",747429,2+kk,10/24/2022,7,A,74 m²,Partly,Very good,Brick,1.0,164.03,284.11,153.59,500.31,135.88,314.59,59.78,59.78,255.77,74.07,"Karpatská, Prague - Vršovice",50.0697,14.47606,,,,,,,,,,,1.0,,,,1.0,1.0,,,,,,,,,,,,,,,,,,,,,,,,,,,,,,,,,,,,,,,,,,,,,,,,,,,,,,,,,,,,,,,,,,,,,,,,,,,,,,,,,,,,,,,,,,,,,
"CZK 20,000","CZK 5,000","CZK 50,000",747427,2+kk,10/24/2022,5,A,56 m²,Partly,New-build,Prefab concrete,1.0,273.48,1267.27,389.64,1364.3,369.74,810.35,645.27,786.94,1076.37,724.78,"Hornoměcholupská, Prague - Horní Měcholupy",50.04896,14.56195,,,,,Personal,,,,1.0,1.0,1.0,,,,,,1.0,1.0,,,,,,,,,,,,,,,,,,,,,,,,,,,,,,,,,,,,,,,,,,,,,,,,,,,,,,,,,,,,,,,,,,,,,,,,,,,,,,,,,,,,,,,,,,,
"CZK 19,000","CZK 5,000","CZK 20,000",588144,2+kk,11/1/2022,3,D,60 m²,Fully furnished,Very good,Brick,,356.63,439.08,219.02,466.02,114.3,241.1,466.64,498.17,598.55,460.83,"Křížkovského, Prague - Žižkov",50.081254,14.449109,,,,,Personal,Gas boiler,,,,,,,Interior,,,,,,1.0,,,,,,,,,,,,,,,,,,,,,,,,,,,,,,,,,,,,,,,,,,,,,,,,,,,,,,,,,,,,,,,,,,,,,,,,,,,,,,,,,,,,,,,,,,
"CZK 10,000","CZK 3,000","CZK 22,000",747416,2+kk,10/24/2022,1,C,46 m²,Fully furnished,Good,Prefab concrete,1.0,233.61,690.06,221.18,696.57,205.08,686.76,97.99,623.83,86.14,43.56,"Bašteckého, Prague - Stodůlky",50.03835,14.33691,,,10 to 30 years,,Personal,,,,1.0,,,,,,,,,,,,,,,,,,,,,,,,,,,,,,,,,,,,,,,,,,,,,,,,,,,,,,,,,,,,,,,,,,,,,,,,,,,,,,,,,,,,,,,,,,,,,,,,,,,,
"CZK 17,000","CZK 3,000","CZK 20,000",688167,Studio,11/1/2022,5,B,34 m²,Partly,New-build,Brick,1.0,23.52,511.31,126.89,531.33,110.09,476.06,287.76,195.6,265.31,456.05,"Petrohradská, Prague - Vršovice",50.06435,14.45252,1.0,,Up to 10 years,Standard,Personal,Central,,,,1.0,,,,,,,,1.0,,1.0,,,,,,,,,,,,,,,,,,,,,,,,,,,,,,,,,,,,,,,,,,,,,,,,,,,,,,,,,,,,,,,,,,,,,,,,,,,,,,,,,,,,,,,,,
"CZK 12,000","CZK 3,300","CZK 20,000",747413,Small studio,10/24/2022,2,G,30 m²,Partly,Very good,Prefab concrete,1.0,165.87,613.37,205.13,616.07,211.27,451.01,537.26,173.03,733.76,105.55,Prague - Hlubočepy,50.03157,14.37066,,,,,,,,,,,,,,,,,,,,,,,,,,,,,,,,,,,,,,,,,,,,,,,,,,,,,,,,,,,,,,,,,,,,,,,,,,,,,,,,,,,,,,,,,,,,,,,,,,,,,,,,,,,,,
"CZK 20,000","CZK 1,000","CZK 20,000",373315,2 bedroom,11/1/2022,1,B,75 m²,Unfurnished,Very good,Brick,,229.85,1102.94,1189.53,2143.55,289.89,959.24,1032.32,1196.75,419.13,572.15,"Pikovická, Prague - Braník",50.0304498,14.4076684,,,,,Personal,,,,,,,,,,,,,,,,,,,,,,,,,,,,,,,,,,,,,,,,,,,,,,,,,,,,,,,,,,,,,,,,,,,,,,,,,,,,,,,,,,,,,,,,,,,,,,,,,,,,,,,,
"CZK 14,500","CZK 4,900","CZK 30,000",747401,1 bedroom,11/10/2022,3,G,30 m²,Fully furnished,Very good,Brick,,79.36,611.57,106.17,303.56,107.15,219.14,363.06,439.06,538.89,625.14,"Zúžená, Prague - Břevnov",50.0834,14.37131,,,,,,,,,,,,,,,,,,,,,,,,,,,,,,,,,,,,,,,,,,,,,,,,,,,,,,,,,,,,,,,,,,,,,,,,,,,,,,,,,,,,,,,,,,,,,,,,,,,,,,,,,,,,,
"CZK 13,000","CZK 4,000","CZK 26,000",747397,2+kk,10/24/2022,,B,50 m²,Partly,Very good,Brick,,854.38,3873.32,792.01,3899.19,3418.2,4016.17,3559.1,3521.34,5135.33,823.79,"Starý lis, Prague - Točná",49.9668,14.42462,,,,,Personal,,,,,,1.0,,,,,,,,,,1.0,,,,,,,,,,,,,,,,,,,,,,,,,,,,,,,,,,,,,,,,,,,,,,,,,,,,,,,,,,,,,,,,,,,,,,,,,,,,,,,,,,,,,,,,
"CZK 13,000","CZK 3,000","CZK 26,000",747392,Small studio,10/24/2022,,G,28 m²,Fully furnished,Very good,Brick,1.0,135.59,836.0,96.57,471.97,124.11,405.08,470.83,221.69,227.25,261.32,"Biskupcova, Prague - Žižkov",50.09153,14.48104,,,,,,,,,,,,,,,,,,,,,,,,,,,,,,,,,,,,,,,,,,,,,,,,,,,,,,,,,,,,,,,,,,,,,,,,,,,,,,,,,,,,,,,,,,,,,,,,,,,,,,,,,,,,,
"CZK 11,500","CZK 4,500","CZK 16,000",308727,Studio,8/15/2022,1,,26 m²,Partly,Very good,Brick,,321.61,1313.49,216.96,1113.77,394.42,254.78,164.22,156.5,890.05,246.07,"Na výhledech, Prague - Strašnice",50.0684525,14.5009037,,,Over 50 years,Standard,Personal,Electric boiler,,,,,,,,,,,,,,,,,,,,,,,,,,,,,,,,,,,,,,,,,,,,,,,,,,,,,,,,,,,,,,,,,,,,,,,,,,,,,,,,,,,,,,,,,,,,,,,,,,,,,,,
"CZK 23,000","CZK 3,500","CZK 25,000",139610,2 bedroom,10/19/2022,5,,46 m²,Fully furnished,Very good,Brick,,140.53,931.29,212.88,415.85,141.86,828.47,460.57,460.04,899.21,361.46,"Kloboučnická, Prague - Nusle",50.0613525,14.4500789,,,,Standard,Personal,,,,,,,,Complete,,,,,,1.0,,,,,,,,,,,,,,,,,,,,,,,,,,,,,,,,,,,,,,,,,,,,,,,,,,,,,,,,,,,,,,,,,,,,,,,,,,,,,,,,,,,,,,,,,,
"CZK 16,499","CZK 2,499","CZK 18,998",747390,2+kk,11/14/2022,3,A,55 m²,Partly,New-build,Low-energy,1.0,343.27,1140.0,1410.58,2058.01,322.96,2182.65,1555.23,2691.62,2132.56,965.94,"Želetická, Prague - Sobín",50.06453,14.27368,,,,,,,,,,1.0,1.0,,,,,1.0,,,,,,1.0,1.0,,,,,,,,,,,,,,,,,,,,,,,,,,,,,,,,,,,,,,,,,,,,,,,,,,,,,,,,,,,,,,,,,,,,,,,,,,,,,,,,,,,,,,
"CZK 22,425","CZK 7,475",,747388,Studio,11/20/2022,3,,30 m²,Fully furnished,,,1.0,258.66,685.78,233.92,407.82,154.16,415.37,547.3,506.41,132.73,464.34,"V Háji, Prague - Holešovice",50.1013638,14.4546402,,,,,,,,,1.0,,,,,,,,,,,,,,,,,,,,,,,,,,,,,,,,,,,,,,,,,,,,,,,,,,,,,,,,,,,,,,,,,,,,,,,,,,,,,,,,,,,,,,,,,,,,,,,,,,,,
"CZK 19,366","CZK 1,634","CZK 42,000",743786,1 bedroom,11/15/2022,3,D,45 m²,Unfurnished,Very good,Brick,1.0,129.24,11.67,129.87,643.14,94.89,101.48,197.83,270.2,412.1,242.21,"Litevská, Prague - Vršovice",50.07158,14.47671,,,,,,,,,,,,,,,,,,,,,,,,,,,,,,,,,,,,,,,,,,,,,,,,,,,,,,,,,,,,,,,,,,,,,,,,,,,,,,,,,,,,,,,,,,,,,,,,,,,,,,,,,,,,,
"CZK 19,900","CZK 4,900","CZK 25,000",719098,2 bedroom,11/1/2022,2,G,43 m²,Fully furnished,New-build,Brick,,218.91,611.55,237.55,492.12,561.42,312.81,250.46,362.38,742.8,282.58,"Počernická, Prague - Strašnice",50.0810281,14.4926073,,,Up to 10 years,Luxurious,Personal,,,,,,,,Complete,,,,,,,1.0,,,,1.0,,,,,,,,,,,,,,,,,,,,,,,,,,,,,,,,,,,,,,,,,,,,,,,,,,,,,,,,,,,,,,,,,,,,,,,,,,,,,,,,,,,,,
"CZK 22,220","CZK 3,000",CZK 0,746587,2+kk,10/19/2022,1,G,56 m²,Fully furnished,Very good,Brick,,233.13,651.17,112.38,907.79,67.69,969.25,438.62,1399.78,409.08,118.92,Prague - Zličín,50.06004,14.29102,,,,,,,,,,,,,,,,,,,,,,,,,1.0,1.0,,,,,,,,,,,,,,,,,,,,,,,,,,,,,,,,,,,,,,,,,,,,,,,,,,,,,,,,,,,,,,,,,,,,,,,,,,,,,,,,,,,
"CZK 20,500","CZK 3,300","CZK 26,000",747380,2 bedroom,10/24/2022,4,C,52 m²,Fully furnished,Very good,Brick,1.0,256.92,374.05,33.18,541.02,325.93,533.79,283.38,128.85,350.98,209.75,"Dětská, Prague - Strašnice",50.07509,14.49559,,,,,,,,,,,1.0,,,,,,,,,,,,,,,,1.0,1.0,,,,,,,,,,,,,,,,,,,,,,,,,,,,,,,,,,,,,,,,,,,,,,,,,,,,,,,,,,,,,,,,,,,,,,,,,,,,,,,,,
"CZK 23,000","CZK 3,000","CZK 52,000",747376,2+kk,12/1/2022,5,G,58 m²,Partly,New-build,Brick,1.0,304.22,307.1,190.87,482.9,214.4,627.63,392.99,190.24,150.2,108.64,"V Mezihoří, Prague - Libeň",50.10226,14.47875,,,,,,,,,1.0,1.0,,,,,,,,,,,,,,,,,,,1.0,,,,,,,,,,,,,,,,,,,,,,,,,,,,,,,,,,,,,,,,,,,,,,,,,,,,,,,,,,,,,,,,,,,,,,,,,,,,,,,,
"CZK 12,900",CZK 600,"CZK 20,000",499632,Studio,10/24/2022,1,,34 m²,Partly,New-build,Brick,1.0,189.98,399.2,93.35,2076.9,171.2,129.81,215.31,270.01,1564.76,478.57,"Na Vinohradu, Prague - Braník",50.0356293,14.4150772,,,Up to 10 years,Standard,Personal,Distance,,,,1.0,,,,,,,,,1.0,,,,,,,,,,,1.0,,,,,,,,,,,,,,,,,,,,,,,,,,,,,,,,,,,,,,,,,,,,,,,,,,,,,,,,,,,,,,,,,,,,,,,,,,,,,,,
"CZK 26,000","CZK 6,000","CZK 32,000",746626,2+kk,10/19/2022,5,B,55 m²,Fully furnished,New-build,Other,1.0,206.79,511.13,187.24,169.76,131.6,323.25,808.8,934.79,479.14,344.34,Prague - Karlín,50.09557,14.4512,,,,,Personal,,,,,1.0,,,,,,,,,,,,,,,,,,,,,1.0,,,,,,,,,,,,,,,,,,,,,,,,,,,,,,,,,,,,,,,,,,,,,,,,,,,,,,,,,,,,,,,,,,,,,,,,,,,,,,
"CZK 14,000","CZK 3,000","CZK 20,000",213428,Studio,11/20/2022,6,,43 m²,Partly,New-build,Brick,1.0,26.88,492.09,143.29,462.65,430.69,470.49,321.08,608.97,311.75,198.3,"Tlumačovská, Prague - Stodůlky",50.0399305,14.3357572,1.0,,Up to 10 years,Luxurious,Personal,Distance,,1.0,,1.0,,,,,,,,,,,,,,,,,,,,,,1.0,,,,,,,,,,,,,,,,,,,,,,,,,,,,,,,,,,,,,,,,,,,,,,,,,,,,,,,,,,,,,,,,,,,,,,,,,,,,,
"CZK 15,000","CZK 3,500","CZK 25,000",577089,Studio,10/23/2022,3,E,34 m²,Partly,Good,Other,,448.36,1129.75,547.04,1376.97,505.39,861.59,1255.8,768.87,1169.63,602.82,"Houdova, Prague - Košíře",50.064252,14.3821221,,,30 - 50 years,Standard,Personal,Central,,,,,1.0,,,,,,,,,,,,,,,,,,,,,,,,,,,,,,,,,,,,,,,,,,,,,,,,,,,,,,,,,,,,,,,,,,,,,,,,,,,,,,,,,,,,,,,,,,,,,,,,,,
"CZK 39,600","CZK 13,200",,717648,2+kk,11/15/2022,2,,46 m²,Fully furnished,,,,249.05,258.88,108.69,237.41,65.07,536.83,294.74,273.73,806.33,231.2,"Míšeňská, Prague - Malá Strana",50.0876118,14.4080467,,,,,,,,,,,,,,,,,,,,,,,,,,,,,,,,,,,,,,,,,,,,,,,,,,,,,,,,,,,,,,,,,,,,,,,,,,,,,,,,,,,,,,,,,,,,,,,,,,,,,,,,,,,,,
"CZK 42,000","CZK 5,000","CZK 47,000",746896,4+kk,12/1/2022,1,G,148 m²,Partly,New-build,Brick,,,,,,,,,,,,Prague - Velká Chuchle,50.01264,14.38504,,,,,,,,,,,1.0,,,,,,,,,,,,,,,,,,,,,,1.0,1.0,,,,,,,,,,,,,,,,,,,,,,,,,,,,,,,,,,,,,,,,,,,,,,,,,,,,,,,,,,,,,,,,,,,,,,,,,,,
"CZK 15,500",CZK 500,"CZK 15,500",273534,2+kk,11/1/2022,1,,50 m²,Partly,,Brick,,280.97,389.55,209.6,740.43,188.47,515.06,235.83,261.31,432.42,218.94,"Lužická, Prague - Vinohrady",50.0735635,14.4449567,,,,,Personal,,,,,,,,,,,,,,,,,,,,,,,,,,,,,,,,,,,,,,,,,,,,,,,,,,,,,,,,,,,,,,,,,,,,,,,,,,,,,,,,,,,,,,,,,,,,,,,,,,,,,,,,
"CZK 44,000","CZK 6,000",CZK 2,358804,4+kk,9/1/2022,2,,130 m²,Fully furnished,,Brick,,332.93,544.63,139.18,267.34,39.05,305.02,264.26,587.07,297.42,107.97,"Betlémské náměstí, Prague - Staré Město",50.0840811,14.4176178,1.0,,,,Personal,,,,1.0,,,,Complete,,,,,,,,,,,,,,,,,,,,,,,,,,,,,,,,,,,,,,,,,,,,,,,,,,,,,,,,,,,,,,,,,,,,,,,,,,,,,,,,,,,,,,,,,,,,,,,,
"CZK 25,000","CZK 4,000","CZK 43,000",735551,3+kk,10/1/2022,3,G,83 m²,Unfurnished,Very good,Brick,,149.2,1278.61,579.68,1498.92,671.57,884.65,577.38,531.29,725.03,679.79,Prague - Smíchov,50.05493,14.40442,,,,,,,,,1.0,,1.0,,,,,,,,,,,,,,1.0,,,,,,,,,,,,,,,,,,,,,,,,,,,,,,,,,,,,,,,,,,,,,,,,,,,,,,,,,,,,,,,,,,,,,,,,,,,,,,,,,,,,
"CZK 21,000","CZK 3,000","CZK 21,000",621181,3+kk,11/1/2022,3,,75 m²,Partly,Very good,Brick,,166.06,225.9,140.93,322.4,103.85,105.04,556.17,485.12,806.35,528.48,"Zenklova, Prague - Libeň",50.120128,14.4581,,,,,Personal,Electric boiler,,,,,,,Complete,,,,,,,1.0,,,,,,,,,,,,,,,,,,,,,,,,,,,,,,,,,,,,,,,,,,,,,,,,,,,,,,,,,,,,,,,,,,,,,,,,,,,,,,,,,,,,,,,,,
"CZK 12,490",CZK 871,"CZK 13,361",747357,Studio,10/25/2022,1,G,42 m²,Partly,Very good,Brick,1.0,242.07,716.8,95.59,529.28,96.44,481.42,502.08,976.93,346.08,275.16,"U parního mlýna, Prague - Holešovice",50.10657,14.45446527777,,,,,Personal,,,,,,,,,,,,,,,,,,,,,,,,,,,,,,"CZK 13,361",,,,,,,,,,,,,,,,,,,,,,,,,,,,,,,,,,,,,,,,,,,,,,,,,,,,,,,,,,,,,,,,,,,,,,,,,,
"CZK 20,000","CZK 9,200","CZK 30,000",746805,3+1,11/7/2022,3,B,78 m²,Partly,Very good,Prefab concrete,1.0,323.31,354.53,231.16,1017.2,145.79,351.23,221.43,290.13,261.6,196.8,"Přecechtělova, Prague - Stodůlky",50.03659,14.33928,,,10 to 30 years,Standard,Personal,Distance,,1.0,,,,,Complete,,,,,,,,,,,,,1.0,,,,,,,,1.0,,,,,,,,,,,,,,,,,,,,,,,,,,,,,,,,,,,,,,,,,,,,,,,,,,,,,,,,,,,,,,,,,,,,,,,,,,,
"CZK 12,500","CZK 4,000","CZK 30,000",553340,2+kk,12/1/2022,12,,42 m²,Fully furnished,Very good,Prefab concrete,,219.22,490.09,426.79,2811.24,374.64,470.37,385.73,1866.86,1259.58,74.89,"U Valu, Prague - Ruzyně",50.0887184,14.3045167,,,,Standard,Personal,Distance,,,,,,,Complete,,,,,,,,,,,,,,,,,,,,,,,,,,,,,,,,,,,,,,,,,,,,,,,,,,,,,,,,,,,,,,,,,,,,,,,,,,,,,,,,,,,,,,,,,,,,,,,,
"CZK 11,500","CZK 4,500","CZK 23,000",266484,2+kk,11/1/2022,1,C,41 m²,Partly,,Brick,,123.46,351.96,108.8,2721.35,899.67,419.41,2020.53,509.12,907.12,369.75,Prague - Ďáblice,50.1453207836,14.4867771564,,,,,Personal,,,,,,1.0,,,,,,,,,,,,,,,,,,,,,,,,,,,,,,,,,,,,,,,,,,,,,,,,,,,,,,,,,,,,,,,,,,,,,,,,,,,,,,,,,,,,,,,,,,,,,,,,,,
"CZK 24,000","CZK 3,000","CZK 26,000",745172,4+kk,10/14/2022,4,E,100 m²,Partly,Very good,Brick,1.0,41.14,225.84,61.56,214.97,51.82,406.76,157.65,238.7,534.55,761.94,Prague - Vinohrady,50.07813,14.43571,,,,,,,,,1.0,,1.0,,,,,,,,,,,,,,,,,,,,,,,1.0,,,,,,,,,,,,,,,,,,,,,,,,,,,,,,,,,,,,,,,,,,,,,,,,,,,,,,,,,,,,,,,,,,,,,,,,,,,
"CZK 18,000","CZK 2,500","CZK 41,000",715239,Studio,4/20/2022,7,A,38 m²,Partly,New-build,Brick,1.0,274.79,810.12,422.82,622.93,137.36,665.53,568.22,316.0,355.76,133.63,"Olgy Havlové, Prague - Žižkov",50.0886644,14.484117,,,Up to 10 years,Luxurious,Personal,Central,,,,,,,,,,,,,1.0,,,,,,,,,,,,,,,,,1.0,,,,,,,,,,,,,,,,,,,,,,,,,,,,,,,,,,,,,,,,,,,,,,,,,,,,,,,,,,,,,,,,,,,,,,,,,
"CZK 33,750","CZK 11,250",,735565,2+kk,11/1/2022,2,,45 m²,Fully furnished,,,1.0,210.86,390.29,319.5,985.86,301.65,338.01,858.33,290.45,385.77,539.9,"Strakonická, Prague - Smíchov",50.0643299,14.4102127,,,,,,,,,,,,,,,,,,,,,,,,,,,,,,,,,,,,,,,,,,,,,,,,,,,,,,,,,,,,,,,,,,,,,,,,,,,,,,,,,,,,,,,,,,,,,,,,,,,,,,,,,,,,,
"CZK 15,000","CZK 2,000","CZK 30,000",145040,1 bedroom,10/24/2022,,,40 m²,Fully furnished,,Brick,,221.47,1124.11,262.51,357.53,275.21,266.92,373.83,642.0,851.8,361.78,Prague - Kobylisy,50.126128,14.4530888,,,,,Personal,Electric boiler,,,,,,,,,,,,,,,,,,,,,,,,,,,,,,,,,,,,,,,,,,,,,,,,,,,,,,,,,,,,,,,,,,,,,,,,,,,,,,,,,,,,,,,,,,,,,,,,,,,,,,,
"CZK 12,000","CZK 3,500","CZK 24,000",508559,1 bedroom,10/24/2022,4,,34 m²,Partly,,Prefab concrete,,421.61,591.17,138.61,633.85,637.35,684.7,261.45,220.71,409.32,214.01,"Útulná, Prague - Malešice",50.0830856,14.493829,,,,,Personal,Central,,,,,,,,1.0,,,,,,,,,,,,,,,,,,,,,,,,,,,,,,,,,,,,,,,,,,,,,,,,,,,,,,,,,,,,,,,,,,,,,,,,,,,,,,,,,,,,,,,,,,,,,,,
"CZK 18,000","CZK 2,000","CZK 30,000",576693,2+kk,11/1/2022,4,A,54 m²,Fully furnished,Very good,Brick,1.0,238.84,156.4,198.69,393.46,68.03,77.5,107.92,256.65,494.22,121.55,"Tusarova, Prague - Holešovice",50.1016999,14.4461424,,,,,Personal,,,,,,1.0,,,,,,,,,,,,,,,,,,,,,,,,,,1.0,1.0,1.0,,,,,,,,,,,,,,,,,,,,,,,,,,,,,,,,,,,,,,,,,,,,,,,,,,,,,,,,,,,,,,,,,,,,,,
"CZK 22,500","CZK 6,000","CZK 20,000",703700,2+kk,12/1/2022,2,C,57 m²,Partly,Very good,Brick,,179.64,657.51,195.05,670.2,72.18,145.32,351.24,1010.16,403.73,262.77,"Plynární, Prague - Holešovice",50.10811,14.44456,,,,,Personal,,,,,,,,Complete,,,,,,,,,,,,,,,,,1.0,,,,,,,,,,,,,,,,,,,,,,,,,,,,,,,,,,,,,,,,,,,,,,,,,,,,,,,,,,,,,,,,,,,,,,,,,,,,,,,
"CZK 41,756","CZK 13,919",,747328,4+1,10/26/2022,2,,102 m²,Fully furnished,,,,183.27,1023.84,165.5,746.11,195.16,730.27,819.74,259.7,600.66,303.35,"Xaveriova, Prague - Smíchov",50.0626569,14.3913498,,,,,,,,,,,,,,,,,,,,,,,,,,,,,,,,,,,,,,,,,,,,,,,,,,,,,,,,,,,,,,,,,,,,,,,,,,,,,,,,,,,,,,,,,,,,,,,,,,,,,,,,,,,,,
"CZK 25,000","CZK 3,800","CZK 25,000",747035,3+kk,11/18/2022,3,G,80 m²,Unfurnished,Very good,Brick,1.0,397.96,1116.03,371.13,884.37,197.39,680.14,609.51,582.44,370.77,349.03,Prague - Břevnov,50.08273,14.37769,,,,,,,,,1.0,,,,,,,,,,,,,1.0,,,,,,,,,,,,,,,,,,,,,,,,,,,,,,,,,,,,,,,,,,,,,,,,,,,,,,,,,,,,,,,,,,,,,,,,,,,,,,,,,,,,,,,
"CZK 18,000","CZK 4,000","CZK 46,000",732362,2+kk,11/1/2022,6,B,63 m²,Partly,New-build,Brick,1.0,87.37,985.86,126.7,812.34,239.26,921.87,733.17,940.07,415.24,340.92,Prague - Vysočany,50.1104462,14.5132181,1.0,,Up to 10 years,Standard,Personal,Central,,,1.0,1.0,1.0,,,,,,,,,,,,,,,1.0,,,,,,,,,,,,,,,,,,,,,,,,,,,,,,,,,,,,,,,,,,,,,,,,,,,,,,,,,,,,,,,,,,,,,,,,,,,,,,,,,,,
"CZK 20,500","CZK 2,000","CZK 30,000",746521,2+kk,11/1/2022,2,G,64 m²,Partly,Very good,Brick,,124.22,514.17,172.48,139.63,79.97,225.12,513.86,312.74,295.06,46.84,Prague - Bubeneč,50.10262,14.3957,,,,,,,,,1.0,,,,,,,,,,,,,,,,1.0,,,,,,,,,,,,,,,,,,,,,,,,,,,,,,,,,,,,,,,,,,,,,,,,,,,,,,,,,,,,,,,,,,,,,,,,,,,,,,,,,,,,
"CZK 26,000","CZK 3,900","CZK 50,000",747321,3+1,10/24/2022,3,G,90 m²,Partly,Very good,Brick,,382.69,615.08,428.7,437.84,403.89,494.22,353.15,874.3,631.07,318.96,"Nad Rokoskou, Prague - Libeň",50.1188,14.45501,,,,,,,,,,,1.0,,Complete,,,,,,,,,,,,,,,,,,,,,,,,,,,,,,,,,,,,,,,,,,,,,,,,,,,,,,,,,,,,,,,,,,,,,,,,,,,,,,,,,,,,,,,,,,,,,,,,
"CZK 20,000","CZK 3,800","CZK 40,000",747324,2+kk,12/1/2022,3,G,60 m²,Fully furnished,Very good,Brick,1.0,41.91,391.08,286.35,454.89,494.93,389.47,370.88,383.49,1157.45,259.18,"Zrzavého, Prague - Řepy",50.06641,14.31094,,,,,,,,,,,1.0,,,,,,,,,,,,,,,,,,,,,,,,,,,,,1.0,,,,,,,,,,,,,,,,,,,,,,,,,,,,,,,,,,,,,,,,,,,,,,,,,,,,,,,,,,,,,,,,,,,,,
"CZK 17,000","CZK 5,000","CZK 34,000",624409,2+kk,11/1/2022,4,G,54 m²,Partly,Very good,Other,1.0,150.25,277.67,204.7,718.22,193.94,11.61,367.1,367.1,390.53,211.0,"Kubánské náměstí, Prague - Vršovice",50.070736,14.479547,,,,,Other,Distance,,,,,,,Complete,,,,,,,,,,,,,,,,,,,,,,,,,,,,,,,,,,,,,,,,,,,,,,,,,,,,,,,,,,,,,,,,,,,,,,,,,,,,,,,,,,,,,,,,,,,,,,,,
"CZK 19,000","CZK 2,500","CZK 38,000",605581,Studio,9/18/2022,2,G,56 m²,Fully furnished,Very good,Brick,1.0,217.55,355.43,177.49,208.16,248.04,282.66,416.33,199.53,505.95,271.97,"Ke Stírce, Prague - Kobylisy",50.121671,14.458096,,,Up to 10 years,Standard,Personal,Gas boiler,,,1.0,,,,,,,,,,1.0,,,,,,,,,,,,,,,,,,,,,,,,,,,,,,,,,,,,,,,,,,,,,,,,,,,,,,,,,,,,,,,,,,,,,,,,,,,,,,,,,,,,,,,,,,
"CZK 22,000","CZK 4,000","CZK 28,000",744764,2+kk,11/4/2022,2,B,51 m²,Fully furnished,New-build,Low-energy,1.0,419.22,1300.74,1308.62,1345.5,1021.54,1398.09,651.81,482.16,1045.55,376.02,"Naskové, Prague - Košíře",50.06164,14.36178,,,Up to 10 years,,Personal,Distance,,1.0,,1.0,1.0,,,,1.0,,,,,,,,,,,,,,,,,,,,,,,,,,,,,,,,,,,,,,,,,,,,,,,,,,,,,,,,,,,,,,,,,,,,,,,,,,,,,,,,,,,,,,,,,,,,,,
"CZK 17,250","CZK 5,750",,747317,2+kk,10/26/2022,4,,55 m²,Fully furnished,,,1.0,133.41,746.44,140.84,173.7,31.83,137.6,327.54,209.19,423.22,58.39,"Nikolaje Alexejeviče Někrasova, Prague - Bubeneč",50.1045704,14.3964833,,,,,,,,,,,,,,,,,,,,,,,,,,,,,,,,,,,,,,,,,,,,,,,,,,,,,,,,,,,,,,,,,,,,,,,,,,,,,,,,,,,,,,,,,,,,,,,,,,,,,,,,,,,,,
"CZK 30,000","CZK 5,000","CZK 30,000",747314,3+1,11/1/2022,2,G,127 m²,Partly,Very good,Brick,,315.08,403.38,197.67,271.51,167.57,488.54,192.41,1150.55,407.0,222.48,"Čechova, Prague - Bubeneč",50.1024,14.42027,,,,,,,,,,,,,,,,,,,,,,,,,,,,,,,,,,,,,,,,,,,,,,,,,,,,,,,,,,,,,,,,,,,,,,,,,,,,,,,,,,,,,,,,,,,,,,,,,,,,,,,,,,,,,
"CZK 12,000","CZK 2,000","CZK 12,000",131411,Studio,11/1/2022,4,,20 m²,Fully furnished,Very good,Brick,,94.0,222.82,40.58,189.53,23.13,29.1,182.63,300.98,417.98,343.94,"Seifertova, Prague - Žižkov",50.0842289,14.4529373,,,Over 50 years,Standard,Personal,Electric boiler,,,,,,,Complete,,,,,,,,,,,,,,,,,,,,,,,,,,,,,,,,,,,,,,,,,,,,,,,,,,,,,,,,,,,,,,,,,,,,,,,,,,,,,,,,,,,,,,,,,,,,,,,,
"CZK 13,500","CZK 3,500","CZK 20,000",501064,1 bedroom,11/1/2022,,,35 m²,Fully furnished,Very good,Brick,,201.22,1175.81,288.12,861.16,401.72,467.23,632.44,555.86,665.07,388.51,"U Hadovky, Prague - Dejvice",50.1011137,14.3749753,,,,Luxurious,Personal,,,,,,,,Interior,,,,,,,,,,,,,,,,,,,,,,,,,,,,,,,,,,,,,,,,,,,,,,,,,,,,,,,,,,,,,,,,,,,,,,,,,,,,,,,,,,,,,,,,,,,,,,,,
"CZK 24,857","CZK 4,300","CZK 49,714",714225,Studio,10/14/2022,6,D,39 m²,Fully furnished,Very good,Brick,1.0,135.82,343.32,168.96,378.88,114.68,260.62,313.3,627.62,231.5,535.35,"Washingtonova, Prague - Nové Město",50.080550474458,14.430927343016,,,Over 50 years,Standard,Personal,Electric boiler,,,,,,,Complete,,,,,,,,,,,,,,,,,,,,,,,,,,,,,,,,,,,,,,,,,,,,,,,,,,,,,,,,,,,,,,,,,,,,,,,,,,,,,,,,,,,,,,,,,,,,,,,,
"CZK 30,588","CZK 5,600","CZK 61,198",714221,2+kk,9/15/2022,2,D,42 m²,Fully furnished,Very good,Brick,1.0,114.97,322.47,148.11,358.42,93.83,239.77,292.45,648.47,210.65,514.5,"Washingtonova, Prague - Nové Město",50.080715418652,14.431066350791,,,Over 50 years,Standard,Personal,Electric boiler,,,,,,,Complete,,,,,,,,,,,,,,,,,,,,,,,,,,,,,,,,,,,,,,,,,,,,,,,,,,,,,,,,,,,,,,,,,,,,,,,,,,,,,,,,,,,,,,,,,,,,,,,,
"CZK 25,464","CZK 4,300","CZK 50,928",719023,Studio,10/15/2022,6,G,34 m²,Fully furnished,Very good,Brick,1.0,123.62,331.12,156.76,367.07,102.48,248.42,301.1,639.82,219.3,523.15,"Washingtonova, Prague - Nové Město",50.08065,14.431,,,Over 50 years,Standard,Personal,Electric boiler,,,,,,,Complete,,,,,,,,,,,,,,,,,,,,,,,,,,,,,,,,,,,,,,,,,,,,,,,,,,,,,,,,,,,,,,,,,,,,,,,,,,,,,,,,,,,,,,,,,,,,,,,,
"CZK 21,190","CZK 4,300","CZK 42,380",747307,Studio,11/1/2022,3,D,31 m²,Fully furnished,Very good,Brick,1.0,89.34,325.18,164.01,204.47,66.92,89.63,146.08,352.5,546.1,468.33,"Petrská, Prague - Nové Město",50.0919,14.43588,,,,,,,,,,,,,,,,,,,,,,,,,,,,,,,,,,1.0,,,,,,,,,,,,,,,,,,,,,,,,,,,,,,,,,,,,,,,,,,,,,,,,,,,,,,,,,,,,,,,,,,,,,,,,,,,
"CZK 20,000","CZK 6,000","CZK 40,000",746533,Studio,10/20/2022,3,G,40 m²,Fully furnished,New-build,Brick,,413.54,744.02,401.31,592.5,438.03,733.32,542.0,902.11,1.99,407.83,"Pod Klaudiánkou, Prague - Podolí",50.05435,14.42251,,,Up to 10 years,Luxurious,,Central,,,,,,,Complete,,,,,,,,,,,,,,,,,,,,,,,,,,,,,,,,,,,,,,,,,,,,,,,,,,,,,,,,,,,,,,,,,,,,,,,,,,,,,,,,,,,,,,,,,,,,,,,,
"CZK 18,000","CZK 4,000","CZK 24,000",735563,2 bedroom,11/1/2022,2,G,67 m²,Partly,Good,Brick,1.0,53.14,744.49,10.83,499.37,74.4,40.81,754.38,250.75,197.06,128.37,Prague - Vinohrady,50.07782,14.4771,,,,,Other,Central,,,,,,,,,,,,,,,,,,,,,,,,,,,,,,,,,,,,,,,,,,,,,,,,,,,,,,,,,,,,,,,,,,,,,,,,,,,,,,,,,,,,,,,,,,,,,,,,,,,,,,,
"CZK 15,990","CZK 3,000","CZK 17,000",745442,1 bedroom,10/24/2022,4,G,40 m²,Partly,Very good,Low-energy,,73.13,649.66,191.22,1162.14,190.47,124.32,919.62,725.78,818.98,527.72,"Na Neklance, Prague - Smíchov",50.06122,14.40449,,,,,,,,,,,1.0,,,,,,,,,,,,,,,,,,,,,,,1.0,,,,,,,,,,,,,,,,,,,,,,,,,,,,,,,,,,,,,,,,,,,,,,,,,,,,,,,,,,,,,,,,,,,,,,,,,,,
"CZK 9,000","CZK 3,000",CZK 0,284484,Small studio,11/1/2022,1,,27 m²,Fully furnished,,Brick,,492.34,478.87,294.45,489.22,322.63,305.38,267.36,601.6,1145.41,90.52,Prague - Vokovice,50.0945847,14.3564837,,,,,Personal,Gas boiler,,,,,,,,,,,,,,,,,,,,,,,,,,,,,,,,,,,,,,,,,,,,,,,,,,,,,,,,,,,,,,,,,,,,,,,,,,,,,,,,,,,,,,,,,,,,,,,,,,,,,,,
"CZK 24,500","CZK 5,500","CZK 40,000",566587,2+kk,12/1/2022,3,,59 m²,Fully furnished,,Brick,1.0,514.61,1251.36,638.33,1232.91,800.86,774.73,1190.65,1245.31,933.56,201.61,"Modrého, Prague - Hloubětín",50.1059942,14.523181,,,Up to 10 years,Luxurious,Personal,Central,,,1.0,1.0,1.0,,,,,,,,,,,,,,,,,,,,,,,,,,,,,,1.0,,,,,,,,,,,,,,,,,,,,,,,,,,,,,,,,,,,,,,,,,,,,,,,,,,,,,,,,,,,,,,,,,,,,
"CZK 15,001","CZK 1,000","CZK 30,000",540339,2+kk,10/1/2022,,G,44 m²,Unfurnished,,Brick,,112.34,1546.08,445.39,1520.99,176.6,1203.39,1177.64,257.39,369.76,280.43,"Čistovická, Prague - Řepy",50.0743287,14.3177437,,,,,Personal,,,,,,,,,,,,,,,,,,,,,,,,,,,,,,,,,,,,,,,,,,,,,,,,,,,,,,,,,,,,,,,,,,,,,,,,,,,,,,,,,,,,,,,,,,,,,,,,,,,,,,,,
"CZK 18,000","CZK 4,000","CZK 30,000",490306,2+kk,11/2/2022,5,C,53 m²,Fully furnished,New-build,Brick,,291.65,796.5,495.73,3725.65,636.29,1418.98,891.55,,1980.85,423.03,Prague - Čakovice,50.1578335,14.5233121,,,,,Personal,,,,,,,,,,,,,,,,,,,,,,,,,,,,,,,,,,,,,1.0,,,,,,,,,,,,,,,,,,,,,,,,,,,,,,,,,,,,,,,,,,,,,,,,,,,,,,,,,,,,,,,,,,,
"CZK 49,500","CZK 16,500",,746686,2 bedroom,10/26/2022,6,,160 m²,Fully furnished,,,1.0,378.41,424.44,160.64,353.94,178.02,209.44,330.47,847.09,220.58,277.38,"Sochařská, Prague - Bubeneč",50.1019195,14.4242685,,,,,,,,,,,,,,,,,,,,,,,,,,,,,,,,,,,,,,,,,,,,,,,,,,,,,,,,,,,,,,,,,,,,,,,,,,,,,,,,,,,,,,,,,,,,,,,,,,,,,,,,,,,,,
"CZK 20,000","CZK 2,000","CZK 20,000",747282,2 bedroom,10/24/2022,2,E,72 m²,Partly,Good,Brick,1.0,70.76,245.37,77.21,539.16,46.4,193.96,352.91,16.15,399.82,375.08,"Šumavská, Prague - Vinohrady",50.0759,14.44407,,,,,,,,,,,1.0,,,,,,,,,,,,,,,,,,,,,,,,,,,,,,,,,,,,,,,,,,,,,,,,,,,,,,,,,,,,,,,,,,,,,,,,,,,,,,,,,,,,,,,,,,,,,,,,,,
"CZK 16,000","CZK 10,000","CZK 32,000",747272,3+1,10/26/2022,4,G,68 m²,Unfurnished,Good,Prefab concrete,1.0,164.69,78.6,128.06,75.91,157.18,56.12,466.64,213.57,790.22,125.76,"Krškova, Prague - Hlubočepy",50.03392,14.37665,,,,,,,,,,,1.0,,,,,,,,,,,,,,,,,,,,,1.0,,,,,,,,,,,,,,,,,,,,,,,,,,,,,,,,,,,,,,,,,,,,,,,,,,,,,,,,,,,,,,,,,,,,,,,,,,,,,
"CZK 18,000","CZK 6,000","CZK 24,000",746648,3+1,11/1/2022,13,G,78 m²,Partly,Very good,Prefab concrete,1.0,218.41,607.32,359.6,393.97,164.97,403.63,174.26,630.81,606.8,139.84,"Bítovská, Prague - Michle",50.04589,14.4514,,,,,Personal,Central,,,,,1.0,,Complete,,,,,,,,,,,,,,,,,,,,,,,,1.0,,,,,,,,,,,,,,,,,,,,,,,,,,,,,,,,,,,,,,,,,,,,,,,,,,,,,,,,,,,,,,,,,,,,,,,,
"CZK 14,500","CZK 5,785","CZK 20,000",526561,2+kk,12/1/2022,1,,60 m²,Partly,,Brick,,72.23,803.2,709.32,3179.83,655.29,1083.37,872.38,785.59,946.11,377.74,Prague - Kbely,50.1397126,14.5473277,,,10 to 30 years,,Personal,Distance,,,,,,,,,,,,,,,,,,,,,,,,,,,,,,,,,,,,,,,,,,,,,,,,,,,,,,,,,,,,,,,,,,,,,,,,,,,,,,,,,,,,,,,,,,,,,,,,,,,,,,,
"CZK 43,000","CZK 6,500",CZK 0,328770,3+kk,12/6/2021,3,,92 m²,Fully furnished,New-build,Brick,1.0,127.84,622.21,113.7,719.84,173.59,657.84,458.51,526.25,398.43,423.05,"U Zvonařky, Prague - Vinohrady",50.0691704,14.4336586,,1.0,Up to 10 years,Luxurious,Personal,Gas boiler,,,1.0,1.0,1.0,,,,,,,1.0,,,,,,,,,,,,,,,,,,,,,,,,,1.0,1.0,,,,,,,,,,,,,,,,,,,,,,,,,,,,,,,,,,,,,,,,,,,,,,,,,,,,,,,,,,,,,,,,,
CZK 1,"CZK 2,000",CZK 1,747235,3+1,10/24/2022,2,G,107 m²,Unfurnished,Under construction,Brick,,261.32,369.9,189.95,760.08,189.22,495.41,255.48,280.96,452.06,238.59,"Lužická, Prague - Vinohrady",50.07363,14.44468,,,,,Personal,,,,,,,,,,,,,,,,,,,,,,,,,,,,,,,,,,,,,,,,1.0,,,,,,,,,,,,,,,,,,,,,,,,,,,,,,,,,,,,,,,,,,,,,,,,,,,,,,,,,,,,,,,,
"CZK 19,000","CZK 2,300","CZK 30,000",705428,2+kk,12/1/2022,3,,45 m²,Fully furnished,Very good,Brick,1.0,403.36,440.06,187.07,466.99,97.98,220.29,455.26,551.53,599.68,646.83,"Bořivojova, Prague - Žižkov",50.08287,14.44889,,,,,Personal,,,,,,,,Complete,,,,,,,,,,,,,,,,,,,,,,,,,,,,,,,,,,,,,,,,,,,,,,,,,,,,,,,,,,,,,,,,,,,,,,,,,,,,,,,,,,,,,,,,,,,,,,,,
"CZK 19,900","CZK 4,100","CZK 24,000",529061,2+kk,11/1/2022,2,A,68 m²,Unfurnished,New-build,Brick,1.0,114.59,243.5,104.77,1462.31,277.64,899.43,878.29,930.09,827.68,273.74,Prague - Krč,50.0199331,14.4536045,1.0,,,,Personal,,,,,,,,,,,,,,,,,,,,,,,,,,,,,,,,,,,,,,,,,,,,,,,,,,,,,,,,,,,,,,,,,,,,,,,,,,,,,,,,,,,,,,,,,,,,,,,,,,,,,,,,
"CZK 21,000","CZK 4,000","CZK 75,000",747101,3+1,10/23/2022,1,B,82 m²,Partly,Very good,Prefab concrete,,253.83,355.35,279.33,399.14,374.83,416.63,388.53,886.46,716.38,86.66,"Nikoly Vapcarova, Prague - Modřany",50.00633,14.42138,,,,,,,,,1.0,,1.0,,,,,,,,,,,,,,,,,,,,,,,,,,,,,,,,,,,,,,,,,,,,,,,,,,,,,,,,,,,,,,,,,,,,,,,,,,,,,,,,,,,,,,,,,,,,,,,,,,
"CZK 17,000","CZK 5,000","CZK 25,000",654021,2 bedroom,12/1/2022,2,D,52 m²,Partly,Very good,Prefab concrete,,238.13,148.07,207.47,195.17,299.02,387.43,253.27,428.89,834.67,284.48,Prague - Malešice,50.0829438,14.500182,,,,,Personal,Distance,,,,,1.0,,Complete,,,,,,,,,,,,,,,,,,,,,,,,,,,,,,,,,,,,,,,,,,,,,,,,,,,,,,,,,,,,,,,,,,,,,,,,,,,,,,,,,,,,,,,,,,,,,,,,
"CZK 20,000","CZK 5,700","CZK 30,000",564980,2+kk,,1,,45 m²,Fully furnished,Very good,Brick,,331.92,614.65,328.17,740.87,316.86,542.74,395.31,590.44,170.82,346.27,"Rejskova, Prague - Vinohrady",50.0667631,14.4340247,,,,,Personal,Electric boiler,,1.0,,,,,Interior,,,,,,,,,,,,,,,,,,,,,,,,,,,,,,,,,,,,,,,,,,,,,,,,,,,,,,,,,,,,,,,,,,,,,,,,,,,,,,,,,,,,,,,,,,,,,,,,
"CZK 20,250","CZK 6,750",,747234,2 bedroom,10/26/2022,3,,98 m²,Fully furnished,,,,192.35,383.34,427.05,822.58,481.62,462.91,761.57,364.78,635.91,363.41,"Na Okrouhlíku, Prague - Libeň",50.1205891,14.4642463,,,,,,,,,,,,,,,,,,,,,,,,,,,,,,,,,,,,,,,,,,,,,,,,,,,,,,,,,,,,,,,,,,,,,,,,,,,,,,,,,,,,,,,,,,,,,,,,,,,,,,,,,,,,,
"CZK 15,000","CZK 4,000","CZK 30,000",741728,2+kk,9/22/2022,3,G,40 m²,Partly,Very good,Prefab concrete,1.0,732.4,1059.19,980.14,1158.92,175.51,1042.93,548.26,670.49,192.28,726.84,Prague - Hostivař,50.03688,14.54672,,,,,Personal,Central,,,,,,,Complete,,,,,,,,,,,,,1.0,,,,,,,,,,,,,,,,,,,,,,,,,,,,,,,,,,,,,,,,,,,,,,,,,,,,,,,,,,,,,,,,,,,,,,,,,,,,,,,,,,,
"CZK 16,000","CZK 3,500","CZK 30,000",662820,Studio,10/1/2022,1,G,43 m²,Partly,New-build,Brick,1.0,426.71,1033.48,242.4,1012.54,635.67,576.3,533.04,449.67,1259.73,70.72,"Zakšínská, Prague - Střížkov",50.13041,14.49516,1.0,,,,Personal,,,,1.0,,,,,,,,,1.0,,,,,,,,,,,,,,1.0,,,,,,,,,,,,,,,,,,,,,,,,,,,,,,,,,,,,,,,,,,,,,,,,,,,,,,,,,,,,,,,,,,,,,,,,,,,,,
"CZK 17,500","CZK 4,900","CZK 35,000",740986,2+kk,11/1/2022,6,G,44 m²,Partly,New-build,Brick,1.0,723.78,1509.39,1245.03,1549.36,755.23,1542.52,1033.44,1108.57,984.48,987.82,Prague - Hostivař,50.04744,14.53055,,,,Standard,Personal,Distance,,,1.0,,1.0,,,,,,,,,,,,,,1.0,,,,,,,,,,,,1.0,,,,,,,,,,,,,,,,,,,,,,,,,,,,,,,,,,,,,,,,,,,,,,,,,,,,,,,,,,,,,,,,,,,,,,,,
"CZK 38,500",CZK 0,"CZK 40,000",400077,3+1,1/1/2023,2,C,109 m²,Partly,,Brick,1.0,217.76,598.71,265.89,684.2,336.87,315.43,399.12,752.22,653.7,484.73,"Talichova, Prague - Břevnov",50.0879235,14.3636788,,,,,Personal,Central,,,,,,,,,,,,,,,,,,,,,,,,,,,,,,,,,,,,,,,,1.0,1.0,,,,,,,,,,,,,,,,,,,,,,,,,,,,,,,,,,,,,,,,,,,,,,,,,,,,,,,,,,,,,,
"CZK 19,500","CZK 4,558","CZK 25,000",747226,2 bedroom,10/24/2022,5,G,53 m²,Partly,Good,Brick,,68.47,1024.35,99.34,338.92,104.21,311.36,123.31,366.99,678.07,110.42,Prague - Bubeneč,50.10685,14.39612,,,,,,,,1.0,1.0,,,,,,,,,,,,,,,,,,,,,,,,,,,,,,,,,,,,,,,,,,,,,,,,,,,,,,,,,,,,,,,,,,,,,,,,,,,,,,,,,,,,,,,,,,,,,,,,,,,,
"CZK 25,400","CZK 4,400","CZK 35,000",565913,3+kk,7/1/2019,5,C,91 m²,Partly,Very good,Brick,1.0,290.46,1247.59,1124.79,2529.49,92.33,396.92,721.61,1660.1,1534.23,172.0,"V Zeleném údolí, Prague - Kunratice",50.0214074,14.4662731,,,10 to 30 years,Luxurious,Personal,Distance,,,1.0,1.0,1.0,1.0,Complete,,,,,,,,,,,,,,,,,,,,,,,,,,,1.0,,,,,,,,,,,,,,,,,,,,,,,,,,,,,,,,,,,,,,,,,,,,,,,,,,,,,,,,,,,,,,,,,,,,,
"CZK 12,500","CZK 3,000","CZK 25,000",746118,Studio,10/17/2022,2,G,35 m²,Fully furnished,Very good,Prefab concrete,,201.93,691.02,142.92,614.07,135.65,655.7,425.06,202.6,531.27,193.61,"Vondroušova, Prague - Řepy",50.06449,14.30157,,,,,,,,,,,1.0,,,1.0,,,,,,,,,,,,,,,,,,,,,,,,,,,,,,,,,,,,,,,,,,,,,,,,,,,,,,,,,,,,,,,,,,,,,,,,,,,,,,,,,,,,,,,,,,,,,,,
"CZK 14,000","CZK 2,600","CZK 14,000",746381,Small studio,11/1/2022,6,G,30 m²,Unfurnished,Very good,Brick,,136.32,25.47,152.01,184.93,116.08,211.54,381.7,492.15,353.08,443.25,"Přístavní, Prague - Holešovice",50.10422,14.44843,,,,,,,,1.0,,,,,,,,,,,1.0,,,,,,,,,,,,,,,,,,,,,,,,,,,,,,,,,,,,,,,,,,,,,,,,,,,,,,,,,,,,,,,,,,,,,,,,,,,,,,,,,,,,,,,,,,
"CZK 15,000","CZK 6,998","CZK 25,000",245201,2+kk,10/19/2022,3,,49 m²,Partly,,Brick,1.0,256.8,339.39,283.99,274.22,274.25,300.82,706.23,859.75,1487.1,401.33,"Hnězdenská, Prague - Troja",50.1262549126,14.418264019,,,,,Personal,Central,,,1.0,1.0,1.0,,,,,,,,,,,,,,,,,,,,,,,,,,,,,,,,,,1.0,,,1.0,,,,,,,,,,,,,,,,,,,,,,,,,,,,,,,,,,,,,,,,,,,,,,,,,,,,,,,,,,,,,
"CZK 16,000","CZK 3,500","CZK 25,000",747039,Small studio,10/22/2022,3,A,35 m²,Fully furnished,Very good,Brick,1.0,188.38,298.81,282.93,303.83,237.42,182.23,701.51,348.52,349.72,113.85,"Jemnická, Prague - Michle",50.04898,14.45703,,,,,,Central,,,1.0,1.0,,,,,,,,,,,,,,,,,,,,,,,,,,,,,,,,,,,,,,,,,,,,,,,,,,,,,,,,,,,,,,,,,,,,,,,,,,,,,,,,,,,,,,,,,,,,,,,,,,,
"CZK 14,000","CZK 2,300","CZK 20,000",745250,Studio,10/25/2022,1,G,40 m²,Partly,Very good,Brick,,378.93,951.45,269.95,786.53,428.13,920.27,279.63,122.79,839.47,361.04,"Zdařilá, Prague - Nusle",50.05516,14.44648,,,,,Personal,,,,,,,,,,,,,,,,,,,,,,,,,,,,,,,,,,,,,,,,,,,,,,,,,,,,,,,,,,,,,,,,,,,,,,,,,,,,,,,,,,,,,,,,,,,,,,,,,,,,,,,,
"CZK 16,000","CZK 3,000","CZK 50,000",746221,1 bedroom,10/17/2022,2,G,45 m²,Partly,Very good,Brick,1.0,201.57,585.57,47.99,684.45,193.71,421.51,363.76,267.7,337.41,532.05,"Novgorodská, Prague - Vršovice",50.06472,14.45098,,,,,,,,,,,1.0,,Complete,1.0,,,,,1.0,,,,,,,,,,,,,,,1.0,,,,,,,,,,,,,,,,,,,,,,,,,,,,,,,,,,,,,,,,,,,,,,,,,,,,,,,,,,,,,,,,,,,,,,,,,,,
"CZK 21,000","CZK 4,000","CZK 25,000",747202,2+kk,10/23/2022,3,G,65 m²,Partly,New-build,Brick,1.0,311.44,1128.0,414.14,823.45,609.45,632.06,477.81,711.79,1770.74,112.8,"Otopašská, Prague - Jinonice",50.05594,14.34861,,,,,,,,,1.0,1.0,,,,,,,,,,,,,,,,,,,,,,,,,,,,,,,,,,,,,,,1.0,,,,,,,,,,,,,,,,,,,,,,,,,,,,,,,,,,,,,,,,,,,,,,,,,,,,,,,,,,,,
"CZK 22,125","CZK 7,375",,743334,1 bedroom,12/1/2022,2,,54 m²,Fully furnished,,,1.0,256.43,673.8,672.43,1344.08,205.23,475.07,299.92,396.69,376.69,229.89,"Slévačská, Prague - Hloubětín",50.1044601,14.5518792,,,,,,,,,,,,,,,,,,,,,,,,,,,,,,,,,,,,,,,,,,,,,,,,,,,,,,,,,,,,,,,,,,,,,,,,,,,,,,,,,,,,,,,,,,,,,,,,,,,,,,,,,,,,,
"CZK 31,500","CZK 10,500",,746228,2 bedroom,12/17/2022,3,,75 m²,Fully furnished,,,1.0,286.21,293.35,195.84,193.77,92.11,378.02,243.35,1039.65,522.33,334.73,"Čechova, Prague - Bubeneč",50.1016621,14.4210737,,,,,,,,,,,,,,,,,,,,,,,,,,,,,,,,,,,,,,,,,,,,,,,,,,,,,,,,,,,,,,,,,,,,,,,,,,,,,,,,,,,,,,,,,,,,,,,,,,,,,,,,,,,,,
"CZK 16,711","CZK 4,000","CZK 17,000",746255,3+kk,10/18/2022,4,G,99 m²,Partly,Good,Brick,1.0,132.32,724.22,171.21,424.33,69.84,458.88,315.63,566.47,243.45,354.39,"Čs. armády, Prague - Bubeneč",50.10023,14.40394,,,,,,,,,,,,,,,,,,,,,,,,,,,,,,,,,,,,,,,,,,,,,,,,,,,,,,,,,,,,,,,,,,,,,,,,,,,,,,,,,,,,,,,,,,,,,,,,,,,,,,,,,,,,,
"CZK 37,500","CZK 12,500",,747210,2+kk,12/23/2022,3,,60 m²,Fully furnished,,,1.0,239.73,541.75,45.52,270.79,35.61,285.18,465.63,625.46,639.52,581.38,"Mečislavova, Prague - Nusle",50.0633237,14.4440058,,,,,,,,,,,,,,,,,,,,,,,,,,,,,,,,,,,,,,,,,,,,,,,,,,,,,,,,,,,,,,,,,,,,,,,,,,,,,,,,,,,,,,,,,,,,,,,,,,,,,,,,,,,,,
"CZK 25,028","CZK 8,342",,747209,1 bedroom,12/23/2022,5,,34 m²,Fully furnished,,,,192.54,684.55,33.13,461.2,44.3,459.54,274.15,304.32,543.36,239.67,"Bulharská, Prague - Vršovice",50.0717467,14.4598954,,,,,,,,,,,,,,,,,,,,,,,,,,,,,,,,,,,,,,,,,,,,,,,,,,,,,,,,,,,,,,,,,,,,,,,,,,,,,,,,,,,,,,,,,,,,,,,,,,,,,,,,,,,,,
"CZK 30,000","CZK 6,000","CZK 36,000",688922,3+kk,1/1/2023,5,E,94 m²,Fully furnished,Very good,Brick,1.0,161.4,397.16,102.71,297.58,13.61,246.43,312.7,433.93,663.36,331.56,"Bořivojova, Prague - Žižkov",50.08298,14.45354,,,10 to 30 years,Standard,Personal,,,,,,,,Complete,,,,,,1.0,,,,,,,,,,,,,,,,,,,,,,,,,,,,,,,,,,,,,,,,,,,,,,,,,,,,,,,,,,,,,,,,,,,,,,,,,,,,,,,,,,,,,,,,,,
"CZK 20,000","CZK 3,200","CZK 20,000",746417,2+kk,11/1/2022,1,G,46 m²,Unfurnished,Very good,Brick,,185.23,683.53,147.26,255.34,148.94,536.76,874.45,455.63,776.61,344.37,"Dolnokrčská, Prague - Krč",50.03931,14.43834,,,,,,,,,,,1.0,,,,,,,,,,,,,,,,,,,,1.0,,,,,,,,,,,,,,,,,,,,,,,,,,,,,,,,,,,,,,,,,,,,,,,,,,,,,,,,,,,,,,,,,,,,,,,,,,,,,,
"CZK 21,000","CZK 3,813","CZK 40,000",746414,Studio,11/1/2022,1,B,37 m²,Fully furnished,New-build,Low-energy,1.0,462.45,2135.85,1754.48,2130.01,543.35,1998.32,1446.13,2004.04,669.32,1368.26,"Šífařská, Prague - Hodkovičky",50.01912,14.40123,,,,,Personal,,,,,1.0,1.0,,,1.0,,,,,,,,,,,,,,,,,,,,,,,,,,1.0,,,,,,,,,,,,,,,,,,,,,,,,,,,,,,,,,,,,,,,,,,,,,,,,,,,,,,,,,,,,,,,,,,,,,
"CZK 31,000","CZK 7,000","CZK 36,000",683577,3+kk,11/1/2022,2,B,78 m²,Partly,Very good,Brick,1.0,338.48,2489.79,349.28,1904.32,81.11,1339.55,834.07,365.35,967.76,522.72,"U Matěje, Prague - Dejvice",50.11349,14.37966,,,Up to 10 years,Luxurious,Personal,,,,1.0,1.0,1.0,,,,,,,,,,,,,,1.0,,,,,,,,,,,,,,,,,,,,,,,,,,,,,,,,,,,,,,,,,,,,,,,,,,,,,,,,,,,,,,,,,,,,,,,,,,,,,,,,,,,,
"CZK 19,800","CZK 3,200","CZK 25,000",194921,2+kk,1/15/2023,4,,50 m²,Partly,,Brick,1.0,308.91,361.26,35.59,291.57,36.43,728.03,187.55,434.6,889.2,210.42,"Lucemburská, Prague - Žižkov",50.0791983,14.4553359,,,,,Personal,Gas boiler,,,,,,,Complete,,,,,,,,,,,,,,,,,,,,,,,,,,,,,,,,,,,,,,,,,,,,,,,,,,,,,,,,,,,,,,,,,,,,,,,,,,,,,,,,,,,,,,,,,,,,,,,,
"CZK 18,100","CZK 2,900","CZK 25,000",93167,2+kk,12/1/2022,4,,52 m²,Partly,Very good,Brick,1.0,141.21,722.51,264.02,196.8,177.36,236.9,393.73,220.08,442.69,405.61,"Křišťanova, Prague - Žižkov",50.0813858691,14.4591128826,,,,Standard,Personal,Gas boiler,,1.0,,,,,Complete,,,,,,,,,,,,,,,,,,,,,,,,,,,,,,,,,,,,,,,,,,,,,,,,,,,,,,,,,,,,,,,,,,,,,,,,,,,,,,,,,,,,,,,,,,,,,,,,
"CZK 24,750","CZK 8,250",,744147,1 bedroom,12/4/2022,2,,33 m²,Fully furnished,,,,135.92,324.33,21.29,391.1,0.72,128.36,277.99,286.71,365.94,338.43,"Sokolovská, Prague - Karlín",50.0922065,14.4436651,1.0,1.0,,,,,,,,,,,,,,,,,,,,,,,,,,,,,,,,,,,,,,,,,,,,,,,,,,,,,,,,,,,,,,,,,,,,,,,,,,,,,,,,,,,,,,,,,,,,,,,,,,,,,,,,,,,
"CZK 16,000","CZK 7,600","CZK 32,000",746413,2+kk,10/18/2022,2,G,52 m²,Fully furnished,Very good,Prefab concrete,1.0,107.25,880.93,101.06,2014.99,142.54,834.77,546.72,1084.24,895.2,423.87,"Pelušková, Prague - Kyje",50.10912,14.55818,,,,,Personal,,,,1.0,,,,,,,,,,,,,,,,,,,,,1.0,,,,,,,,,,,,,,1.0,,,,,,,,,,,,,,,,,,,,,,,,,,,,,,,,,,,,,,,,,,,,,,,,,,,,,,,,,,,,,,,,,
"CZK 15,000","CZK 4,000","CZK 15,000",747203,2 bedroom,10/23/2022,2,G,54 m²,Unfurnished,Very good,Brick,1.0,224.27,780.99,147.22,268.24,107.25,451.39,302.79,653.86,556.35,227.85,Prague - Libeň,50.10487,14.48588,,,,,,,,,,,,,,,,,,,,,,,,,,,,,,,,,,,,,,,,,,,,,,,,,,,,,,,,,,,,,,,,,,,,,,,,,,,,,,,,,,,,,,,,,,,,,,,,,,,,,,,,,,,,,
"CZK 21,000","CZK 4,200","CZK 25,000",385522,2+kk,11/1/2022,2,B,67 m²,Fully furnished,Very good,Brick,1.0,351.07,1116.4,402.54,811.85,597.86,620.46,489.41,700.2,1759.14,124.4,"Otopašská, Prague - Jinonice",50.0558378,14.3485767,,,10 to 30 years,Standard,Personal,Central,,,1.0,1.0,1.0,,,,,,,,,,,,,,,1.0,,,,,,,,,,1.0,,,,,,,,,,,,,,,,,,,,,,,,,,,,,,,,,,,,,,,,,,,,,,,,,,,,,,,,,,,,,,,,,,,,,,,,,
"CZK 24,323","CZK 8,107",,745276,2 bedroom,12/11/2022,5,,35 m²,Fully furnished,,,,220.05,826.22,174.81,602.88,97.41,601.22,415.82,330.65,569.7,247.12,"Bulharská, Prague - Vršovice",50.0719625,14.461813,,,,,,,,,,,,,,,,,,,,,,,,,,,,,,,,,,,,,,,,,,,,,,,,,,,,,,,,,,,,,,,,,,,,,,,,,,,,,,,,,,,,,,,,,,,,,,,,,,,,,,,,,,,,,
"CZK 28,493","CZK 9,497",,742401,2+kk,12/1/2022,3,,53 m²,Fully furnished,,,1.0,202.93,1083.69,84.41,522.08,140.61,459.37,143.09,392.14,304.14,134.72,"Drahobejlova, Prague - Libeň",50.1057951,14.4902938,,,,,,,,,1.0,,,,,,,,,,,,,,,,,,,,,,,,,,,,,,,,,,,,,,,,,,,,,,,,,,,,,,,,,,,,,,,,,,,,,,,,,,,,,,,,,,,,,,,,,,,,,,,,,,,,
"CZK 13,000","CZK 2,600","CZK 13,000",708178,2+kk,2/25/2022,1,G,45 m²,Fully furnished,Good,Prefab concrete,1.0,76.93,528.43,178.81,179.73,133.7,113.0,177.64,320.23,1283.78,202.91,"Petržílkova, Prague - Stodůlky",50.05165,14.34686,,,,,Personal,,,,,,,,,,,,,,,,,,,,,,,,,,,,,,,1.0,,,,,,,,,,,,,,,,,,,,,,,,,,,,,,,,,,,,,,,,,,,,,,,,,,,,,,,,,,,,,,,,,,,,,,,,,
"CZK 17,000","CZK 4,500","CZK 34,000",747194,3+kk,11/1/2022,1,D,56 m²,Unfurnished,Good,Brick,,128.62,925.7,753.39,1562.47,483.07,1042.47,678.95,753.2,1454.88,165.71,"Jasná Ⅱ, Prague - Braník",50.03985,14.41901,,,,,,,,,,,,,,1.0,,,,,,,,,,,,,,,,,,,,,,,,,,,,,,,,,,,,,,,,,,,,,,,,,,,,,,,,,,,,,,,,,,,,,,,,,,,,,,,,,,,,,,,,,,,,,,,
"CZK 16,900","CZK 4,000","CZK 40,000",742673,2+kk,11/1/2022,2,C,45 m²,Fully furnished,New-build,Brick,1.0,177.79,275.87,204.47,959.97,184.53,794.91,413.35,516.35,694.83,177.79,Prague - Hlubočepy,50.03086,14.36582,,,10 to 30 years,Standard,,Distance,,,1.0,1.0,,,,,,,,,,,,,,,,,,,,,,,,,,,,,,,,,,,,,,,,,,,,,,,,,,,,,,,,,,,,,,,,,,,,,,,,,,,,,,,,,,,,,,,,,,,,,,,,,,,
"CZK 15,700",CZK 610,"CZK 15,700",669583,2+kk,11/1/2022,2,G,50 m²,Unfurnished,Good,Brick,,395.27,405.24,223.8,845.79,261.46,156.06,511.55,489.09,525.64,323.05,"V Olšinách, Prague - Strašnice",50.0709,14.48153,,,,,Other,,,,,,,,,,,,,,1.0,,,,,,,,,,,,,,,,,,,,,,,,,,,,,,,,,,,,,,,,,,,,,,,,,,,,,,,,,,,,,,,,,,,,,,,,,,,,,,,,,,,,,,,,,,
"CZK 16,500",CZK 0,"CZK 33,000",746391,2 bedroom,11/1/2022,1,G,50 m²,Partly,Very good,Brick,,281.46,928.1,317.5,847.86,310.7,216.13,200.98,12.44,863.63,140.59,"Pod Sady, Prague - Modřany",50.00325,14.40752,,,,,Cooperative,,,,,,1.0,,,,,,,,,,,,,,,,,,,,,,,,,,,,,,,,,,,,,,,,,,,,,,,,,,,,,,,,,,,,,,,,,,,,,,,,,,,,,,,,,,,,,,,,,,,,,,,,,,
"CZK 26,500","CZK 5,000","CZK 30,000",747191,3+kk,12/1/2022,2,G,67 m²,Fully furnished,New-build,Brick,1.0,132.04,810.09,140.24,767.2,447.67,209.05,621.3,502.33,919.03,299.46,"Na Křečku, Prague - Horní Měcholupy",50.04448,14.56603,,,Up to 10 years,,Personal,Central,,,1.0,1.0,1.0,,,,,,,,,,,,,,,,,,,,,,,,,,1.0,,,,,,,,,,,,,,,,,,,,,,,,,,,,,,,,,,,,,,,,,,,,,,,,,,,,,,,,,,,,,,,,,,,,,,,,
"CZK 20,000","CZK 6,700","CZK 40,000",747186,2 bedroom,10/23/2022,2,,71 m²,Partly,Good,Brick,,37.74,236.4,6.73,610.97,20.66,718.2,160.9,205.29,900.71,355.08,"Plzeňská, Prague - Košíře",50.07047,14.37912,,,,Standard,Personal,,,,,,1.0,,,,,,,,1.0,,,,,,,,,,,,,,,1.0,,,,,,,,,,,,,,,,,,,,,,,,,,,,,,,,,,,,,,,,,,,,,,,,,,,,,,,,,,,,,,,,,,,,,,,,,,,
"CZK 14,000","CZK 2,500","CZK 30,000",747190,2 bedroom,12/15/2022,10,G,44 m²,Fully furnished,Good,Prefab concrete,1.0,296.68,1368.01,355.66,1217.53,770.07,1033.53,155.66,496.04,460.88,117.45,"Daškova, Prague - Modřany",50.01321,14.4246,,,30 - 50 years,Standard,Personal,Distance,,1.0,,,,,Exterior,,,,,,,,,,,,,,,,,,,,,,,,,,,,,,,,,,,,,,,,,,,,,,,,,,,,,,,,,,,,,,,,,,,,,,,,,,,,,,,,,,,,,,,,,,,,,,,,
"CZK 11,453","CZK 3,817",,745100,4+kk,11/21/2022,-1,,60 m²,Fully furnished,,,,128.07,590.39,54.39,441.02,27.54,567.88,151.31,255.51,710.79,142.74,"Masarykovo nábřeží, Prague - Nové Město",50.0778219,14.4145055,,,,,,,,,,,,,,,,,,,,,,,,,,,,,,,,,,,,,,,,,,,,,,,,,,,,,,,,,,,,,,,,,,,,,,,,,,,,,,,,,,,,,,,,,,,,,,,,,,,,,,,,,,,,,
"CZK 40,000","CZK 8,000","CZK 48,000",747187,3+kk,10/23/2022,2,G,100 m²,Partly,New-build,Brick,,386.61,1286.25,952.89,1221.08,892.99,1263.17,838.67,578.04,2240.18,434.33,Prague - Troja,50.12552,14.40322,,,,,,,,,,1.0,1.0,,,,,,1.0,,,,,,,,,,,,,,,,,,,,,,,,,,,,,,,,,1.0,,,,,,,,,,,,,,,,,,,,,,,,,,,,,,,,,,,,,,,,,,,,,,,,,,,,,,,,,,,
"CZK 23,000","CZK 6,500","CZK 23,000",747185,4+kk,10/23/2022,1,G,88 m²,Fully furnished,Good,Brick,,19.15,1575.36,340.66,1492.83,228.51,697.23,1048.18,1280.15,855.13,676.18,Prague - Krč,50.03132,14.44843,,,,,,,,,,,,,,,,,,,,,,,,,,1.0,,,,,,,,1.0,,,,,,,,,,,,,,,,,,,,,,,,,,,,,,,,,,,,,,,,,,,,,,,,,,,,,,,,,,,,,,,,,,,,,,,,,,,
"CZK 17,000","CZK 2,000","CZK 34,000",605812,Studio,10/24/2022,5,,41 m²,Partly,Very good,Brick,1.0,165.64,741.92,52.41,96.6,104.88,171.12,251.74,483.54,150.69,593.26,"Veverkova, Prague - Holešovice",50.100125,14.431629,,,,,Personal,Central,,,,,,1.0,Complete,,,,,,,,,,,,,,,,,,,,,,,,,,,,,,,,,,,,,,,,,,,,,,,,,,,,,,,,,,,,,,,,,,,,,,,,,,,,,,,,,,,,,,,,,,,,,,,,
"CZK 20,000","CZK 4,000","CZK 25,000",746819,2+kk,10/21/2022,3,G,58 m²,Partly,Very good,Brick,1.0,390.93,1570.82,406.41,1186.15,215.85,1225.93,1113.04,253.04,659.99,51.21,Prague - Liboc,50.0903,14.32979,,,,,,,,1.0,1.0,,,,,,,,,,,,,1.0,,,,,,,,,,,,,,,,,,,,,,,,,,,,,,,,,,,,,,,,,,,,,,,,,,,,,,,,,,,,,,,,,,,,,,,,,,,,,,,,,,,,,,,
"CZK 31,000","CZK 5,000","CZK 60,000",747174,2+kk,12/1/2022,4,G,75 m²,Partly,Very good,Other,1.0,104.73,392.06,125.81,180.47,12.8,109.08,253.58,212.69,334.11,188.41,Prague - Holešovice,50.10198,14.45084,,,,,,,,,,,,,,,,,,,,,,,,,,,,,,,,,,,,,1.0,,,,,,,,,,,1.0,,,,,,,,,,,,,,,,,,,,,,,,,,,,,,,,,,,,,,,,,,,,,,,,,,,,,,,,,,,,,
"CZK 21,000","CZK 2,800","CZK 21,000",741787,2+kk,9/22/2022,3,G,45 m²,Partly,Very good,Brick,,35.53,614.36,25.84,555.93,70.67,207.72,360.89,175.88,510.9,268.33,Prague - Žižkov,50.0814,14.44541,,,,,,,,1.0,,,,,,,,,,,,,,,,,,,,,,,,,,,,,,,,,,,,,,,,,,,,,,,,,,,,,,,,,,,,,,,,,,,,,,,,,,,,,,,,,,,,,,,,,,,,,,,,,,,,,
"CZK 24,500","CZK 1,000","CZK 20,000",519199,3+1,12/1/2022,3,C,72 m²,Partly,Very good,Prefab concrete,,469.62,859.49,343.37,675.71,529.46,586.75,556.72,670.25,425.91,503.52,"Dubrovnická, Prague - Košíře",50.0668055,14.368008,,,10 to 30 years,,Personal,,,,,,,,,1.0,,,1.0,,,,,,,,,,,,,,,,,,,,,,,,,,,,,,,,,,,,,,,,,,,,,,,,,,,,,,,,,,,,,,,,,,,,,,,,,,,,,,,,,,,,,,,,,,,,
"CZK 30,000",CZK 0,"CZK 50,000",626060,4+1,10/24/2022,3,F,134 m²,Fully furnished,Very good,Brick,1.0,141.01,628.17,116.54,298.04,4.95,300.1,379.84,439.62,102.91,345.71,"Krakovská, Prague - Nové Město",50.077639,14.427434,,,,Luxurious,Personal,Gas boiler,,,,,,,,,,,,,,,,,,,,,,,,,,,,,,,,,,,,,,,,,,,,,,,,,,,,,,,,,,,,,,,,,,,,,,,,,,,,,,,,,,,,,,,,,,,,,,,,,,,,,,,
"CZK 22,000","CZK 4,159","CZK 40,000",747168,2+kk,12/1/2022,3,C,50 m²,Fully furnished,New-build,Brick,1.0,106.39,1031.64,62.02,489.56,102.35,469.58,272.31,414.34,298.59,124.25,"U Svobodárny, Prague - Libeň",50.10581,14.48876,,,Up to 10 years,,Personal,Central,,,,1.0,,,,,,,,,,,,,,,,,,,,,,1.0,,,,,,,,,,,,,,,,,,,,,,,,,,,,,,,,,,,,,,,,,,,,,,,,,,,,,,,,,,,,,,,,,,,,,,,,,,,,,
"CZK 20,000","CZK 3,000","CZK 40,000",746378,2+kk,10/18/2022,5,G,60 m²,Fully furnished,Very good,Brick,,63.63,119.4,39.9,137.82,256.67,192.36,557.97,312.18,423.11,305.6,"Chvalská, Prague - Hloubětín",50.10585,14.53889,,,,,,,,,,,1.0,,,,,,,,,1.0,,,,,,,,,,,,,,,,,,,,,,,,,,,,,,,,,,,,,,,,,,,,,,,,,,,,,,,,,,,,,,,,,,,,,,,,,,,,,,,,,,,,,,,,,
"CZK 19,500","CZK 3,649","CZK 20,000",556599,2+kk,7/1/2021,5,B,58 m²,Fully furnished,,Other,1.0,240.74,1321.12,710.07,1233.65,682.67,1275.23,1314.9,1308.51,1247.36,12.97,Prague - Hlubočepy,50.0345184,14.3885707,,,Up to 10 years,Standard,Personal,Gas boiler,,,,,1.0,,,1.0,1.0,,,,,,,,,,,,,,,,,,,,,,,,,,,,,,,,,,,,,,,,,,,,,,,,,,,,,,,,,,,,,,,,,,,,,,,,,,,,,,,,,,,,,,,,,,,,,,
"CZK 41,625","CZK 13,875",,720848,4+kk,10/26/2022,4,,112 m²,Fully furnished,,,1.0,168.35,737.87,30.76,217.13,7.9,216.51,106.1,336.15,114.49,565.37,"Ostrovní, Prague - Nové Město",50.0806286,14.4175374,1.0,1.0,,,,,,,,,,,,,,,,,,,,,,,,,,,,,,,,,,,,,,,,,,,,,,,,,,,,,,,,,,,,,,,,,,,,,,,,,,,,,,,,,,,,,,,,,,,,,,,,,,,,,,,,,,,
"CZK 17,250","CZK 5,750",,744960,3+1,11/22/2022,5,,90 m²,Fully furnished,,,1.0,82.8,397.93,96.94,404.98,135.48,353.78,131.46,217.55,654.74,661.34,"Blanická, Prague - Vinohrady",50.0746503,14.439294,,,,,,,,,,,,,,,,,,,,,,,,,,,,,,,,,,,,,,,,,,,,,,,,,,,,,,,,,,,,,,,,,,,,,,,,,,,,,,,,,,,,,,,,,,,,,,,,,,,,,,,,,,,,,
"CZK 10,000","CZK 1,080","CZK 10,000",747162,4+kk,11/1/2022,2,A,138 m²,Partly,New-build,Low-energy,,220.35,426.69,329.1,2762.21,305.22,300.77,1079.67,1122.05,3035.88,96.13,"Spořická, Prague - Dolní Chabry",50.14664,14.45351,,,,,,,,,,1.0,1.0,,,,,,,,,,,,,,1.0,,,,,,,,,,,,,,,,,,,,,,,,,,1.0,,,,,,,,,,,,,,,,,,,,,,,,,,,,,,,,,,,,,,,,,,,,,,,,,,,,,,,,,,
"CZK 11,500","CZK 2,500","CZK 30,000",747159,Studio,10/23/2022,1,B,27 m²,Fully furnished,New-build,Brick,,409.24,972.93,642.74,1106.51,165.64,969.63,748.35,560.98,799.51,450.48,"U Albrechtova vrchu, Prague - Stodůlky",50.04244,14.34265,,,,,,,,,,1.0,1.0,,,,,,,,,,,,,,,,,,,,,,,,,,,,,,,,,,,,,,,,,,,,,,,,,,,,,,,,,,,,,,,,,,,,,,,,,,,,,,,,,,,,,,,,,,,,,,,,,,
"CZK 22,000","CZK 5,000","CZK 40,000",747155,3+1,10/23/2022,2,G,74 m²,Fully furnished,Very good,Prefab concrete,,265.44,848.09,427.35,1518.57,280.12,270.62,631.06,1069.42,766.53,82.99,"Lhotská, Prague - Horní Počernice",50.11131,14.60488,,,,,,,,,,,1.0,,,,,,1.0,,,,,,,,,,,,,1.0,,,,,,,,,,,,,,,,,,,,,,,,,,,,,,,,,,,,,,,,,,,,,,,,,,,,,,,,,,,,,,,,,,,,,,,,,,,,,,,
"CZK 14,000","CZK 6,500","CZK 20,000",745448,3+kk,10/17/2022,2,G,64 m²,Partly,Very good,Prefab concrete,1.0,258.89,346.03,268.08,1055.55,450.74,445.67,267.93,245.29,746.15,60.77,"Mikulova, Prague - Chodov",50.0302,14.5151,,,,,,,,,,,1.0,,,,,,,,,,,,,,,,,,,,,,,,,,,,,,,,,,,,,,,,,,,,,,,,,,,,,,,,,,,,,,,,,,,,,,,,,,,,,,,,,,,,,,,,,,,,,,,,,,
"CZK 52,500","CZK 17,500",,731817,2+kk,11/4/2022,3,,80 m²,Fully furnished,,,1.0,281.86,547.59,69.97,211.73,9.84,221.9,245.36,614.41,367.39,520.5,"Ve Smečkách, Prague - Nové Město",50.0795975,14.4273504,,,,,,,,,,,,,,,,,,,,,,,,,,,,,,,,,,,,,,,,,,,,,,,,,,,,,,,,,,,,,,,,,,,,,,,,,,,,,,,,,,,,,,,,,,,,,,,,,,,,,,,,,,,,,
"CZK 19,900","CZK 5,850","CZK 19,900",747149,3+kk,11/15/2022,4,G,71 m²,Partly,Very good,Brick,,111.66,613.25,292.68,710.79,247.41,147.33,348.1,814.57,486.7,173.65,"Šumperská, Prague - Letňany",50.13798,14.50964,,,,,,,,,,,,,,,,,,1.0,,,,,,,,,,,,,,,,,,,1.0,,,,,,,,,,,,,,,,,,,,,,,,,,,,,,,,,,,,,,,,,,,,,,,,,,,,,,,,,,,,,,,,,,,,,,,,
"CZK 14,000","CZK 4,000","CZK 28,000",746345,2 bedroom,10/18/2022,1,C,42 m²,Partly,Good,Brick,,148.47,1621.35,780.62,2759.71,1793.98,2419.41,1393.18,2301.18,363.53,507.8,Prague - Malá Chuchle,50.02361,14.39405,,,,,,,,,,,1.0,,,,,,,,,,,,,,,,,,,,,,,,,,,,,,,,,,,,,,,,,,,,,,,,,,,,,,,,,,,,,,,,,,,,,,,,,,,,,,,,,,,,,,,,,,,,,,,,,,
"CZK 29,925","CZK 9,975",,731240,1 bedroom,11/1/2022,2,,30 m²,Fully furnished,,,1.0,22.29,481.37,107.82,95.32,6.34,158.39,351.4,425.94,380.79,468.94,"Legerova, Prague - Vinohrady",50.0749602,14.4305105,,,,,,,,,,,,,,,,,,,,,,,,,,,,,,,,,,,,,,,,,,,,,,,,,,,,,,,,,,,,,,,,,,,,,,,,,,,,,,,,,,,,,,,,,,,,,,,,,,,,,,,,,,,,,
"CZK 8,500","CZK 2,500",CZK 0,683367,Small studio,12/1/2022,2,G,15 m²,Fully furnished,Good,Brick,,209.16,839.76,687.0,717.08,200.67,660.61,596.35,348.29,668.79,408.31,Prague - Stodůlky,50.04951,14.32643,,1.0,10 to 30 years,Standard,Personal,Central,,,,,1.0,,Complete,,,,,,,,,,,,,,,,,,,,,,,,,,,,,,,,,,,,,,,,,,,,,,,,,,,,,,,,,,,,,,,,,,,,,,,,,,,,,,,,,,,,,,,,,,,,,,,,
"CZK 18,000","CZK 5,000","CZK 23,000",596774,Studio,11/15/2022,,B,39 m²,,Very good,Brick,,128.64,530.74,225.96,475.54,84.91,435.82,209.09,326.54,284.03,586.67,"Jeronýmova, Prague - Žižkov",50.086397,14.448147,,,,,Personal,Electric boiler,,,,,,,,,,,,,,,,,,,,,,,,,,,,,,,,,,,,,,,,,,,,,,1.0,,,,,,,,,,,,,,,,,,,,,,,,,,,,,,,,,,,,,,,,,,,,,,,,,,,,,,,,,
"CZK 10,000","CZK 4,500","CZK 14,500",652174,2+kk,9/1/2022,6,G,43 m²,Partly,Good,Low-energy,1.0,123.49,1093.35,507.3,1191.49,86.25,965.89,252.17,125.15,490.24,18.46,"Jakobiho, Prague - Petrovice",50.032251,14.559848,,,,,Personal,Distance,,,,,1.0,,,,,,,,,,,,,,,,,,,,,,,,,1.0,,,,,,,,,,,,,,,,,,,,,,,,,,,,,,,,,,,,,,,,,,,,,,,,,,,,,,,,,,,,,,,,,,,,,,,,,
"CZK 12,500","CZK 5,500","CZK 5,000",746266,2+kk,12/1/2022,2,,48 m²,Partly,Good,Brick,,52.86,1172.55,942.08,1062.97,780.53,1093.65,1023.34,1020.89,955.8,684.62,Prague - Hlubočepy,50.03816,14.38894,,,,,Personal,,,,,,,,,,,,,,,,,,,,,,,,,,,,,,,,1.0,,,,,,,,,,,,,,,,,,,,,,,,,,,,,,,,,,,,,,,,,,,,,,,,,,,,,,,,,,,,,,,,,,,,,,,,
"CZK 35,000","CZK 12,000","CZK 70,000",746540,3+kk,10/25/2022,3,G,79 m²,Fully furnished,New-build,Brick,1.0,413.54,744.02,401.31,592.5,438.03,733.32,542.0,902.11,1.99,407.83,"Pod Klaudiánkou, Prague - Podolí",50.05435,14.42251,,,,,,,,,1.0,1.0,1.0,,,,,,,,,,,,,,,,,,,,,,,,,,,,,,,,,,,,,,,,,,,,,,,,,,,,,,,,,,,,,,,,,,,,,,,,,,,,,,,,,,,,,,,,,,,,,,,,,,
"CZK 12,000","CZK 2,500","CZK 10,000",616465,Studio,10/24/2022,3,D,24 m²,Fully furnished,Very good,Brick,,283.87,1346.52,331.57,1302.18,556.83,1394.13,702.44,792.89,791.34,485.16,"V Křovinách, Prague - Braník",50.042619,14.425352,,,10 to 30 years,Standard,Personal,Central,,,,,,,Complete,,,,,,,,,,,,,,,,,,,,,,,,,,,,,,,,,,,,,,,,1.0,,,,,,,,,,,,,,,,,,,,,,,,,,,,,,,,,,,,,,,,,,,,,,,,,,,,,,,,
"CZK 13,000","CZK 5,000","CZK 20,000",747140,Studio,10/28/2022,3,G,37 m²,Fully furnished,Good,Brick,,363.34,412.84,627.46,866.82,328.19,364.08,487.25,662.6,687.59,124.99,"Stará náves, Prague - Letňany",50.13949,14.51345,,,,,,,,,,,1.0,,,,,,,,,,,,,,,,,,,,,,,1.0,,,,,,,,,,,,,,,,,,,,,,,,,,,,,,,,,,,,,,,,,,,,,,,,,,,,,,,,,,,,,,,,,,,,,,,,,,,
"CZK 12,000","CZK 3,000","CZK 15,000",718370,2+kk,11/1/2022,4,D,41 m²,Partly,Good,Prefab concrete,1.0,320.21,1049.87,255.17,1125.22,253.89,1114.76,93.76,241.75,635.3,174.64,"Urbánkova, Prague - Modřany",50.00195,14.42693,,,30 - 50 years,,Personal,Central,,,,,,,,,,,,,,,,,,,,,,,,,,,,,,,,,,,,,,,,,,,,,,,,,,,,,,,,,,,,,,,,,,,,,,,,,,,,,,,,,,,,,,,,,,,,,,,,,,,,,,,
"CZK 14,900",CZK 0,"CZK 20,000",747138,2+kk,10/23/2022,5,C,39 m²,Fully furnished,Good,Brick,,173.4,239.77,138.86,147.58,0.0,286.26,185.8,404.96,118.78,411.76,"Vršovické náměstí, Prague - Vršovice",50.06848,14.45348,,,,,,,,,,,,,,,,,,,,,,,,,,,,,,,,,,,,,,,,,,,,,,,,,,,,,,,,,,,,,,,,,,,,,,,,,,,,,,,,,,,,,,,,,,,,,,,,,,,,,,,,,,,,,
"CZK 42,075","CZK 14,025",,746320,2 bedroom,12/1/2022,6,,62 m²,Fully furnished,,,1.0,73.01,281.28,58.33,478.54,20.37,379.07,102.37,138.49,668.56,481.36,"Francouzská, Prague - Vinohrady",50.0739894,14.440101,,,,,,,,,,,,,,,,,,,,,,,,,,,,,,,,,,,,,,,,,,,,,,,,,,,,,,,,,,,,,,,,,,,,,,,,,,,,,,,,,,,,,,,,,,,,,,,,,,,,,,,,,,,,,
"CZK 29,000","CZK 7,500","CZK 56,000",746504,2+kk,10/20/2022,3,G,50 m²,Fully furnished,New-build,Other,1.0,413.54,744.02,401.31,592.5,438.03,733.32,542.0,902.11,1.99,407.83,"Pod Klaudiánkou, Prague - Podolí",50.05435,14.42251,,,,Luxurious,,Central,,,,1.0,1.0,,Complete,,,,,,,,,,,,,,,,,,,,1.0,,,,,,,,,,,,,,,,,,,,,,,,,,,,,,,,,,,,,,,,,,,,,,,,,,,,,,,,,,,,,,,,,,,,,,,,,,,,
"CZK 23,500",CZK 0,"CZK 47,000",746276,2 bedroom,12/1/2022,1,G,60 m²,Partly,Good,Brick,,284.76,1454.38,267.07,1090.58,264.67,245.75,539.04,641.16,361.46,213.96,"Nad Šárkou, Prague - Dejvice",50.10541,14.37119,,,,,,,,,,,,,,,,,,,,,,,,,,,,,,,,,,,,,,,,,,,,,,,,,,1.0,,,,,,,,,,,,,,,,,,,,,,,,,,,,,,,,,,,,,,,,,,,,,,,,,,,,,,,,,,,
"CZK 29,175","CZK 9,725",,745541,Studio,10/31/2022,2,,30 m²,Fully furnished,,,1.0,210.86,390.29,319.5,985.86,301.65,338.01,858.33,290.45,385.77,539.9,"Strakonická, Prague - Smíchov",50.0643299,14.4102127,,,,,,,,,,,,,,,,,,,,,,,,,,,,,,,,,,,,,,,,,,,,,,,,,,,,,,,,,,,,,,,,,,,,,,,,,,,,,,,,,,,,,,,,,,,,,,,,,,,,,,,,,,,,,
"CZK 28,425","CZK 9,475",,742158,Studio,10/26/2022,2,,30 m²,Fully furnished,,,1.0,210.86,390.29,319.5,985.86,301.65,338.01,858.33,290.45,385.77,539.9,"Strakonická, Prague - Smíchov",50.0643299,14.4102127,,,,,,,,,,,,,,,,,,,,,,,,,,,,,,,,,,,,,,,,,,,,,,,,,,,,,,,,,,,,,,,,,,,,,,,,,,,,,,,,,,,,,,,,,,,,,,,,,,,,,,,,,,,,,
"CZK 29,200","CZK 2,000","CZK 35,000",745221,3+1,11/12/2022,4,F,98 m²,Partly,Very good,Brick,1.0,95.21,680.34,105.57,529.78,114.84,280.84,371.94,153.56,488.58,246.01,Prague - Žižkov,50.08161,14.44482,,,Over 50 years,Luxurious,Personal,,,,,,1.0,,Complete,,,,,,,,,,,,,,,,,,,,,,,,,,,,,,,,,,,,,,,,,,,,,,,,,,,,,,,,,,,,,,,,,,,,,,,,,,,,,,,,,,,,,,,,,,,,,,,,
"CZK 21,500","CZK 4,000","CZK 24,000",746310,3+kk,11/1/2022,4,B,79 m²,Partly,Very good,Brick,1.0,299.89,1219.74,1096.93,2515.21,49.57,384.2,725.49,1663.97,1521.51,78.27,"V Zeleném údolí, Prague - Kunratice",50.02105,14.46609,,,,,,,,,1.0,,,,,,,,,,,,,,,,,,,,,,,,,,,,,,,,,,,,,,,,1.0,,,,,,,,,,,,,,,,,,,,,,,,,,,,,,,,,,,,,,,,,,,,,,,,,,,,,,,,,,,,
"CZK 16,500","CZK 2,300","CZK 22,000",746415,2+kk,10/24/2022,4,D,48 m²,Partly,Very good,Prefab concrete,1.0,321.95,814.68,275.53,780.62,488.75,714.66,287.37,405.67,1532.88,94.33,"Jelínkova, Prague - Kobylisy",50.13296,14.46475,,,,,,Central,,,,,,,Complete,,,,,,,,,,,,,,,,,,,,,,,,,,,,,,,,,,,,,,,,,,,,,,,,,,,,,,,,,,,,,,,,,,,,,,,,,,,,,,,,,,,,,,,,,,,,,,,,
"CZK 14,000","CZK 1,800","CZK 20,000",693152,Studio,12/1/2022,2,B,27 m²,Partly,New-build,Brick,,368.51,347.79,370.72,345.09,426.36,313.38,722.2,488.39,904.51,356.64,"Kurandové, Prague - Hlubočepy",50.0322282,14.3795261,,,,,Personal,,,,,,,,,1.0,,,,,,,,,,,,,,,,,,,,,,,,,,,,,,,,,,,,,,,,,,,,,,,,,,,,,,,,,,,,,,,,,,,,,,,,,,,,,,,,,,,,,,,,,,,,,,,
"CZK 22,000","CZK 3,000","CZK 40,000",588315,2+kk,10/26/2022,5,B,71 m²,Partly,Very good,Brick,1.0,187.68,1048.01,125.53,722.55,242.71,568.91,271.47,703.54,998.42,534.67,"Na Harfě, Prague - Vysočany",50.102883,14.50201,,,10 to 30 years,Standard,Personal,Central,,1.0,,,,,,,,,,,,,,1.0,,,,,,,,,,,,,,,,,,,,,,,,,,,,,,,,,,,,,,,,,,,,,,,,,,,,,,,,,,,,,,,,,,,,,,,,,,,,,,,,,,,,,,,
"CZK 45,750","CZK 15,250",,744738,3+1,11/2/2022,1,,72 m²,Fully furnished,,,,259.15,217.0,193.62,285.29,113.57,307.09,74.34,930.42,156.52,482.04,"Růžová, Prague - Nové Město",50.0835446,14.4307958,,,,,,,,,,,,,,,,,,,,,,,,,,,,,,,,,,,,,,,,,,,,,,,,,,,,,,,,,,,,,,,,,,,,,,,,,,,,,,,,,,,,,,,,,,,,,,,,,,,,,,,,,,,,,
"CZK 19,000","CZK 5,000","CZK 24,000",666085,2+kk,10/24/2022,5,C,50 m²,Fully furnished,Good,Prefab concrete,1.0,335.32,1171.75,273.48,934.03,275.05,927.63,474.02,501.26,895.8,130.98,"Nekvasilova, Prague - Karlín",50.09594,14.46728,,,,Standard,Personal,Distance,,,,,,,,,,,,,,,,,,,,,,,,,,,,,,,,,,,,,,,,,,,,,,,,1.0,,,,,,,,,,,,,,,,,,,,,,,,,,,,,,,,,,,,,,,,,,,,,,,,,,,,,,,
"CZK 20,000","CZK 4,900","CZK 24,900",486388,2+kk,10/1/2022,2,,70 m²,Fully furnished,Very good,Brick,,121.36,784.7,346.8,960.08,589.09,899.5,373.04,268.68,423.1,127.11,"Na Vršku, Prague - Smíchov",50.0745045,14.3736779,,,,Luxurious,Personal,Central,,,,,,,Interior,,,,,,,,,,,,,,,,,,,,,,,,,,,,,,,,,,,,,,,,,,,,,,,,,,,,,,,,,,,,,,,,,,,,,,,,,,,,,,,,,,,,,,,,,,,,,,,,
"CZK 22,000","CZK 6,000","CZK 44,000",747118,2+kk,11/1/2022,2,B,63 m²,Fully furnished,New-build,Brick,1.0,243.64,1891.49,1383.28,1884.15,1248.1,1341.77,585.45,1539.34,1461.95,154.44,"U Zátiší, Prague - Hodkovičky",50.02104,14.41368,,,,,,,,,1.0,1.0,,,,,,,,,,,,,,,,,,,,,,,,1.0,,,,,,1.0,,,,,,,,,,,,,,,,,,,,,,,,,,,,,,,,,,,,,,,,,,,,,,,,,,,,,,,,,,,,,,,,,,,,,
"CZK 16,000","CZK 3,000","CZK 35,000",486140,1 bedroom,10/23/2022,4,,40 m²,Partly,,Brick,,86.93,199.29,93.7,15.57,96.79,177.05,262.41,460.29,475.13,232.52,"Boleslavova, Prague - Nusle",50.0642311,14.4397604,,,,Standard,Personal,,,,,,,,Complete,,,,,,,,,,,,,,,,,,,,,,,,,,,,,,,,,,,,,,,,,,,,,,,,,,,,,,,,,,,,,,,,,,,,,,,,,,,,,,,,,,,,,,,,,,,,,,,,
"CZK 20,000","CZK 6,000","CZK 26,000",747116,3+1,11/1/2022,2,A,77 m²,Fully furnished,Good,Prefab concrete,1.0,300.49,387.0,202.63,359.49,434.35,413.28,765.58,190.39,1011.35,195.32,"Nad Lesním divadlem, Prague - Braník",50.02536,14.43833,,,,,,,,,,,,,,,,,,,,,,,,,,,,,,,,,,,,,,,,,,,,,1.0,,,,,,,,,,,,,,,,,,,,,,,,,,,,,,,,,,,,,,,,,,,,,,,,,,,,,,,,,,,,,,,,
"CZK 15,000","CZK 4,000","CZK 20,000",311911,2+kk,10/30/2022,,G,50 m²,Unfurnished,Good,Brick,,298.66,528.24,177.63,1310.38,256.48,813.65,435.42,425.32,385.12,81.41,"Za Pohořelcem, Prague - Střešovice",50.0865695,14.3826858,,,,,Cooperative,,,,,,,,,1.0,,,,,,,,,,,,,,,,,,,,,,,,,,,,,,,,,,,,,,,,,,,,,,,,,,,,,,,,,,,,,,,,,,,,,,,,,,,,,,,,,,,,,,,,,,,,,,,
"CZK 16,000","CZK 3,500","CZK 19,500",747111,2+kk,10/23/2022,2,C,44 m²,Partly,Very good,Prefab concrete,1.0,187.28,704.63,94.44,629.4,472.09,604.6,297.93,231.64,1366.79,237.38,Prague - Kobylisy,50.13199,14.46498,,,,,,,,,,,,,,,,,,,,,,,,,,,,,,,,,,,,,,,,,,,,,,,,,,,,,,,,,,,,,,,,,,,,,,,,,,,,,,,,,,,,,,,,,,,,,,,,,,,,,,,,,,,,,
"CZK 13,500","CZK 3,000","CZK 20,000",743238,2 bedroom,1/1/2023,1,G,60 m²,Fully furnished,Good,Prefab concrete,,152.23,474.1,229.59,415.47,123.37,351.35,85.55,210.75,482.1,93.9,Prague - Břevnov,50.08639,14.34647,,,,,,,,,,,,,,1.0,,,,,,,,,,,,,,,,,,,,1.0,,,,,,,,,,,,,,,,,,,,,,,,,,,,,,,,,,,,,,,,,,,,,,,,,,,,,,,,,,,,,,,,,,,,,,,,,,,
"CZK 20,000","CZK 4,000","CZK 20,000",377415,2+kk,11/1/2022,2,B,56 m²,Fully furnished,New-build,Brick,1.0,134.75,1134.95,229.74,742.46,591.84,867.1,386.13,2150.77,1132.96,181.23,"Sazovická, Prague - Zličín",50.056306,14.282116,,,,,Personal,Central,,,1.0,1.0,,,,,1.0,,,1.0,,,,,,,,,,,,,,,,,,,,,,,,,,,,,,,,,,,,,,,,,,,,,,,,,,,,,,,,,,,,,,,,,,,,,,,,,,,,,,,,,,,,,,,,,,,
"CZK 50,625","CZK 16,875",,744437,4+1,12/1/2022,5,,118 m²,Fully furnished,,,1.0,10.09,941.97,67.62,646.62,248.31,375.19,227.43,495.09,1021.07,415.81,"Grafická, Prague - Smíchov",50.0722637,14.3926388,,,,,,,,,,,,,,,,,,,,,,,,,,,,,,,,,,,,,,,,,,,,,,,,,,,,,,,,,,,,,,,,,,,,,,,,,,,,,,,,,,,,,,,,,,,,,,,,,,,,,,,,,,,,,
"CZK 12,000","CZK 4,000","CZK 12,000",740968,1 bedroom,11/1/2022,3,B,35 m²,Partly,Very good,Prefab concrete,,319.95,365.88,315.53,2104.38,280.62,382.54,904.56,76.15,360.98,365.65,Prague - Hostivař,50.05212,14.54533,,,,,,Central,,,,,,,Complete,,,,,,,,,,,,,,,,,1.0,,,,,,,1.0,,,,,,,,,,,,,,,,,,,,,,,,,,,,,,,,,,,,,,,,,,,,,,,,,,,,,,,,,,,,,,,,,,,,,,,,
"CZK 20,990","CZK 3,299","CZK 25,000",685609,3+kk,10/3/2021,4,G,65 m²,Fully furnished,Very good,Prefab concrete,1.0,68.01,1098.97,475.26,1197.73,435.62,1075.78,477.71,331.16,1160.5,154.46,"Kubíkova, Prague - Kobylisy",50.13564,14.47336,,,,,Personal,Central,,,,,1.0,,Complete,,,,,,,,,,,,,,,,,,,,,,,,,,,,,,,,,,,,,,,,,,,,,,,,,,,,,,,,,,,,,,,,,,,,,,,,,,,,,,,,,,,,,,,,,,,,,,,,
"CZK 32,000","CZK 5,000","CZK 37,000",745082,3+kk,11/1/2022,2,A,76 m²,Fully furnished,New-build,Brick,,323.29,1377.6,728.37,1332.13,1089.0,1228.83,1090.87,1024.81,1020.05,729.53,Prague - Hloubětín,50.10854,14.52547,,,Up to 10 years,Luxurious,,,,,,,,,Complete,,,,,,,,,,,,,,,,,,,,,,,,,,,,,,,,,,,,,,,,,,,,,,,,,,,,,,,,,,,,,,,,,,,,,,,,,,,,,,,,,,,,,,,,,,,,,,,,
"CZK 19,000","CZK 6,000",CZK 0,489218,3+kk,10/23/2022,6,,74 m²,Fully furnished,,Prefab concrete,1.0,106.5,524.73,58.79,291.75,139.31,410.38,738.89,329.25,561.23,186.21,"Vikova, Prague - Krč",50.0412387,14.4375439,,,,,Personal,,,,,,,,,,,,,,,,,,,,,,,,,,,,,,,,,,,1.0,,,,,,,,,,,,,,,,,,,,,,,,,,,,,,,,,,,,,,,,,,,,,,,,,,,,,,,,,,,,,,,,,,,,,
"CZK 18,000","CZK 4,180","CZK 22,180",747100,2+kk,10/23/2022,1,B,96 m²,Partly,Very good,Brick,,248.86,2177.73,464.2,469.7,999.7,1854.92,1178.66,1971.31,1239.15,372.98,Prague - Kyje,50.09175,14.53929,,,,,,,,,,,1.0,,,,,,,,,,,,,,,,,,,,,,,,,,,,,,,,,,,,,,,,,,,,1.0,,,,,,,,,,,,,,,,,,,,,,,,,,,,,,,,,,,,,,,,,,,,,,,,,,,,,,
"CZK 7,000","CZK 2,500","CZK 9,500",747099,2+kk,11/1/2022,3,G,30 m²,Fully furnished,Good,Brick,,139.29,466.8,152.88,206.02,45.17,132.48,278.32,215.99,601.7,105.72,"Pod Kavalírkou, Prague - Košíře",50.06946,14.37016,,,,,,,,,,,,,,,,,,,,,,,,,,,,,,,,,,,,,,,,,,,,,,,,,,,,,,,,,,,,,,,,,,,,,,,,,,,,,,,,,,,,,,,,,,,,,,,,,,,,,,,,,,,,,
"CZK 15,500","CZK 3,500","CZK 20,000",155181,Studio,12/1/2022,3,,40 m²,Partly,Very good,Other,1.0,189.48,731.78,261.97,788.78,286.19,815.68,498.05,306.85,231.05,420.8,"Jeremenkova, Prague - Podolí",50.0440309,14.4329228,,,,,Personal,Central,,,1.0,1.0,,,,,,,,,,,,,,,,,,,,1.0,,,,,,,,,,1.0,,,,,,,,,,,,,,,,,,,,,,,,,,,,,,,,,,,,,,,,,,,,,,,,,,,,,,,,,,,,,,,,,,,,,
"CZK 14,500","CZK 3,300","CZK 17,800",490770,Studio,11/1/2022,2,B,34 m²,Partly,,Brick,,157.66,930.52,390.82,506.22,476.58,466.33,268.76,402.27,309.16,185.15,"Chlebovická, Prague - Letňany",50.1328445,14.5098086,,,,,Personal,,,,,,,,,,,,,,,,,,,,,,,,,,,,,,,,,,,,,,,,,,,,,,,,,,,,,,,,,,,,,,,,,,,,,,,,,,,,,,,,,,,,,,,,,,,,,,,,,,,,,,,,
"CZK 18,000","CZK 1,000","CZK 19,000",697622,2+kk,10/21/2022,1,B,42 m²,Partly,New-build,Low-energy,,292.69,656.94,498.74,327.69,154.18,1254.37,385.86,685.76,207.05,339.6,"Pod Stárkou, Prague - Michle",50.0576031,14.4536973,1.0,,,Luxurious,Personal,Central,,,,,1.0,,,,,,,,,,,,,,,,,,1.0,,,,,,,,,,,,,,,,,,,,,,,,,,,1.0,,,,,,,,,,,,,,,,,,,,,,,,,,,,,,,,,,,,,,,,,,,,,,,,,,,,,
"CZK 16,500","CZK 5,500",,743332,Studio,12/1/2022,2,,30 m²,Fully furnished,,,1.0,344.24,966.6,273.86,550.59,228.73,277.49,639.11,1150.1,245.02,767.21,"U Smaltovny, Prague - Holešovice",50.1043257,14.4355603,,,,,,,,,,,,,,,,,,,,,,,,,,,,,,,,,,,,,,,,,,,,,,,,,,,,,,,,,,,,,,,,,,,,,,,,,,,,,,,,,,,,,,,,,,,,,,,,,,,,,,,,,,,,,
"CZK 24,938","CZK 8,312",,745022,Studio,12/12/2022,1,,35 m²,Fully furnished,,,1.0,237.21,722.71,270.23,1114.48,162.06,485.4,549.42,612.82,571.2,287.12,"U Nikolajky, Prague - Smíchov",50.0656652,14.3917771,1.0,1.0,,,,,,,1.0,,,,,,,,,,,,,,,,,,,,,,,,,,,,,,,,,,,,,,,,,,,,,,,,,,,,,,,,,,,,,,,,,,,,,,,,,,,,,,,,,,,,,,,,,,,,,,,,,,,,
"CZK 36,675","CZK 12,225",,742243,2+kk,11/25/2022,2,,48 m²,Fully furnished,,,1.0,170.48,421.6,257.32,426.75,52.86,339.7,54.65,63.39,473.33,754.41,"Balbínova, Prague - Vinohrady",50.0795659,14.4357789,,,,,,,,,,,,,,,,,,,,,,,,,,,,,,,,,,,,,,,,,,,,,,,,,,,,,,,,,,,,,,,,,,,,,,,,,,,,,,,,,,,,,,,,,,,,,,,,,,,,,,,,,,,,,
"CZK 24,581","CZK 8,194",,743331,Studio,12/1/2022,1,,28 m²,Fully furnished,,,,194.2,798.76,138.2,283.7,89.62,474.09,247.17,335.61,500.98,81.99,"U Zeměpisného ústavu, Prague - Bubeneč",50.1033901,14.4020568,,,,,,,,,,,,,,,,,,,,,,,,,,,,,,,,,,,,,,,,,,,,,,,,,,,,,,,,,,,,,,,,,,,,,,,,,,,,,,,,,,,,,,,,,,,,,,,,,,,,,,,,,,,,,
"CZK 46,530","CZK 15,510",,746227,2 bedroom,12/17/2022,2,,48 m²,Fully furnished,,,,158.42,248.82,154.82,246.13,112.68,264.3,390.21,408.3,154.53,114.55,"Řásnovka, Prague - Staré Město",50.0918754,14.4250902,,,,,,,,,,,,,,,,,,,,,,,,,,,,,,,,,,,,,,,,,,,,,,,,,,,,,,,,,,,,,,,,,,,,,,,,,,,,,,,,,,,,,,,,,,,,,,,,,,,,,,,,,,,,,
"CZK 19,725","CZK 6,575",,745390,2 bedroom,12/16/2022,6,,90 m²,Fully furnished,,,1.0,73.01,281.28,58.33,478.54,20.37,379.07,102.37,138.49,668.56,481.36,"Francouzská, Prague - Vinohrady",50.0739894,14.440101,,,,,,,,,,,,,,,,,,,,,,,,,,,,,,,,,,,,,,,,,,,,,,,,,,,,,,,,,,,,,,,,,,,,,,,,,,,,,,,,,,,,,,,,,,,,,,,,,,,,,,,,,,,,,
"CZK 37,425","CZK 12,475",,745389,2+kk,12/16/2022,2,,61 m²,Fully furnished,,,1.0,170.48,421.6,257.32,426.75,52.86,339.7,54.65,63.39,473.33,754.41,"Balbínova, Prague - Vinohrady",50.0795659,14.4357789,,,,,,,,,,,,,,,,,,,,,,,,,,,,,,,,,,,,,,,,,,,,,,,,,,,,,,,,,,,,,,,,,,,,,,,,,,,,,,,,,,,,,,,,,,,,,,,,,,,,,,,,,,,,,
"CZK 32,400","CZK 10,800",,746224,2 bedroom,12/17/2022,5,,65 m²,Fully furnished,,,1.0,163.79,319.88,110.55,226.38,103.86,407.78,227.16,243.22,785.75,360.1,"Na Zbořenci, Prague - Nové Město",50.0769346,14.4169603,,,,,,,,,,,,,,,,,,,,,,,,,,,,,,,,,,,,,,,,,,,,,,,,,,,,,,,,,,,,,,,,,,,,,,,,,,,,,,,,,,,,,,,,,,,,,,,,,,,,,,,,,,,,,
"CZK 35,625","CZK 11,875",,747095,2+kk,12/22/2022,3,,76 m²,Fully furnished,,,,174.67,442.95,142.17,234.72,17.52,252.04,261.1,243.44,108.85,249.32,"Týnská ulička, Prague - Staré Město",50.0879034,14.4227015,,,,,,,,,,,,,,,,,,,,,,,,,,,,,,,,,,,,,,,,,,,,,,,,,,,,,,,,,,,,,,,,,,,,,,,,,,,,,,,,,,,,,,,,,,,,,,,,,,,,,,,,,,,,,
"CZK 30,000","CZK 10,000",,746223,2+kk,12/17/2022,2,,67 m²,Fully furnished,,,1.0,190.62,1447.15,484.7,1260.45,182.11,737.34,559.67,596.72,660.13,404.95,"V Zahradách, Prague - Libeň",50.1148427,14.4750191,1.0,1.0,,,,,,,1.0,,,,,,,,,,,,,,,,,,,,,,,,,,,,,,,,,,,,,,,,,,,,,,,,,,,,,,,,,,,,,,,,,,,,,,,,,,,,,,,,,,,,,,,,,,,,,,,,,,,,
"CZK 33,675","CZK 11,225",,746649,2+kk,12/19/2022,2,,55 m²,Fully furnished,,,1.0,170.48,421.6,257.32,426.75,52.86,339.7,54.65,63.39,473.33,754.41,"Balbínova, Prague - Vinohrady",50.0795659,14.4357789,,,,,,,,,,,,,,,,,,,,,,,,,,,,,,,,,,,,,,,,,,,,,,,,,,,,,,,,,,,,,,,,,,,,,,,,,,,,,,,,,,,,,,,,,,,,,,,,,,,,,,,,,,,,,
"CZK 22,000",CZK 775,"CZK 40,000",705074,2 bedroom,2/3/2022,3,G,84 m²,Partly,Very good,Brick,1.0,248.79,693.52,178.58,597.23,44.85,525.88,53.92,488.2,477.59,359.3,"Žateckých, Prague - Nusle",50.06199,14.43511,,,Over 50 years,Standard,Personal,,,,,,,,,,,,,,,,,,,,,,,,,,,,,,,,,,,,,,,,1.0,,,,,,,,,,,,,,,,,,,,,,,,,,,,,,,,,,,,,,,,,,,,,,,,,,,,,,,,,,,,,,,,
"CZK 19,000","CZK 3,000","CZK 38,000",746158,2+kk,10/17/2022,6,G,42 m²,Fully furnished,Very good,Brick,1.0,387.66,1161.08,368.36,1479.67,607.87,589.53,635.66,1274.38,419.38,636.25,"Ginzova, Prague - Záběhlice",50.05613,14.48895,,,,,,,,,1.0,,,,,,,,,,,,,,,,,,,,,,,,,,,,,,,,,,,,1.0,,,,,,,,,,,,,,,,,,,,,,,,,,,,,,,,,,,,,,,,,,,,,,,,,,,,,,,,,,,,,,,,
"CZK 19,500","CZK 4,500","CZK 25,000",639749,2+kk,11/19/2020,3,A,55 m²,Fully furnished,New-build,Brick,1.0,214.85,111.86,183.29,1264.57,201.57,1099.51,477.0,709.91,746.45,109.54,"Hugo Haase, Prague - Hlubočepy",50.029126,14.363101,,,,,Personal,,,,,,,,,,,,,,,,,,,,,,,,,,,,,,,,,,,,,,,,,,,,,,,,,,,,,,,,,,,,,,,,,,,,,,,,,,,,,,,,,,,,,,,,,,,,,,,,,,,,,,,,
"CZK 25,500","CZK 8,500",,746620,2+kk,11/2/2022,3,,48 m²,Fully furnished,,,1.0,188.32,492.36,64.31,169.76,16.44,202.35,307.51,551.4,544.96,488.43,"Řeznická, Prague - Nové Město",50.0781758,14.4220203,,,,,,,,,,,,,,,,,,,,,,,,,,,,,,,,,,,,,,,,,,,,,,,,,,,,,,,,,,,,,,,,,,,,,,,,,,,,,,,,,,,,,,,,,,,,,,,,,,,,,,,,,,,,,
"CZK 16,000","CZK 5,000","CZK 30,000",677462,2+kk,10/22/2022,3,D,47 m²,Fully furnished,Very good,Prefab concrete,1.0,199.72,278.6,277.54,326.86,434.15,433.18,735.38,680.66,1388.77,304.43,"Makovského, Prague - Řepy",50.06328,14.31077,,,,,Personal,Central,,,,,1.0,,,,,,,,,,,,,,,1.0,,,,,,,,,,1.0,,,,,,,,,,,,,,,,,,,,,,,,,,,,,,,,,,,,,,,,,,,,,,,,,,,,,,,,,,,,,,,,,,,,,,,,,
"CZK 15,000","CZK 4,500","CZK 19,500",747071,2 bedroom,10/22/2022,1,F,47 m²,Unfurnished,Good,Brick,,319.7,661.72,196.57,456.8,233.29,651.71,426.77,945.47,182.73,272.12,"Nad Ostrovem, Prague - Podolí",50.05418,14.42091,,,,,,,,,,,1.0,,,,,,,,,,,,,,,,,,,,,,,,,,,,,,,,,,,,,,,,,,,,,,,,,,,,,,,,,,,,,,,,,,,,,,,,,,,,,,,,,,,,,,,,,,,,,,,,,,
"CZK 20,625","CZK 6,875",,731156,2+kk,11/25/2022,2,,49 m²,Fully furnished,,,1.0,84.02,732.97,86.86,659.07,276.51,744.0,408.19,306.62,634.43,198.98,"Na Míčánkách, Prague - Vršovice",50.0713305,14.4638794,,,,,,,,,,,,,,,,,,,,,,,,,,,,,,,,,,,,,,,,,,,,,,,,,,,,,,,,,,,,,,,,,,,,,,,,,,,,,,,,,,,,,,,,,,,,,,,,,,,,,,,,,,,,,
"CZK 16,500","CZK 5,100","CZK 30,000",747068,2+kk,11/15/2022,3,G,50 m²,Partly,Very good,Brick,,253.08,172.63,144.96,1116.35,125.03,951.29,353.84,563.95,635.33,189.76,"Voskovcova, Prague - Hlubočepy",50.02952,14.36494,,,,,,,,,,,,,,,,,,,,,,,,,,,,,,1.0,,,,,,,,,,,,,,,,,,,,,,,,,,,1.0,,,,,,,,,,,,,,,,,,,,,,,,,,,,,,,,,,,,,,,,,,,,,,,,,,,,
"CZK 15,000","CZK 5,300","CZK 40,000",728043,2+kk,11/1/2022,2,A,50 m²,Unfurnished,New-build,Brick,,77.08,497.2,495.83,1424.84,28.62,407.5,380.68,477.45,348.91,310.65,"Hůrská, Prague - Kyje",50.105237577283,14.554041749073,,,,Standard,Personal,Central,,,,1.0,1.0,,,,,,,,1.0,,,,,,,,,,,,,,,,,,,,,,,,,,,,,,,,,,,,,,,,,,,,,,,,,,,,,,,,,,,,,,,,,,,,,,,,,,,,,,,,,,,,,,,,,,
"CZK 55,399","CZK 18,466",,717682,2+kk,10/26/2022,6,,69 m²,Fully furnished,,,1.0,104.56,349.59,143.75,145.93,108.83,150.53,431.56,393.96,289.53,329.01,"Na Maninách, Prague - Holešovice",50.1025661,14.4522431,1.0,1.0,,,,,,,,,,,,,,,,,,,,,,,,,,,,,,,,,,,,,,,,,,,,,,,,,,,,,,,,,,,,,,,,,,,,,,,,,,,,,,,,,,,,,,,,,,,,,,,,,,,,,,,,,,,
"CZK 38,250","CZK 12,750",,733049,3+kk,11/11/2022,5,,78 m²,Fully furnished,,,1.0,122.69,292.83,150.02,222.27,31.53,246.25,406.08,512.95,283.22,254.06,"Křižíkova a, Prague - Karlín",50.0928722,14.4500782,1.0,1.0,,,,,,,1.0,,,,,,,,,,,,,,,,,,,,,,,,,,,,,,,,,,,,,,,,,,,,,,,,,,,,,,,,,,,,,,,,,,,,,,,,,,,,,,,,,,,,,,,,,,,,,,,,,,,,
"CZK 35,175","CZK 11,725",,728156,2+kk,12/12/2022,3,,50 m²,Fully furnished,,,1.0,75.01,890.63,40.68,622.44,47.2,145.83,371.43,242.4,512.42,352.71,"Kubelíkova, Prague - Žižkov",50.0815843,14.4461973,,,,,,,,,,,,,,,,,,,,,,,,,,,,,,,,,,,,,,,,,,,,,,,,,,,,,,,,,,,,,,,,,,,,,,,,,,,,,,,,,,,,,,,,,,,,,,,,,,,,,,,,,,,,,
"CZK 16,000","CZK 4,000","CZK 30,000",747063,1 bedroom,11/15/2022,3,G,35 m²,Fully furnished,Very good,Brick,,125.5,973.64,139.16,1383.75,13.22,194.19,120.0,433.81,408.52,257.2,"Bulovka, Prague - Libeň",50.11529,14.46651,,,,Standard,,,,,,,,,Interior,,,,,,,,,,,,,,,,,,,,,,,,,,,,,,,,,,,,,,,,,,,,,,,,,,,,,,,,,,,,,,,,,,,,,,,,,,,,,,,,,,,,,,,,,,,,,,,,
"CZK 30,000","CZK 7,000","CZK 60,000",746179,3+1,10/19/2022,6,F,80 m²,Partly,Very good,Brick,1.0,254.06,637.98,126.69,450.47,83.56,402.61,429.87,898.11,225.11,173.67,"U Uranie, Prague - Holešovice",50.10621,14.45328,,,Over 50 years,Luxurious,Personal,Central,,,,,,,Complete,,,,,,,,,,,,,,,,,,,,,,,,,,,,,,,,,,,1.0,,,,,,,,,,1.0,1.0,,,,,,,,,,,,,,,,,,,,,,,,,,,,,,,,,,,,,,,,,,,,,,,,,,
"CZK 17,000","CZK 4,000","CZK 30,000",747062,2+kk,11/5/2022,2,G,41 m²,Fully furnished,New-build,Other,1.0,549.23,662.36,441.09,761.17,468.73,740.0,498.65,448.69,636.62,748.27,"Perucká, Prague - Vinohrady",50.06851,14.43809,,,,,,,,1.0,,1.0,,,,,,,,,,,,,,,,,,,,,,,,,,,,,,,,,,,,,,,,,,,,,,,,,,,,,,,,,,,,,,,,,,,,,,,,,,,,,,,,,,,,,,,,,,,,,,,,,,,
"CZK 14,471","CZK 2,500","CZK 60,000",745972,Studio,11/15/2022,1,C,30 m²,Partly,Good,Prefab concrete,1.0,221.42,809.68,192.03,1317.91,240.49,750.22,307.21,295.54,343.39,117.33,"Schulhoffova, Prague - Háje",50.0369,14.51675,,,,,,,,,,,,,,,,,,,,,,,,,,,,,,,,,,,,,,,,,,,,,,,,,,,,,,,,,,,,,,,,,,,,,,,,,,,,,,,,,,,,,,,,,,,,,,,,,,,,,,,,,,,,,
"CZK 23,000","CZK 5,000","CZK 28,000",673219,3+kk,10/24/2022,3,E,83 m²,Partly,New-build,Brick,1.0,242.69,921.0,457.78,584.04,419.53,476.82,319.93,560.32,596.0,564.93,Prague - Košíře,50.0682889,14.3700378,,,Up to 10 years,Luxurious,Personal,Central,,,1.0,1.0,1.0,,Complete,,,,1.0,,,1.0,,,,,,,,,,,,,,,,,,,,,,,,,,,,,,,,,,,,,,,,,,,,,,,,,,,,,,,,,,,,,,,,,,,,,,,,,,,,,,,,,,,,,,,,,
"CZK 27,000","CZK 3,000","CZK 30,000",687243,2+kk,11/20/2022,5,G,53 m²,Fully furnished,New-build,Brick,1.0,102.56,160.12,133.01,153.66,66.5,248.27,160.37,328.59,339.44,428.01,"Heydukova, Prague - Libeň",50.10328,14.47565,,,Up to 10 years,Luxurious,Personal,Central,,,,1.0,,,,,,,,1.0,,,,,,,,,,,,,,,,,,,,,,,,,,,,,,,,,,,,,,,,,,,,,,,,,,,,,,,,,,,,,,,,,,,,,,,,,,,,,,,,,,,,,,,,,,,
"CZK 51,656","CZK 17,219",,728895,2 bedroom,11/30/2022,4,,60 m²,Fully furnished,,,1.0,110.1,392.87,177.02,129.22,79.72,168.29,299.92,497.22,273.67,349.66,"Dlážděná, Prague - Nové Město",50.0865843,14.4323212,,,,,,,,,,,,,,,,,,,,,,,,,,,,,,,,,,,,,,,,,,,,,,,,,,,,,,,,,,,,,,,,,,,,,,,,,,,,,,,,,,,,,,,,,,,,,,,,,,,,,,,,,,,,,
"CZK 31,020","CZK 10,340",,730431,3+1,11/1/2022,1,,111 m²,Fully furnished,,,,208.61,131.46,936.81,2564.81,336.74,613.32,243.84,2102.93,1889.94,338.05,"K Zámku, Prague - Dolní Počernice",50.0890765,14.5799076,1.0,1.0,,,,,,,,,,,,,,,,,,,,,,,,,,,,,,,,,,,,,,,,,,,,,,,,,,,,,,,,,,,,,,,,,,,,,,,,,,,,,,,,,,,,,,,,,,,,,,,,,,,,,,,,,,,
"CZK 14,000","CZK 4,115","CZK 60,000",745907,2+kk,10/17/2022,2,B,44 m²,Partly,New-build,Brick,,257.32,1255.61,460.68,1112.59,374.46,794.82,647.98,135.15,1255.42,360.37,Prague - Strašnice,50.07473,14.50805,,,,,,,,,,,,,,,,,,,,,,,,,,,,,,,,,,1.0,,,,,,,,,,,,,,,,,,,,,,,,,,,,,,,,,,,,,,,,,,,,,,,,,,,,,,,,,,,,,,,,,,,,,,,,,,,
"CZK 22,000",CZK 500,"CZK 44,000",747058,3+1,10/31/2022,4,G,68 m²,Unfurnished,Good,Brick,,138.89,363.53,126.67,311.75,47.38,377.34,648.28,296.21,497.68,238.24,"U Strže, Prague - Krč",50.04263,14.43961,,,,,,,,,,,,,,1.0,,,,,,,,,,,,,,,,,,,,,,,,,,,,,,,,,,,,,,,,,,,,,,,,,,,,,,,,,,,,,,,,,,,,,,,,,,,,,,,,,,,,,,,,,,,,,,,
"CZK 19,500","CZK 2,091","CZK 44,000",730638,3+kk,10/3/2022,8,C,68 m²,Partly,Very good,Prefab concrete,1.0,359.8,896.27,372.32,643.41,170.94,405.27,358.15,398.69,688.26,211.72,Prague - Chodov,50.02743,14.52485,,,,Standard,,Central,,,,,,,Bathroom unit,,,,,,,,,,,,,,,,,,,1.0,,,,1.0,,,,,,,,,,,,,,,,,,,,,,,,,,,,,,,,,,,,,,,,,,,,,,,,,,,,,,,,,,,,,,,,,,,,,,,,,
"CZK 20,500","CZK 4,500","CZK 38,000",129411,2 bedroom,1/7/2023,2,,69 m²,Fully furnished,,Brick,,341.79,1073.6,350.56,958.95,544.96,785.98,805.16,627.51,298.03,277.85,"Za Třebešínem, Prague - Strašnice",50.0852174,14.4900591,,,,,Personal,,,,,,,,Complete,,,,,,,,,,,,,,,,,,,,,,,,,,,,,,,,,,,,,,,,,,,,,,,,,,,,,,,,,,,,,,,,,,,,,,,,,,,,,,,,,,,,,,,,,,,,,,,,
"CZK 5,000","CZK 3,000","CZK 8,000",2280,5+1,12/6/2022,1,,120 m²,Partly,Good,Prefab concrete,,350.24,992.03,858.82,892.81,787.56,705.73,644.23,680.31,677.12,6.26,"Chalabalova, Prague - Stodůlky",50.0511043656,14.3177604675,,,,Standard,Personal,Distance,,,,,,,Bathroom unit,,,,1.0,,,,,,,,,,,,,,,,,,,,,,,,,,,,,,,,,,,,,,,,,,,,,,,,,,,,,,,,,,,,,,,,,,,,,,,,,,,,,,,,,,,,,,,,,,,,
"CZK 30,000","CZK 10,000",,734260,2+kk,11/6/2022,5,,41 m²,Fully furnished,,,,394.46,497.82,253.13,432.3,279.54,389.35,316.56,724.72,695.79,345.02,"Krchlebská, Prague - Krč",50.0471114,14.4429584,,,,,,,,,,,,,,,,,,,,,,,,,,,,,,,,,,,,,,,,,,,,,,,,,,,,,,,,,,,,,,,,,,,,,,,,,,,,,,,,,,,,,,,,,,,,,,,,,,,,,,,,,,,,,
"CZK 48,645","CZK 16,215",,732720,3+1,10/26/2022,2,,55 m²,Fully furnished,,,,158.42,248.82,154.82,246.13,112.68,264.3,390.21,408.3,154.53,114.55,"Řásnovka, Prague - Staré Město",50.0918754,14.4250902,,,,,,,,,,,,,,,,,,,,,,,,,,,,,,,,,,,,,,,,,,,,,,,,,,,,,,,,,,,,,,,,,,,,,,,,,,,,,,,,,,,,,,,,,,,,,,,,,,,,,,,,,,,,,
"CZK 20,000","CZK 4,500","CZK 50,000",366896,2+kk,11/6/2022,3,,60 m²,Fully furnished,New-build,Brick,,73.21,966.72,206.7,778.71,680.46,199.26,628.92,627.32,1164.71,545.15,"Hornoměcholupská, Prague - Horní Měcholupy",50.0433026,14.5670631,,,Up to 10 years,Standard,Personal,Central,,,,,,,,,,,,,,,,,,,,,,,,,,,,,,,,,,1.0,,,,,,,,,,,,,,,,,,,,,,,,,,,,,,,,,,,,,,,,,,,,,,,,,,,,,,,,,,,,,,,,,,,,,
"CZK 19,000","CZK 1,873","CZK 20,873",745800,2+kk,11/1/2022,1,C,45 m²,Partly,Very good,Brick,,115.05,748.64,111.95,447.83,83.15,310.97,261.84,1039.25,361.49,358.16,"Petra Slezáka, Prague - Karlín",50.09445,14.45703,,,,,,,,,,,1.0,,,,,,,,,,,,,,,,,,,,,,,,,,,,,,,,,,,,1.0,,,,,,,,,,,,,,,,,,,,,,,,,,,,,,,,,,,,,,,,,,,,,,,,,,,,,,,,,,,,,,
"CZK 25,000","CZK 4,800","CZK 25,000",712844,3+kk,1/31/2023,1,,102 m²,Partly,Very good,Brick,,254.65,1258.13,273.94,1199.72,286.54,700.92,476.27,882.36,518.5,332.22,"Záběhlická, Prague - Záběhlice",50.05301,14.49077,,,,,Personal,,,,,,,,,,,,,,,,,,,,,,,,,,,,,,,,,,,,,,1.0,,,,,,,,,,,,,,,,,,,,,,,,,,,,,,,,,,,,,,,,,,,,,,,,,,,,,,,,,,,,,,,,,,
"CZK 27,232","CZK 9,077",,741128,1 bedroom,11/6/2022,3,,48 m²,Fully furnished,,,1.0,107.08,199.76,133.64,104.94,106.11,,312.74,774.3,461.94,541.92,"Senovážné náměstí, Prague - Nové Město",50.0855469,14.4290625,,,,,,,,,,,,,,,,,,,,,,,,,,,,,,,,,,,,,,,,,,,,,,,,,,,,,,,,,,,,,,,,,,,,,,,,,,,,,,,,,,,,,,,,,,,,,,,,,,,,,,,,,,,,,
"CZK 74,813","CZK 24,937",,740299,4+1,12/17/2022,3,,136 m²,Fully furnished,,,1.0,305.35,603.07,123.44,366.02,52.59,406,368.79,628.46,396.1,92.23,"Betlémská, Prague - Staré Město",50.0837893,14.416317,,,,,,,,,,,,,,,,,,,,,,,,,,,,,,,,,,,,,,,,,,,,,,,,,,,,,,,,,,,,,,,,,,,,,,,,,,,,,,,,,,,,,,,,,,,,,,,,,,,,,,,,,,,,,
"CZK 25,000","CZK 3,700","CZK 50,000",745532,3+kk,10/17/2022,3,C,65 m²,Unfurnished,Very good,Brick,,360.72,636.62,344.12,565.83,199.44,644.55,300.07,164.26,302.52,165.34,"Krokova, Prague - Nusle",50.06266,14.42477,,,Over 50 years,Luxurious,Personal,Electric boiler,,,,,,,Complete,,,,,,,,,,,,,,,,,,,,,,,,,,,,,,,,,,,,,,,,,,,,,,,1.0,,,,,,,,,,,,,,,,,,,,,,,,,,,,,,,,,,,,,,,,,,,,,,,,,
"CZK 19,575","CZK 6,525",,744346,2 bedroom,12/1/2022,6,,70 m²,Fully furnished,,,1.0,73.01,281.28,58.33,478.54,20.37,379.07,102.37,138.49,668.56,481.36,"Francouzská, Prague - Vinohrady",50.0739894,14.440101,,,,,,,,,,,,,,,,,,,,,,,,,,,,,,,,,,,,,,,,,,,,,,,,,,,,,,,,,,,,,,,,,,,,,,,,,,,,,,,,,,,,,,,,,,,,,,,,,,,,,,,,,,,,,
"CZK 25,500","CZK 2,600","CZK 50,000",743359,2+kk,10/23/2022,3,B,47 m²,Fully furnished,New-build,Low-energy,1.0,94.6,720.43,71.85,473.52,480.0,299.37,620.93,407.98,367.97,370.97,"Na Palouku, Prague - Strašnice",50.08065,14.48774,,,,Luxurious,,Central,,1.0,,1.0,1.0,,,,,,,,,,,,,,,,,,,,,,,,,,,,,,,,,1.0,,,,,,,,,,,,,,,,,,,,,,,,,,,,,,,,,,,,,,,,,,,,,,,,,,,,,,,,,,,,,,,,,
"CZK 19,000","CZK 1,500","CZK 35,000",743484,Studio,10/23/2022,2,B,27 m²,Fully furnished,New-build,Low-energy,1.0,94.6,720.43,71.85,473.52,480.0,299.37,620.93,407.98,367.97,370.97,"Na Palouku, Prague - Strašnice",50.08065,14.48774,,,,,,,,1.0,,1.0,1.0,,,,,,,,,,,,,,,,,,,,,,,,,,,,,,,,,,,,,,,,,,,,,,,,,,,,,,,,,,,,,,,,,,,,,,,,,,,,,,,,,,,,,,,,,,,,,,,,,,
"CZK 5,000","CZK 1,000","CZK 5,000",745539,2 bedroom,10/17/2022,1,D,50 m²,Fully furnished,Good,Brick,1.0,342.7,694.13,230.86,635.72,489.4,1506.4,335.97,897.33,1236.11,508.78,"Malovická, Prague - Záběhlice",50.04675,14.4941,,,,,,,,,,,,,,,,,,,,,,,,,,,,,,,,,,,,,,,,,,,,,,,,,,,,,,,,,,,,,,,,,,,,,,,,,,,,,,,,,,,,,,,,,,,,,,,,,,,,,,,,,,,,,
"CZK 12,188","CZK 4,062",,745149,1 bedroom,11/1/2022,5,,80 m²,Fully furnished,,,1.0,113.8,339.96,97.8,888.62,130.7,708.04,240.3,257.58,514.15,165.05,"Voskovcova, Prague - Hlubočepy",50.0299891,14.3690326,,,,,,,,,,,,,,,,,,,,,,,,,,,,,,,,,,,,,,,,,,,,,,,,,,,,,,,,,,,,,,,,,,,,,,,,,,,,,,,,,,,,,,,,,,,,,,,,,,,,,,,,,,,,,
"CZK 18,375","CZK 6,125",,745155,Studio,12/1/2022,3,,32 m²,Fully furnished,,,1.0,139.49,792.63,156.92,306.05,50.15,84.99,429.59,902.4,481.21,801.27,"Šimáčkova, Prague - Holešovice",50.1030733,14.4335679,,,,,,,,,,,,,,,,,,,,,,,,,,,,,,,,,,,,,,,,,,,,,,,,,,,,,,,,,,,,,,,,,,,,,,,,,,,,,,,,,,,,,,,,,,,,,,,,,,,,,,,,,,,,,
"CZK 25,000","CZK 5,000","CZK 30,000",747032,3+1,10/22/2022,1,G,76 m²,Fully furnished,Very good,Prefab concrete,,200.47,378.13,220.77,417.96,187.46,538.29,465.9,289.76,482.37,100.78,"Kropáčkova, Prague - Háje",50.03318,14.53465,,,,,,,,,,,,,,,,,,,,,,,,,,,,,,,,,,,,,,,,,,,,,,,,,,,,,,,,,,,,,,,,,,,,,,,,,,,,,,,,,,,,,,,,,,,,,,,,,,,,,,,,,,,,,
"CZK 12,000","CZK 2,800","CZK 15,000",747031,Small studio,11/1/2022,9,B,30 m²,Fully furnished,Very good,Prefab concrete,1.0,210.12,458.95,404.27,733.72,169.73,897.06,562.78,506.75,224.29,68.87,Prague - Záběhlice,50.05616,14.50414,,,,,,,,,,,,,,,,,,,,,,,,,,,,,,,,,,,,,,,,,,,,,,,,,,,,,,,,,,,,,,,,,,,,,,,,,,,,,,,,,,,,,,,,,,,,,,,,,,,,,,,,,,,,,
"CZK 33,000","CZK 3,000","CZK 33,000",649336,3+1,11/1/2022,3,F,120 m²,Fully furnished,Very good,Other,,125.67,569.28,79.15,362.64,24.85,230.89,675.28,518.74,504.2,470.12,Prague - Smíchov,50.0698,14.406067,,,,Luxurious,Personal,Gas boiler,,,,,,,Complete,,,,,,,,,,,,,,,,,,,,,,,,,,,,,,,,,,,,,,,,,,,,,,,,,,,,,,,,,,,,,,,,,,,,,,,,,,,,,,,,,,,,,,,,,,,,,,,,
"CZK 20,000","CZK 4,000","CZK 20,000",729802,2 bedroom,11/1/2022,3,B,36 m²,Fully furnished,Good,Brick,,354.21,737.34,455.75,355.35,376.01,575.19,1043.45,328.66,1016.27,67.61,Prague - Střešovice,50.09684,14.38976,,,,Standard,,Central,,,,,1.0,,Exterior,,,,,,,,,,,,,,,,,,,,,,,,,,,,,,,,,,,,,,,,,,,,,,,,,,,,,,,,,,,,,,,,,,,,,,,,,,,,,,,,,,,,,,,,,,,,,,,,
"CZK 19,500","CZK 5,500","CZK 40,000",113106,3+1,10/17/2022,3,,67 m²,Partly,Very good,Brick,1.0,299.51,843.13,468.88,1338.51,305.13,509.6,412.22,353.89,751.15,608.87,"U Zahradního Města, Prague - Záběhlice",50.0538919,14.4972997,1.0,,10 to 30 years,Standard,Personal,Central,,,,,1.0,,,,,,,,,,,,,,,,,,,,,1.0,,,,,,,,,,,,,,,,,,,,,,,,,,,,,,,,,,,,,,,,,,,,,,,,,,,,,,,,,,,,,,,,,,,,,,,,,,,,,
"CZK 24,000",CZK 700,"CZK 48,000",747023,3+1,10/22/2022,3,G,90 m²,Partly,Very good,Brick,,311.99,1302.69,248.06,787.58,291.85,356,405.01,835.21,433.45,194.51,"Primátorská, Prague - Libeň",50.11205,14.47203,,,,,,,,,,,1.0,,,,,,,,,,,,,,,,,,,,,,,,,,,,,,,,,,,,,,,,,,,,,,,,,,,,,,,,,,,,,,,,,,,,,,,,,,,,,,,,,,,,,,,,,,,,,,,,,,
"CZK 17,000","CZK 3,000","CZK 17,000",600613,Studio,11/19/2022,1,A,46 m²,Partly,Very good,Prefab concrete,1.0,237.73,1659.76,271.31,1699.73,288.12,277.19,828.06,433.21,1248.57,85.47,"Berlínská, Prague - Hostivař",50.044629,14.515223,,,Up to 10 years,Standard,Personal,Distance,,,1.0,,,,,,,,,,,,,,,,,,,,,,,,,,,,,,,,,,,,,,,,,,,,,,,,,1.0,,,,,,,,,,,,,,,,,,,,,,,,,,,,,,,,,,,,,,,,,,,,,,,,,,,
"CZK 18,300","CZK 4,600","CZK 36,600",251777,2+kk,1/1/2023,3,C,66 m²,Fully furnished,New-build,Brick,1.0,349.53,1671.6,600.86,1653.15,1065.34,610.24,1321.28,1342.85,871.31,129.71,"Sousedíkova, Prague - Vysočany",50.1050666,14.5181109,,,Up to 10 years,,Personal,Central,,,,1.0,1.0,,,,,,1.0,,,,,,,,,,,,,1.0,,,,,,,,,,,,,,,,,,,,,,,,,,,,,,,,,,,,,,,,,,,,,,,,,,,,,,,,,,,,,,,,,,,,,,,,,,,,,,,
"CZK 13,500","CZK 3,500","CZK 13,500",589202,1 bedroom,12/1/2020,1,G,33 m²,Fully furnished,Very good,Brick,1.0,157.47,762.22,118.45,398.18,134.53,331.3,560.26,232.14,154.43,271.77,"Biskupcova, Prague - Žižkov",50.091711,14.482038,,,,,Cooperative,Distance,,,,,,,Complete,,,,,,,,,,,,,,,,,,,,,,,,,,,,,,,,,,,,,,,,,,,,,,,,,,,,,,,,,,,,,,,,,,,,,,,,,,,,,,,,,,,,,,,,,,,,,,,,
"CZK 19,990","CZK 2,990","CZK 25,000",731636,2+kk,10/24/2022,2,,45 m²,Partly,Very good,Brick,,390.75,265.34,171.22,306.49,105.7,468.21,315.9,391.17,719.11,219.65,Prague - Vinohrady,50.07997,14.45165,,,,,Personal,Central,,,,,,,,,,,,,,,,,,,,,,,,,,,,,,,,,,,,,,,,,,,,,,,,,,,,,,,,,,,,,,,,,,,,,,,,,,,,,,,,,,,,,,,,,,,,,,,,,,,,,,,
"CZK 42,750","CZK 14,250",,746675,2 bedroom,11/9/2022,4,,103 m²,Fully furnished,,,,71.5,216.2,23.03,92.83,11.33,221.06,242.67,352.18,699.99,362.69,"Karlovo náměstí, Prague - Nové Město",50.0770016,14.41918,,,,,,,,,,,,,,,,,,,,,,,,,,,,,,,,,,,,,,,,,,,,,,,,,,,,,,,,,,,,,,,,,,,,,,,,,,,,,,,,,,,,,,,,,,,,,,,,,,,,,,,,,,,,,
"CZK 29,925","CZK 9,975",,746471,Studio,10/31/2022,2,,30 m²,Fully furnished,,,1.0,210.86,390.29,319.5,985.86,301.65,338.01,858.33,290.45,385.77,539.9,"Strakonická, Prague - Smíchov",50.0643299,14.4102127,,,,,,,,,,,,,,,,,,,,,,,,,,,,,,,,,,,,,,,,,,,,,,,,,,,,,,,,,,,,,,,,,,,,,,,,,,,,,,,,,,,,,,,,,,,,,,,,,,,,,,,,,,,,,
"CZK 24,500","CZK 5,000","CZK 24,500",380086,2+kk,10/22/2022,2,C,76 m²,Fully furnished,,Brick,,147.18,682.76,367.88,685.45,667.12,571,773.92,600.1,1295.73,262.67,"Do Klukovic, Prague - Hlubočepy",50.0354278,14.3700267,,,,,Personal,,,,,,,,,,,,,,,,,,,,,,,,,,,,,,,,,,,,1.0,,,,,,,,,,,,,,,,,,,,,,,,,,,,,,,,,,,,,,,,,,,,,,,,,,,,,,,,,,,,,,,,,,,,
"CZK 18,000","CZK 3,000","CZK 18,000",744895,2+kk,11/14/2022,2,G,65 m²,Partly,Very good,Brick,,270.35,1161.75,1023.82,1007.47,362.27,1074.42,985.51,1424.06,1107.39,416.45,"Hošťálkova, Prague - Břevnov",50.08034,14.35592,,,,,,,,,,,1.0,,,,,,,,,,,1.0,,,,,,,,,,,,,,,,,,,,,,,,,,,,,,,,,,,,,,,,,,,,,,,,,,,,,,,,,,,,,,,,,,,,,,,,,,,,,,,,,,,,,,,
"CZK 15,000","CZK 3,500","CZK 30,000",519525,Studio,12/1/2022,3,,38 m²,Fully furnished,New-build,Other,1.0,350.16,868.17,324.57,1108.3,489.65,280.86,324.49,608.38,1198.22,332.0,Prague - Hrdlořezy,50.0931777,14.5026757,,,Up to 10 years,Standard,Personal,Electric boiler,,1.0,,1.0,1.0,,,,,,1.0,,,,,,,,,,,,,,,,,,,,,,,,,,,,,,,,,,,,,,,,,,,,,,,,,,,,,,,,,,,,,,,,,,,,,,,,,,,,,,,,,,,,,,,,,,,,
"CZK 59,408","CZK 19,802",,742058,4+1,10/26/2022,6,,219 m²,Fully furnished,,,1.0,122.69,292.83,150.02,222.27,31.53,246.25,406.08,512.95,283.22,254.06,"Křižíkova a, Prague - Karlín",50.0928722,14.4500782,1.0,1.0,,,,,,,1.0,,,,,,,,,,,,,,,,,,,,,,,,,,,,,,,,,,,,,,,,,,,,,,,,,,,,,,,,,,,,,,,,,,,,,,,,,,,,,,,,,,,,,,,,,,,,,,,,,,,,
"CZK 63,413","CZK 21,137",,746226,3+kk,12/17/2022,3,,62 m²,Fully furnished,,,1.0,2.22,191.43,20.53,48.07,1.19,48.35,128.16,305.9,208.92,259.31,"Dlouhá, Prague - Staré Město",50.0907943,14.427063,,,,,,,,,,,,,,,,,,,,,,,,,,,,,,,,,,,,,,,,,,,,,,,,,,,,,,,,,,,,,,,,,,,,,,,,,,,,,,,,,,,,,,,,,,,,,,,,,,,,,,,,,,,,,
"CZK 33,750","CZK 11,250",,746225,2+kk,12/17/2022,6,,75 m²,Fully furnished,,,1.0,163.79,319.88,110.55,226.38,103.86,407.78,227.16,243.22,785.75,360.1,"Na Zbořenci, Prague - Nové Město",50.0769346,14.4169603,1.0,1.0,,,,,,,,,,,,,,,,,,,,,,,,,,,,,,,,,,,,,,,,,,,,,,,,,,,,,,,,,,,,,,,,,,,,,,,,,,,,,,,,,,,,,,,,,,,,,,,,,,,,,,,,,,,
"CZK 22,500","CZK 7,500",,744187,2 bedroom,12/5/2022,3,,42 m²,Fully furnished,,,1.0,152.25,672.65,40.42,444.62,81.03,447.64,262.25,308.06,547.1,276.36,"Slovinská, Prague - Vršovice",50.0716124,14.4594622,,,,,,,,,,,,,,,,,,,,,,,,,,,,,,,,,,,,,,,,,,,,,,,,,,,,,,,,,,,,,,,,,,,,,,,,,,,,,,,,,,,,,,,,,,,,,,,,,,,,,,,,,,,,,
"CZK 39,971","CZK 13,324",,744560,2 bedroom,12/11/2022,1,,56 m²,Fully furnished,,,,323.47,356.02,19.06,334.55,43.47,635.94,360.96,349.33,865.49,201.5,"U Lužického semináře, Prague - Malá Strana",50.0877117,14.4091678,1.0,1.0,,,,,,,,,,,,,,,,,,,,,,,,,,,,,,,,,,,,,,,,,,,,,,,,,,,,,,,,,,,,,,,,,,,,,,,,,,,,,,,,,,,,,,,,,,,,,,,,,,,,,,,,,,,
"CZK 15,915","CZK 5,305",,746449,Studio,12/18/2022,5,,20 m²,Fully furnished,,,1.0,86.47,662.34,358.81,554.53,76.78,567.42,340.69,376.18,415.89,386.16,"Orebitská, Prague - Žižkov",50.0864225,14.4459574,,,,,,,,,,,,,,,,,,,,,,,,,,,,,,,,,,,,,,,,,,,,,,,,,,,,,,,,,,,,,,,,,,,,,,,,,,,,,,,,,,,,,,,,,,,,,,,,,,,,,,,,,,,,,
"CZK 37,620","CZK 12,540",,746650,2 bedroom,12/19/2022,7,,54 m²,Fully furnished,,,1.0,379.66,564.73,5.21,191.31,38.84,242.1,65.9,705.75,343.76,422.75,"Michalská, Prague - Staré Město",50.0846396,14.4202484,,,,,,,,,,,,,,,,,,,,,,,,,,,,,,,,,,,,,,,,,,,,,,,,,,,,,,,,,,,,,,,,,,,,,,,,,,,,,,,,,,,,,,,,,,,,,,,,,,,,,,,,,,,,,
"CZK 15,000","CZK 3,000","CZK 30,000",745385,3+kk,11/1/2022,1,D,54 m²,Partly,Good,Brick,,160.89,258.92,368.25,304.7,258.92,1609.52,460.54,731.21,1317.5,475.65,Prague - Záběhlice,50.04671,14.48928,,,,,,,,,,,1.0,,,1.0,,,,,,,,,,,,,,,,,,,,1.0,,,,,,,,,,,,,,,,,,,,,,,,,,,,,,,,,,,,,,,,,,,,,,,,,,,,,,,,,,,,,,,,,,,,,,,,,,,
"CZK 18,000","CZK 4,500","CZK 29,000",747004,2+kk,11/1/2022,2,G,57 m²,Partly,New-build,Brick,1.0,92.26,1354.33,649.87,1417.04,388.43,498.04,635.47,606,383.06,493.76,"K Vystrkovu, Prague - Modřany",50.0002,14.40657,,,,,,,,,,1.0,,,,1.0,,,,,,1.0,,,,,,,,,,,,,,,,,,,,,,,,,,,,,,,,,,,,,,,,,,,,,,,,,,,,,,,,,,,,,,,,,,,,,,,,,,,,,,,,,,,,,,,,,
"CZK 16,000","CZK 3,377","CZK 20,000",745383,2+kk,10/16/2022,6,G,43 m²,Fully furnished,Very good,Prefab concrete,1.0,148.42,397.94,88.0,426.6,313.41,418.78,155.98,377.87,687.4,28.38,"Mohylová, Prague - Stodůlky",50.04428,14.33544,,,,,,,,,,,1.0,,,1.0,,,,,,,,,,,,,,,,,,,,,,,,,,,,,,,,,,,,,,,,,,,,,,,,,,,,,,,,,,,,,,,,,,,,,,,,,,,,,,,,,,,,,,,,,,,,,,,
"CZK 13,000","CZK 3,000","CZK 16,000",726701,Small studio,7/20/2022,2,G,30 m²,Partly,Very good,Brick,,252.15,174.67,201.91,195.35,157.71,187.08,81.76,421.52,87.59,299.91,Prague - Strašnice,50.07473,14.49243,,,,,,,,,,,,,,,,,,,,,,,,,,,,,,,,,,,,1.0,,,,,,,,,,,,,,,,,,,,,,,,,,,,,,,,,,,,,,,,,,,,,,,,,,,,,,,,,,,,,,,,,,,,,,,,,
"CZK 15,900","CZK 5,600","CZK 21,500",603217,2+kk,11/1/2022,1,F,57 m²,,Very good,Brick,,217.14,652.53,244.4,248.46,173.82,388.66,581.94,606.06,551.52,216.94,"Žerotínova, Prague - Žižkov",50.088101,14.464399,,,,,Personal,,,,,,,,,,,,,,,,,,,,,,,,,,,,,,,,,,,,,,,,,,,,,,,,,,,,,,,,1.0,,,,,,,,,,,,,,,,,,,,,,,,,,,,,,,,,,,,,,,,,,,,,,,,
"CZK 17,000","CZK 5,000","CZK 24,000",619918,1 bedroom,11/1/2022,1,D,41 m²,Partly,Very good,Brick,1.0,207.69,482.27,84.36,438.85,95.84,148.6,275.64,425.8,739.88,517.15,Prague - Nové Město,50.07184,14.429817,,,,,Personal,,,,,,,,,,,,,,,,,,,,,,,,,,,,,,,,,,,,,,,,,,,,,,,,,,,,,,,,,,,,,,,,,,,,,,,,,,,,,,,,,,,,,,,,,,,,,,,,,,,,,,,,
"CZK 17,000","CZK 4,000","CZK 34,000",658066,2 bedroom,12/1/2022,1,E,76 m²,Partly,Very good,Prefab concrete,1.0,269.88,1471.05,897.98,1143.3,496.44,1036.07,492.6,1028.76,732.43,648.04,"U Poštovky, Prague - Košíře",50.06962,14.35619,,,,,Cooperative,Central,,,,,,,Complete,,,,,,,,,,,,,,,,,,,,,,,,,,,,,,,,,,,1.0,,,,,,,,,,,,,,,,,,,,,,,,,,,,,,,,,,,,,,,,,,,,,,,,,,,,,,,,,,,,,
"CZK 24,500",CZK 700,"CZK 49,000",746983,3+1,12/15/2022,2,G,102 m²,Unfurnished,Good,Brick,,361.93,937.03,231.62,342.89,114.06,561.21,712.24,627.44,809.56,601.3,"Příběnická, Prague - Žižkov",50.08624,14.43974,,,,,,,,,,,,,,,,,,,,,,,,,,,,,,,,,,,,,,,,,,,,,,,,,,,,,,,,,,,,,,,,,,,,,,,,,,,,,,,,,,,,,,,,,,,,,,,,,,,,,,,,,,,,,
"CZK 55,000","CZK 8,000","CZK 55,000",746979,4+1,11/15/2022,2,G,135 m²,Partly,Very good,Brick,,400.01,660.41,116.64,757.12,189.52,720.7,472.58,198.74,575.52,181.44,"U Havlíčkových sadů, Prague - Vinohrady",50.07042,14.4433,,,,,,,,,,,1.0,,,,,,,,,,,,,,,,,,,,,,,,,,,,,1.0,,,,,,,,,,,,,,,,,,,,,,,,,,,,,,,,,,,,,,,,,,,,,,,,,,,,,,,,,,,,,,,,,,,,,
"CZK 18,750","CZK 6,250",,742817,3+1,11/24/2022,2,,90 m²,Fully furnished,,,1.0,82.8,397.93,96.94,404.98,135.48,353.78,131.46,217.55,654.74,661.34,"Blanická, Prague - Vinohrady",50.0746503,14.439294,,,,,,,,,,,,,,,,,,,,,,,,,,,,,,,,,,,,,,,,,,,,,,,,,,,,,,,,,,,,,,,,,,,,,,,,,,,,,,,,,,,,,,,,,,,,,,,,,,,,,,,,,,,,,
"CZK 26,000","CZK 5,500","CZK 52,000",746970,4+1,11/14/2022,3,B,97 m²,Partly,New-build,Brick,1.0,83.92,358.73,1005.96,918.1,493.6,455.32,746.86,1231.93,563.17,181.89,"Nepomuckých, Prague - Letňany",50.13789,14.51806,,,,,,,,,1.0,1.0,1.0,,,,,,,,,,,,,,,,,,,,,,,,,,,,,,,,,,,,,,,,,,,,,,,,,1.0,,1.0,,,,,,,,,,,,,,,,,,,,,,,,,,,,,,,,,,,,,,,,,,,,,,,
"CZK 22,000","CZK 5,500","CZK 43,997",745280,3+kk,11/1/2022,4,G,79 m²,Fully furnished,Very good,Prefab concrete,1.0,164.95,771.46,155.86,694.52,109.71,721.7,540.97,344.59,461.78,313.45,"Makovského, Prague - Řepy",50.06486,14.30008,,,,,,,,,,,1.0,,,,,,,,,,,,,,,1.0,,,,,,,,,,,,,,,,,,,,,,,,,,,,,,,,,,,,,,,,,,,,,,,,,,,,,,,,,,,,,,,,,,,,,,,,,,,,,,,,,,,
"CZK 30,750","CZK 10,250",,742166,Studio,12/1/2022,3,,30 m²,Fully furnished,,,1.0,210.86,390.29,319.5,985.86,301.65,338.01,858.33,290.45,385.77,539.9,"Strakonická, Prague - Smíchov",50.0643299,14.4102127,,,,,,,,,,,,,,,,,,,,,,,,,,,,,,,,,,,,,,,,,,,,,,,,,,,,,,,,,,,,,,,,,,,,,,,,,,,,,,,,,,,,,,,,,,,,,,,,,,,,,,,,,,,,,
"CZK 26,000","CZK 5,000","CZK 26,000",657825,3+kk,12/1/2022,4,C,75 m²,Fully furnished,New-build,Brick,1.0,196.64,404.82,171.62,356.58,162.27,311.06,385.38,761.82,198.54,312.52,"Poupětova, Prague - Holešovice",50.10655,14.44765,,,,,Personal,Distance,,,1.0,1.0,1.0,,,,,,,,,,,,,,,,,,,,,,,,,,1.0,,,,,,,,,,,,,,,,,,,,,,,,,,1.0,,,,,,,,,,,,,,,,,,,,,,,,,,,,,,,,,,,,,,,,,,,,,,
"CZK 18,000","CZK 4,000","CZK 25,000",746967,2+kk,10/21/2022,4,G,56 m²,Unfurnished,Very good,Brick,,189.88,754.26,493.13,493.85,115.89,251.95,296.59,578.41,664.4,172.09,"Počátecká, Prague - Michle",50.04359,14.45589,,,,,,,,,,,,,,,,,,,,,,,,,,,,,,1.0,,,,1.0,,,,,,,,,,,,,,,,,,,,,,,,,,,,,,1.0,,,,,,,,,,,,,,,,,,,,,,,,,,,,,,,,,,,,,,,,,,,,,
"CZK 18,500","CZK 5,500","CZK 35,000",745345,2+kk,11/1/2022,3,G,53 m²,Fully furnished,Very good,Brick,1.0,369.73,1039.62,299.43,624.89,210.14,785.28,431.25,403.99,240.55,449.55,"Kovanecká, Prague - Libeň",50.10861,14.48573,,,10 to 30 years,Standard,Personal,Central,,,,,1.0,,,,,,,,,,,,,,,,,,,,,,,1.0,,,,,,,,,,,1.0,,,,,,,,,,,,,,,,,,1.0,,,,,,,,,,,,,,,,,,,,,,,,,,,,,,,,,,,,,,,,,,,,,,
"CZK 30,000","CZK 10,000",,718922,Studio,10/26/2022,5,,45 m²,Fully furnished,,,1.0,241.61,542.2,98.71,270.79,176.01,313.55,455.64,821.55,633.96,593.3,"Mečislavova, Prague - Nusle",50.0633237,14.4440058,,,,,,,,,,,,,,,,,,,,,,,,,,,,,,,,,,,,,,,,,,,,,,,,,,,,,,,,,,,,,,,,,,,,,,,,,,,,,,,,,,,,,,,,,,,,,,,,,,,,,,,,,,,,,
"CZK 20,000","CZK 6,400","CZK 40,000",745265,Studio,10/15/2022,2,E,60 m²,Unfurnished,Very good,Brick,,59.32,832.43,69.96,317.32,265.02,136.84,236.58,732.5,113.02,308.94,Prague - Libeň,50.10804,14.47238,,,Up to 10 years,Standard,Personal,,,,,,,,Complete,,,,,,,,,,,,,,,,,,,,,,,,,,,,,,,,,,,,,,,,,,,,,,,,,,,,,,,,,,,,,,,,,,,,,,,,,,,,,,,,,,,,,,,,,,,,,,,,
"CZK 10,500","CZK 3,500","CZK 10,500",234248,1 bedroom,12/1/2022,5,B,39 m²,Partly,Good,Prefab concrete,1.0,245.99,789.66,587.5,1200.76,403.1,712.32,123.94,192.4,357.58,86.49,"Kukelská, Prague - Hloubětín",50.1045431,14.5503719,,,,Standard,Personal,Distance,,,,,,,Bathroom unit,,,,,,,,,,,,,1.0,,,,1.0,,,,,,,,,,,,,,,,,,,,,,,,,,,,,,,,,,,,,,,,,,,,,,,,,,,,,,,,,,,,,,,,,,,,,,,,,,,,,,,
"CZK 14,625","CZK 4,875",,746583,4+1,11/1/2022,5,,80 m²,Fully furnished,,,1.0,113.8,339.96,97.8,888.62,130.7,708.04,240.3,257.58,514.15,165.05,"Voskovcova, Prague - Hlubočepy",50.0299891,14.3690326,,,,,,,,,,,,,,,,,,,,,,,,,,,,,,,,,,,,,,,,,,,,,,,,,,,,,,,,,,,,,,,,,,,,,,,,,,,,,,,,,,,,,,,,,,,,,,,,,,,,,,,,,,,,,
"CZK 39,000","CZK 13,000",,728062,2 bedroom,12/12/2022,7,,92 m²,Fully furnished,,,1.0,73.01,281.28,58.33,478.54,20.37,379.07,102.37,138.49,668.56,481.36,"Francouzská, Prague - Vinohrady",50.0739894,14.440101,1.0,1.0,,,,,,,,,,,,,,,,,,,,,,,,,,,,,,,,,,,,,,,,,,,,,,,,,,,,,,,,,,,,,,,,,,,,,,,,,,,,,,,,,,,,,,,,,,,,,,,,,,,,,,,,,,,
"CZK 39,844","CZK 13,281",,742150,3+kk,11/1/2022,6,,75 m²,Fully furnished,,,1.0,195.12,1018.19,151.41,722.84,224.35,262.66,303.64,382.55,1097.28,303.28,"Grafická, Prague - Smíchov",50.0726658,14.3919787,,,,,,,,,,,,,,,,,,,,,,,,,,,,,,,,,,,,,,,,,,,,,,,,,,,,,,,,,,,,,,,,,,,,,,,,,,,,,,,,,,,,,,,,,,,,,,,,,,,,,,,,,,,,,
"CZK 15,900","CZK 4,000","CZK 20,000",746946,2+kk,11/1/2022,2,G,40 m²,Fully furnished,Very good,Prefab concrete,,365.21,758.94,194.77,606.48,281.27,667.93,340.68,1510.52,492.71,79.12,"Tasovská, Prague - Zličín",50.0585,14.29021,,,,,,,,,,,1.0,,,1.0,,,,,,,,,,,,,,,,,,,,,,,,,,,,,,,,,,,,,,,,,,,,,,,,,,,,,,,,,,,,,,,,,,,,,,,,,,,,,,,,,,,,,,,,,,,,,,,
"CZK 32,000","CZK 6,000","CZK 50,000",745308,3+kk,10/16/2022,4,B,83 m²,Unfurnished,New-build,Brick,1.0,201.7,1308.66,142.89,1129.36,468.82,688.29,322.41,221.9,1021.18,245.67,"Štěchovická, Prague - Strašnice",50.07153,14.50459,,,,Luxurious,Personal,Central,,,,1.0,,,,,1.0,,,,,,,,,,,,,,,,,,,,,,,,,,,,,,,,,,,,,,,,,,,,,,,,,,,,,,,,,,,,,,,,,,,,,,,,,,,,,,,,,,,,,,,,,,,,,,
"CZK 14,500","CZK 4,200","CZK 19,000",746951,Studio,11/1/2022,1,G,23 m²,Unfurnished,Very good,Brick,,278.28,479.79,155.84,307.17,15.16,321.44,279.09,330.24,324.6,303.84,"Letohradská, Prague - Holešovice",50.09845,14.42716,,,,,,,,,,,,,,,,,,,,,,,,,,,,,,,,,,,,,,,,,,,,,,,,,,,,,,,,,,,,,,,,,,,,,,,,,,,,,,,,,,,,,,,,,,,,,,,,,,,,,,,,,,,,,
"CZK 21,000","CZK 3,000","CZK 21,000",744556,3+1,10/9/2022,5,C,66 m²,Partly,Very good,Prefab concrete,1.0,284.36,365.86,187.08,172.15,266.29,288.72,220.23,530.44,1193.91,60.83,Prague - Prosek,50.12116,14.49962,,,,,,,,,,,1.0,,,,,,,,,,,,,,,,,,,,,,,,,,,,,,,,,,,,,,,,,,,1.0,,,,,,,,,,,,,,,,,,,,,,,,,,,,,,,,,,,,,,,,,,,,,,,,,,,,,,,
"CZK 16,000","CZK 4,000","CZK 25,000",745338,Studio,10/16/2022,4,G,38 m²,Partly,New-build,Brick,1.0,42.16,980.71,35.65,801.41,416.27,652.58,375.7,164.32,685.98,129.58,"Štěchovická, Prague - Strašnice",50.07176,14.49995,,,,,,,,,,1.0,,,,,,,,1.0,,,,,,,,,,,,,,,,,,,,,,,,,,,1.0,,,,,,,,,,,,,,,,,,,,,,,,,,,,,,,,,,,,,,,,,,,,,,,,,,,,,,,,,,,,,,,,
"CZK 23,500","CZK 6,380","CZK 30,000",746947,2 bedroom,11/1/2022,4,G,75 m²,Partly,Good,Brick,,278.28,479.79,155.84,307.17,15.16,321.44,279.09,330.24,324.6,303.84,"Letohradská, Prague - Holešovice",50.09845,14.42716,,,,,Personal,,,,,,,,,,,,,,,,,,,,,,,,,,,,,,,,,,,,,,,,,,,,,,,,,,,,,,,,,,,,,,,,,,,,,,,,,,,,,,,,,,,,,,,,,,,,,,,,,,,,,,,,
