Listing ID,Price,Latitude,Longitude,District,Layout,Floor Space,Fees,Furnishing and Fittings,Floor,Balcony,Terrace,Cellar,Loggia,Parking,Lift,Garage,Available from,Public transport stop,Post office,Shop,Bank,Restaurant,Pharmacy,School,Kindergarten,Sports field,Playground,Condition,Refundable security deposit,Ownership Type,Building Type,PENB,Age,Design,Total number of floors,Renovation,Heating,Front garden,Administration fee,Developer name,Project name,Kód jednotky,New building,Investment Advisor
714092,"CZK 23,195",50.0719625,14.461813,"Bulharská, Prague - Vršovice",Studio,35 m²,"CZK 7,731",Furnished,5,No,No,No,No,No,No,No,12. 06. 2022,220,827,175,604,97,602,416,334,726,246,,,,,,,,,,,,,,,,,
715746,"CZK 23,100",50.0709,14.38315,"Plzeňská, Prague - Košíře",1 bedroom with open-plan kitchen,64 m²,"CZK 4,600",Furnished,3,No,Yes,Yes,No,Yes,Yes,Yes,25. 04. 2022,236,757,217,"1,132",273,"1,240",131,522,"1,117",573,New build,"CZK 25,000",Personal,Other,C,,,,,,,,,,,,
716430,"CZK 15,000",50.08393,14.40454,"Újezd, Prague - Malá Strana",1 bedroom with open-plan kitchen,41 m²,"CZK 3,500",Furnished,3,Yes,No,Yes,No,No,Yes,No,01. 05. 2022,54,387,90,502,94,448,252,196,243,262,Excellent,"CZK 20,000",Personal,Brick building,G,,,,,,,,,,,,
716431,"CZK 13,500",50.07929,14.44774,"Slavíkova, Prague - Vinohrady",3 bedroom,113 m²,"CZK 1,500",Furnished,2,No,No,No,No,No,Yes,No,22. 05. 2022,301,451,66,419,61,291,171,160,510,325,Good,"CZK 20,000",Personal,Brick building,G,,,,,,,,,,,,
713523,"CZK 60,000",50.0757302,14.4269087,"Ječná, Prague - Nové Město",1 bedroom with open-plan kitchen,,"CZK 20,000",Furnished,3,No,No,No,No,No,No,No,29. 05. 2022,177,647,182,40,38,122,28,102,350,194,,,,,,,,,,,,,,,,,
538394,"CZK 20,000",50.1560751,14.522333,"Schoellerova, Prague - Čakovice",2 bedroom with open-plan kitchen,79 m²,"CZK 5,300",Furnished,1,Yes,No,No,No,No,No,No,01. 06. 2022,108,536,169,409,"1,120",561,335,232,,,,"CZK 25,000",Personal,Brick building,,1 to 10 years years,Premium materials and solutions,Attic,Interior,,,,,,,,
621246,"CZK 16,000",50.117855,14.475694,"Na Sypkém, Prague - Libeň",1 bedroom with open-plan kitchen,43 m²,"CZK 2,500",Furnished,3,No,No,No,No,No,No,No,01. 06. 2022,174,"1,483",516,506,775,847,"1,055","1,259",572,,Excellent,"CZK 20,000",,Brick building,C,1 to 10 years years,Premium materials and solutions,,Overall,Electric boiler,200 m²,,,,,,
715724,"CZK 17,500",50.06505,14.55267,"Františka Jansy, Prague - Dolní Měcholupy",1 bedroom with open-plan kitchen,48 m²,"CZK 3,500",Partially furnished,4,No,No,No,Yes,No,Yes,No,25. 04. 2022,178,872,476,395,647,"1,173",837,72,,,New build,"CZK 35,000",Cooperative,Brick building,A,,,,,,,,,,,,
716429,"CZK 31,000",50.07781,14.40239,"Drtinova, Prague - Smíchov",3 bedroom with open-plan kitchen,89 m²,"CZK 3,000",Partially furnished,1,Yes,No,Yes,No,No,No,No,01. 06. 2022,221,424,229,353,40,326,578,851,671,282,Excellent,"CZK 50,000",Personal,Brick building,G,,,Middle floor,Overall,Central heating,,,,,,,
713498,"CZK 39,000",50.0739894,14.440101,"Francouzská, Prague - Vinohrady",2 bedroom,80 m²,"CZK 13,000",Furnished,3,No,No,No,No,No,Yes,No,29. 05. 2022,149,274,60,441,20,421,59,552,690,457,,,,,,,,,,,,,,,,,
716428,"CZK 16,990",50.10263833333,14.56778277777,"Doležalova, Prague - Černý Most",3 bedroom,76 m²,"CZK 3,560",Unfurnished,4,Yes,No,Yes,No,No,Yes,No,,220,943,175,"1,241",739,751,382,276,"1,275",347,Good,"CZK 20,550",Personal,Prefab concrete building,G,,,,,,,"CZK 20,550

                                
                                
                
i",,,,,
482525,"CZK 18,750",50.086769801288,14.345216747607,"Brunclíkova, Prague - Břevnov",2 bedroom,53 m²,"CZK 4,250",Partially furnished,7,Yes,No,No,No,No,No,No,01. 06. 2022,15,602,259,337,121,355,258,231,636,171,Excellent,"CZK 30,000",Personal,Prefab concrete building,D,1 to 10 years years,,Top floor,Overall,District heating,,,,,,,
695231,"CZK 7,000",50.06129,14.59472,"Netlucká, Prague - Dubeč",Small studio,25 m²,,Furnished,2,No,No,No,No,Yes,No,No,27. 05. 2022,174,953,256,818,584,919,"1,025",,,,Excellent,"CZK 7,000",Personal,Brick building,A,1 to 10 years years,Premium materials and solutions,Attic,Overall,Central heating,,,,,,,
713472,"CZK 41,250",50.0643299,14.4102127,"Strakonická, Prague - Smíchov",2 bedroom,50 m²,"CZK 13,750",Furnished,-1,No,No,No,No,No,Yes,No,01. 05. 2022,211,382,250,989,170,745,812,"1,050",387,543,,,,,,,,,,,,,,,,,
326100,"CZK 9,000",50.0777008,14.4576999,"Vinohradská, Prague - Žižkov",Small studio,30 m²,"CZK 1,500",Partially furnished,4,No,No,No,No,No,No,No,09. 05. 2022,43,433,75,83,83,243,516,593,808,295,,"CZK 10,500",Personal,Brick building,G,,,Top floor,,District heating,,,,,,,
520013,"CZK 10,490",50.013708,14.4335403,"Zárubova, Prague - Kamýk",Studio,24 m²,"CZK 3,200",Partially furnished,8,No,No,Yes,No,No,Yes,No,,438,"1,467",368,"1,460",815,359,128,387,622,252,,"CZK 10,000",Personal,Prefab concrete building,,,,,,,,,,,,,
603358,"CZK 16,000",50.108989,14.497986,"Na Břehu, Prague - Vysočany",1 bedroom with open-plan kitchen,54 m²,"CZK 3,500",Furnished,4,Yes,No,Yes,No,No,No,No,01. 06. 2022,238,370,128,234,86,223,696,655,269,320,Excellent,"CZK 32,000",Personal,Brick building,G,,,Top floor,Overall,Other,,,,,,,
713468,"CZK 18,720",50.0713305,14.4638794,"Na Míčánkách, Prague - Vršovice",1 bedroom with open-plan kitchen,49 m²,"CZK 6,240",Furnished,2,No,No,No,No,No,Yes,No,06. 06. 2022,84,743,87,659,277,595,408,307,678,198,,,,,,,,,,,,,,,,,
713506,"CZK 37,425",50.0749602,14.4305105,"Legerova, Prague - Vinohrady",1 bedroom,30 m²,"CZK 12,475",Furnished,2,No,No,No,No,No,Yes,No,15. 05. 2022,22,463,81,96,72,158,361,436,384,451,,,,,,,,,,,,,,,,,
716426,"CZK 14,000",50.04672,14.40946,"Na Zlíchově, Prague - Hlubočepy",1 bedroom with open-plan kitchen,45 m²,"CZK 3,500",Partially furnished,,No,Yes,No,No,No,No,No,01. 05. 2022,431,"1,076",923,"1,125",680,"1,267",,,,,Good,"CZK 17,500",Personal,Brick building,G,,,,,,,,,,,,
716423,"CZK 12,000",50.08378,14.42837,Prague - Nové Město,2 bedroom with open-plan kitchen,90 m²,"CZK 1,000",Furnished,2,No,No,No,No,Yes,Yes,No,01. 05. 2022,148,69,35,222,7,58,97,871,203,563,Good,"CZK 13,000",Personal,Other,C,,,,,,,,,,,,
715714,"CZK 16,200",50.06133,14.39786,"Radlická, Prague - Smíchov",2 bedroom,47 m²,CZK 650,Partially furnished,3,Yes,No,No,No,No,No,No,25. 04. 2022,32,953,43,803,4,498,416,516,623,501,Excellent,"CZK 16,200",Personal,Brick building,G,,,,,,,,,,,,
714329,"CZK 38,775",50.0918754,14.4250902,"Řásnovka, Prague - Staré Město",2 bedroom,48 m²,"CZK 12,925",Furnished,2,No,No,No,No,No,No,No,01. 05. 2022,158,249,155,246,113,320,391,409,155,114,,,,,,,,,,,,,,,,,
716417,"CZK 16,808",50.1040109,14.4778547,"Novákových a, Prague - Libeň",1 bedroom with open-plan kitchen,42 m²,"CZK 5,602",Furnished,2,No,No,No,No,No,No,No,06. 06. 2022,128,226,52,252,51,178,275,424,252,299,,,,,,,,,,,,,,,,,
715713,"CZK 12,000",50.06851,14.43809,"Perucká, Prague - Vinohrady",Studio,25 m²,"CZK 3,000",Partially furnished,3,No,Yes,No,No,No,No,No,30. 04. 2022,543,662,441,769,469,743,529,451,635,750,New build,"CZK 24,000",Personal,Brick building,G,1 to 10 years years,Standard materials and solutions,Middle floor,Overall,District heating,,,,,,,
714373,"CZK 16,800",50.04842,14.42603,"Pod Pekařkou, Prague - Podolí",1 bedroom with open-plan kitchen,50 m²,"CZK 4,200",Furnished,4,No,No,Yes,No,No,Yes,No,15. 06. 2022,397,"1,349",499,801,268,940,567,671,"1,211",650,Excellent,"CZK 20,000",Personal,Brick building,C,,,,,,,,,,,,
371956,"CZK 11,490",50.0583938,14.2812233,"Milotická, Prague - Zličín",Studio,32 m²,"CZK 1,339",Partially furnished,4,Yes,No,Yes,No,Yes,Yes,Yes,01. 05. 2022,406,848,920,850,900,974,321,"1,196",98,,,"CZK 18,000",Personal,Brick building,C,,,,,,,,,,,,
716406,"CZK 31,000",50.04595,14.32223,"Mukařovského, Prague - Stodůlky",2 bedroom with open-plan kitchen,68 m²,CZK 133,Furnished,8,No,Yes,Yes,No,Yes,Yes,No,01. 06. 2022,,,,,,,,,,,Excellent,"CZK 62,000",Personal,Other,A,,,,,,,,Luka Residential s.r.o.,Luka Living Rental apartments,814,Yes,
657007,"CZK 11,000",50.0291787,14.4506539,Prague - Krč,Studio,27 m²,"CZK 3,200",Partially furnished,10,No,No,No,No,Yes,Yes,No,01. 03. 2022,69,"1,240",280,57,704,788,"1,119",504,325,,Excellent,"CZK 22,000",Personal,Prefab concrete building,C,,,,Interior,District heating,,,,,,,
712480,"CZK 22,000",50.04595,14.32223,"Mukařovského, Prague - Stodůlky",2 bedroom,42 m²,CZK 133,Furnished,13,No,No,Yes,No,Yes,Yes,Yes,22. 07. 2022,,,,,,,,,,,Excellent,"CZK 44,000",Personal,Other,A,,,,,,,,Luka Residential s.r.o.,Luka Living Rental apartments,1301,Yes,
714237,"CZK 36,000",50.04595,14.32223,"Mukařovského, Prague - Stodůlky",2 bedroom with open-plan kitchen,94 m²,CZK 133,Furnished,11,No,Yes,Yes,No,Yes,Yes,Yes,10. 07. 2022,,,,,,,,,,,Excellent,"CZK 72,000",Personal,Other,A,,,,,,,,Luka Residential s.r.o.,Luka Living Rental apartments,1115,Yes,
714245,"CZK 15,900",50.04595,14.32223,"Mukařovského, Prague - Stodůlky",Studio,31 m²,CZK 133,Unfurnished,11,Yes,No,Yes,No,Yes,Yes,No,25. 06. 2022,,,,,,,,,,,Excellent,"CZK 31,800",Personal,Other,A,,,,,,,,Luka Residential s.r.o.,Luka Living Rental apartments,1103,Yes,
714255,"CZK 30,000",50.07202,14.44518,"Francouzská, Prague - Vinohrady",Studio,40 m²,CZK 133,Unfurnished,1,No,Yes,No,No,No,No,No,14. 04. 2022,,,,,,,,,,,Excellent,"CZK 60,000",Personal,Brick building,A,,,,,,,,Luka Residential s.r.o.,Luka Living Rental apartments,F003,Yes,
716403,"CZK 25,000",50.09174,14.44246,"Prvního pluku, Prague - Karlín",1 bedroom with open-plan kitchen,55 m²,"CZK 5,000",Furnished,4,No,No,No,No,No,No,No,23. 05. 2022,208,408,151,207,58,181,363,930,293,284,Excellent,,Personal,Other,G,,,,,,,,,,,,
708045,"CZK 17,000",50.08186,14.41921,"Spálená, Prague - Nové Město",1 bedroom with open-plan kitchen,42 m²,"CZK 1,000",Unfurnished,4,Yes,No,No,No,No,No,No,01. 03. 2022,55,766,79,25,36,129,216,426,136,433,Excellent,"CZK 17,000",Personal,Brick building,G,,,,,,,,,,,,
348494,"CZK 16,500",50.019622,14.4673797,"Muškova, Prague - Kunratice",1 bedroom with open-plan kitchen,60 m²,"CZK 5,000",Partially furnished,1,No,Yes,No,No,No,Yes,Yes,01. 07. 2022,418,"1,389","1,267",212,569,561,"1,500",166,,,,"CZK 30,000",Personal,Brick building,,10 to 30 years years,,Raised ground floor,,District heating,,,,,,,
414900,"CZK 11,500",50.1356723,14.5098273,"Bohumínská, Prague - Letňany",Studio,41 m²,"CZK 3,500",Furnished,8,No,No,No,No,No,Yes,No,01. 06. 2022,61,658,228,506,193,137,214,624,267,365,,,Personal,Prefab concrete building,,,,,,,,,,,,,
316188,"CZK 11,900",50.0622893,14.4358679,"Petra Rezka, Prague - Nusle",Studio,32 m²,"CZK 2,000",Furnished,,No,No,No,No,No,No,No,01. 05. 2022,229,592,213,506,104,428,94,423,425,248,,"CZK 12,000",Personal,Brick building,F,,Standard materials and solutions,,,Central heating,,,,,,,
688853,"CZK 7,500",50.07186,14.46305,"Bulharská, Prague - Vršovice",Other,31 m²,"CZK 1,500",Unfurnished,,No,No,No,No,No,No,No,01. 07. 2022,201,860,203,689,182,687,525,419,641,161,Excellent,"CZK 18,000",Personal,Brick building,G,,,,,,,,,,,,
716390,"CZK 19,200",50.08781,14.4725,"Ambrožova, Prague - Žižkov",1 bedroom with open-plan kitchen,57 m²,"CZK 2,500",Partially furnished,2,Yes,No,Yes,No,Yes,Yes,No,01. 08. 2022,102,622,257,413,274,484,238,58,551,172,New build,,Personal,Brick building,B,1 to 10 years years,Premium materials and solutions,Middle floor,Overall,Central heating,,,,,,Yes,
451027,"CZK 19,000",50.0713103,14.4822158,"V Olšinách, Prague - Vršovice",1 bedroom with open-plan kitchen,51 m²,"CZK 4,000",Furnished,2,Yes,No,Yes,No,No,Yes,No,31. 05. 2022,212,485,124,284,224,328,549,388,666,270,Excellent,"CZK 25,000",Personal,Brick building,,,Premium materials and solutions,Middle floor,Overall,District heating,,,,,,,
711808,"CZK 19,500",50.1079,14.54644,"Lehovecká, Prague - Hloubětín",1 bedroom with open-plan kitchen,49 m²,"CZK 4,235",Furnished,6,Yes,No,Yes,No,Yes,Yes,Yes,01. 08. 2022,48,825,83,843,397,816,556,419,"1,060",533,New build,"CZK 19,500",Personal,Brick building,B,,,,,,,,,,,,
716394,"CZK 12,900",50.1063,14.44742,"U Měšťanského pivovaru, Prague - Holešovice",Studio,34 m²,"CZK 4,100",Furnished,6,No,Yes,Yes,No,No,Yes,No,02. 05. 2022,254,314,158,300,71,220,442,674,409,369,Excellent,"CZK 30,000",Personal,Prefab concrete building,G,,,,,,,,,,,,
713848,"CZK 22,500",50.12666,14.45879,"Pakoměřická, Prague - Kobylisy",3 bedroom,78 m²,"CZK 5,500",Unfurnished,1,Yes,No,Yes,No,No,No,No,01. 05. 2022,159,958,318,610,207,287,456,408,597,428,Excellent,"CZK 45,000",Personal,Brick building,C,,,,Interior,Central heating,25 m²,,,,,,
455168,"CZK 19,000",50.0616113,14.4494891,"Kloboučnická, Prague - Nusle",3 bedroom with open-plan kitchen,75 m²,"CZK 3,400",Unfurnished,1,Yes,No,No,No,No,No,No,01. 05. 2022,155,989,249,449,153,628,477,418,896,431,,"CZK 19,000",Personal,Brick building,,,,Middle floor,,District heating,,,,,,,
716386,"CZK 29,900",50.10092,14.42454,"Sochařská, Prague - Bubeneč",2 bedroom with open-plan kitchen,85 m²,CZK 950,Furnished,4,Yes,No,No,No,No,Yes,No,29. 04. 2022,159,213,91,142,78,97,386,255,394,,Excellent,"CZK 60,000",Personal,Brick building,C,1 to 10 years years,Premium materials and solutions,Middle floor,Interior,Gas boiler,,,,,,,
716384,"CZK 32,000",50.08123,14.42982,"Opletalova, Prague - Nové Město",2 bedroom with open-plan kitchen,70 m²,"CZK 3,000",Partially furnished,7,Yes,No,No,Yes,Yes,Yes,No,02. 05. 2022,333,299,46,200,55,39,271,954,190,583,Excellent,"CZK 50,000",Personal,Brick building,G,1 to 10 years years,Premium materials and solutions,Middle floor,Interior,District heating,,,,,,,
705725,"CZK 150,000",50.09114,14.41807,"Pařížská, Prague - Josefov",6 bedroom with open-plan kitchen,322 m²,"CZK 15,000",Unfurnished,6,No,Yes,No,No,No,Yes,No,09. 02. 2022,50,344,274,458,40,435,343,586,60,470,Excellent,"CZK 165,000",Personal,Brick building,G,,,,,,,,,,,,
369890,"CZK 15,000",50.107010860053,14.388327912828,"Zelená, Prague - Dejvice",1 bedroom with open-plan kitchen,42 m²,"CZK 3,500",Unfurnished,3,No,No,No,No,No,No,No,,30,"1,308",15,715,145,169,358,259,631,360,Good,"CZK 20,000",Personal,Brick building,,,Premium materials and solutions,,,,,,,,,,
503703,"CZK 14,000",50.0716385,14.4535707,"Estonská, Prague - Vršovice",1 bedroom,34 m²,"CZK 2,006",Unfurnished,5,No,No,No,No,No,No,No,01. 05. 2022,196,708,196,352,163,483,119,252,413,204,Excellent,"CZK 18,000",Personal,Brick building,,1 to 10 years years,Standard materials and solutions,Middle floor,Interior,Gas boiler,,,,,,,
716375,"CZK 25,000",50.0931827,14.5014335,"Učňovská, Prague - Hrdlořezy",2 bedroom with open-plan kitchen,80 m²,"CZK 4,000",Partially furnished,4,Yes,No,No,No,No,Yes,No,01. 05. 2022,257,752,373,"1,102",378,420,608,531,"1,185",363,New build,"CZK 25,000",Personal,Brick building,A,,,,,,,,,,,,
716376,"CZK 9,000",50.0213,14.45822,"Jánošíkova, Prague - Krč",Small studio,27 m²,"CZK 3,500",Partially furnished,3,No,No,No,Yes,No,Yes,No,01. 05. 2022,328,768,645,561,460,509,"1,368",908,667,,Excellent,"CZK 15,000",Personal,Prefab concrete building,G,,,,,,,,,,,,
474374,"CZK 16,500",50.0895199,14.4891951,"Pod Jarovem, Prague - Žižkov",2 bedroom with open-plan kitchen,72 m²,"CZK 3,000",Partially furnished,3,Yes,No,No,Yes,No,Yes,No,,90,422,488,675,266,427,421,594,271,351,,"CZK 33,000",Cooperative,Prefab concrete building,,,,,,,,,,,,,
716373,"CZK 12,800",50.05792,14.49438,"Jetelová, Prague - Záběhlice",1 bedroom,35 m²,"CZK 3,500",Partially furnished,3,No,No,No,No,Yes,Yes,No,01. 06. 2022,99,693,212,968,376,262,392,885,146,206,Excellent,"CZK 15,000",Personal,Prefab concrete building,G,,,,,,,,,,,,
715970,"CZK 15,700",50.067,14.4571,"Minská, Prague - Vršovice",2 bedroom,52 m²,CZK 600,Unfurnished,5,Yes,No,No,No,No,No,No,26. 04. 2022,92,228,89,269,103,360,473,574,389,313,Excellent,"CZK 15,700",Personal,Brick building,G,,,,,,,,,,,,
71692,"CZK 14,900",50.086194,14.4430856,"Řehořova, Prague - Žižkov",1 bedroom,50 m²,"CZK 5,000",Furnished,1,No,No,No,No,No,No,No,30. 04. 2022,448,720,312,423,264,706,468,508,561,749,Good,"CZK 19,900",Personal,Brick building,,,,Raised ground floor,,District heating,,,,,,,
716372,"CZK 19,000",50.09435,14.49609,"Spojovací, Prague - Žižkov",2 bedroom with open-plan kitchen,60 m²,"CZK 4,000",Partially furnished,4,No,No,Yes,No,No,No,No,01. 07. 2022,128,509,379,828,52,443,416,527,579,176,Excellent,"CZK 25,000",Personal,Brick building,G,,,,,,,,,,,,
716371,"CZK 43,541",50.0722637,14.3926388,"Grafická, Prague - Smíchov",1 bedroom with open-plan kitchen,79 m²,"CZK 14,514",Furnished,6,No,No,No,No,No,No,No,01. 05. 2022,10,927,65,618,170,761,228,"1,106",933,331,,,,,,,,,,,,,,,,,
713806,"CZK 9,000",49.99684,14.3205,"Na Cikánce, Prague - Radotín",Studio,25 m²,"CZK 2,000",Furnished,1,No,No,No,No,No,No,No,01. 05. 2022,127,,,,,,,,,,Excellent,"CZK 22,000",Personal,Brick building,G,,,,,,,,,,,,
680857,"CZK 14,500",50.0698,14.37188,"U Kavalírky, Prague - Košíře",1 bedroom,54 m²,CZK 500,Partially furnished,3,No,No,No,No,No,No,No,01. 02. 2022,37,319,76,51,143,159,418,"1,032",753,86,Excellent,,Personal,Brick building,B,,,Top floor,,Gas boiler,,,,,,,
557589,"CZK 17,500",50.1187312,14.4967253,"Libočanská, Prague - Prosek",1 bedroom with open-plan kitchen,72 m²,"CZK 5,825",Furnished,2,No,No,No,No,Yes,Yes,No,01. 07. 2022,181,822,381,323,217,361,470,396,"1,094",370,Excellent,"CZK 25,000",Personal,Low-energy building,C,10 to 30 years years,,Middle floor,,District heating,,,,,,,
716363,"CZK 17,000",50.10119,14.38411,"Na Vlčovce, Prague - Dejvice",2 bedroom,58 m²,"CZK 5,000",Partially furnished,3,No,No,Yes,No,Yes,No,No,01. 05. 2022,232,"1,161",430,485,405,885,631,457,824,118,Excellent,"CZK 20,000",Cooperative,Brick building,G,,,,,,,,,,,,
716293,"CZK 12,500",50.066,14.29848,"Na Chobotě, Prague - Řepy",1 bedroom with open-plan kitchen,43 m²,"CZK 4,500",Partially furnished,5,No,No,No,No,Yes,Yes,No,29. 04. 2022,103,"1,037",255,999,46,799,784,482,"1,378",88,Excellent,"CZK 20,000",Cooperative,Prefab concrete building,F,,,,,,,,,,,,
33343,"CZK 13,500",50.1059177,14.4486013,"U měšťanského pivovaru, Prague - Holešovice",1 bedroom with open-plan kitchen,35 m²,"CZK 3,000",Furnished,4,No,No,No,No,No,Yes,No,01. 07. 2022,208,391,136,210,95,214,400,672,383,478,Excellent,"CZK 16,500",Personal,Prefab concrete building,,,Premium materials and solutions,Middle floor,Overall,Central heating,,,,,,,
715938,"CZK 51,000",50.0903205,14.4200069,"Elišky Krásnohorské, Prague - Josefov",2 bedroom,110 m²,"CZK 17,000",Furnished,5,No,No,No,No,No,Yes,No,25. 06. 2022,110,373,218,256,23,273,141,384,214,476,,,,,,,,,,,,,,,,,
716348,"CZK 23,000",50.10569,14.53889,"Chvalská, Prague - Hloubětín",3 bedroom,65 m²,"CZK 7,900",Partially furnished,1,No,No,Yes,No,Yes,No,No,01. 05. 2022,15,46,57,65,229,120,506,428,306,294,Good,"CZK 31,000",Personal,Brick building,G,10 to 30 years years,Standard materials and solutions,Raised ground floor,,Electric boiler,,,,,,,
715140,"CZK 20,000",50.08509,14.34136,"Plojharova, Prague - Břevnov",2 bedroom with open-plan kitchen,63 m²,"CZK 3,000",Partially furnished,2,No,No,Yes,No,No,No,No,16. 05. 2022,262,821,468,622,305,617,156,305,811,399,Excellent,"CZK 40,000",Personal,Brick building,G,over 50 years years,Standard materials and solutions,Middle floor,Interior,District heating,,,,,,,
715186,"CZK 20,000",50.09337,14.48937,"K Lučinám, Prague - Žižkov",1 bedroom with open-plan kitchen,55 m²,"CZK 3,000",Partially furnished,7,No,Yes,No,No,No,Yes,No,01. 05. 2022,278,307,64,270,164,285,185,208,320,139,Excellent,"CZK 30,000",Personal,Other,G,,,,,,,,,,,,
494735,"CZK 17,500",50.1155396,14.5633862,"Farkašova, Prague - Kyje",2 bedroom with open-plan kitchen,63 m²,"CZK 4,350",Furnished,2,Yes,No,No,No,No,No,No,01. 07. 2022,204,910,685,"1,279","1,219",697,,,,,New build,"CZK 20,000",Personal,Prefab concrete building,C,1 to 10 years years,Premium materials and solutions,Middle floor,,District heating,,,,,,,
713484,"CZK 70,875",50.0822886,14.4155231,"Karoliny Světlé, Prague - Staré Město",2 bedroom with open-plan kitchen,90 m²,"CZK 23,625",Furnished,3,No,No,No,No,No,Yes,No,01. 06. 2022,462,817,70,468,89,510,489,683,411,400,,,,,,,,,,,,,,,,,
713507,"CZK 50,250",50.0710929,14.4032595,"Stroupežnického, Prague - Smíchov",3 bedroom with open-plan kitchen,90 m²,"CZK 16,750",Furnished,2,No,No,No,No,No,Yes,No,05. 05. 2022,140,528,224,126,38,67,511,"1,001","1,181",559,,,,,,,,,,,,,,,,,
716333,"CZK 45,000",50.0931,14.36735,"Nový lesík, Prague - Střešovice",5 bedroom,170 m²,"CZK 5,000",Partially furnished,2,Yes,Yes,Yes,No,No,No,Yes,01. 05. 2022,266,928,710,"1,132",274,883,879,"1,234",325,288,Good,"CZK 50,000",Personal,Brick building,G,,,,,,,,,,,,
716194,"CZK 18,900",50.07532,14.35971,"Jeřabinová, Prague - Smíchov",1 bedroom with open-plan kitchen,49 m²,"CZK 5,400",Partially furnished,,No,Yes,No,No,No,Yes,No,01. 05. 2022,429,"1,202",675,920,548,519,467,,,,Excellent,"CZK 25,000",Personal,Brick building,B,10 to 30 years years,Standard materials and solutions,Ground floor,Interior,District heating,102 m²,,,,,,
716327,"CZK 20,000",50.05552,14.35149,"Vidoulská, Prague - Jinonice",1 bedroom with open-plan kitchen,65 m²,"CZK 3,800",Partially furnished,1,No,Yes,No,No,No,No,No,01. 05. 2022,585,"1,034",225,807,451,600,210,796,"1,496",306,Excellent,"CZK 20,000",Personal,Brick building,G,,,,,,,,,,,,
713524,"CZK 60,000",50.0757302,14.4269087,"Ječná, Prague - Nové Město",1 bedroom with open-plan kitchen,,"CZK 20,000",Furnished,3,No,No,No,No,No,No,No,29. 05. 2022,177,647,182,40,38,122,28,102,350,194,,,,,,,,,,,,,,,,,
713481,"CZK 49,650",50.0894663,14.4240032,"Masná, Prague - Staré Město",Studio,46 m²,"CZK 16,550",Furnished,6,No,No,No,No,No,Yes,No,19. 05. 2022,62,263,122,95,13,113,64,46,150,138,,,,,,,,,,,,,,,,,
713483,"CZK 53,550",50.090911,14.4295366,"Soukenická, Prague - Nové Město",1 bedroom with open-plan kitchen,50 m²,"CZK 17,850",Furnished,4,Yes,No,No,No,No,Yes,Yes,18. 05. 2022,144,325,176,152,60,230,49,259,388,439,,,,,,,,,,,,,,,,,
715733,"CZK 47,340",50.1025661,14.4522431,"Na Maninách, Prague - Holešovice",1 bedroom with open-plan kitchen,69 m²,"CZK 15,780",Furnished,6,Yes,Yes,No,No,No,Yes,No,01. 05. 2022,105,350,144,146,109,151,432,394,290,329,,,,,,,,,,,,,,,,,
713462,"CZK 45,000",50.0795975,14.4273504,"Ve Smečkách, Prague - Nové Město",1 bedroom with open-plan kitchen,70 m²,"CZK 15,000",Furnished,4,No,No,No,No,No,Yes,No,31. 05. 2022,285,548,70,207,10,222,245,618,370,524,,,,,,,,,,,,,,,,,
713497,"CZK 38,625",50.0895308,14.4237131,"Masná, Prague - Staré Město",1 bedroom,38 m²,"CZK 12,875",Furnished,4,No,No,No,No,No,Yes,No,17. 05. 2022,69,269,125,89,15,106,70,52,156,144,,,,,,,,,,,,,,,,,
191403,"CZK 13,300",50.0831332,14.4493023,"Bořivojova, Prague - Žižkov",1 bedroom,35 m²,"CZK 2,700",Furnished,4,No,No,No,No,No,Yes,No,01. 05. 2022,364,198,40,225,81,202,206,314,358,577,,"CZK 16,000",Personal,Brick building,,,Standard materials and solutions,,,,,,,,,,
716199,"CZK 14,000",50.12993,14.42601,"Štětínská, Prague - Bohnice",3 bedroom,72 m²,"CZK 6,000",Partially furnished,2,No,No,Yes,Yes,No,No,No,02. 05. 2022,272,670,256,899,603,288,520,547,774,199,Excellent,"CZK 25,000",Cooperative,Prefab concrete building,G,,,Middle floor,,District heating,,,,,,,
577064,"CZK 16,900",50.1027788,14.3748352,"U Hadovky, Prague - Dejvice",2 bedroom,63 m²,"CZK 3,050",Partially furnished,1,No,No,Yes,No,No,No,No,29. 04. 2022,261,"1,397",338,"1,034",337,306,502,635,535,425,Excellent,"CZK 17,000",Cooperative,Brick building,D,over 50 years years,Standard materials and solutions,Raised ground floor,Interior,Gas boiler,,,,,,,
611061,"CZK 16,000",50.074347,14.438075,"Francouzská, Prague - Vinohrady",1 bedroom with open-plan kitchen,60 m²,"CZK 3,498",Partially furnished,5,No,Yes,No,No,No,Yes,No,01. 06. 2022,82,327,32,313,18,259,195,372,740,636,Excellent,"CZK 16,000",Personal,Brick building,C,,,Middle floor,Overall,Central heating,,,,,,,
713528,"CZK 41,250",50.0912734,14.4238585,"Haštalské náměstí, Prague - Staré Město",2 bedroom,50 m²,"CZK 13,750",Furnished,-1,No,Yes,No,No,No,No,No,26. 05. 2022,55,370,51,238,66,242,352,396,158,122,,,,,,,,,,,,,,,,,
716322,"CZK 16,500",50.10325,14.50045,"Na Harfě, Prague - Vysočany",1 bedroom with open-plan kitchen,57 m²,"CZK 4,500",Partially furnished,4,Yes,No,No,No,Yes,Yes,No,15. 07. 2022,368,"1,126",301,531,354,432,401,891,936,619,Excellent,"CZK 30,000",Personal,Other,G,,,,,,,,,,,,
514160,"CZK 15,500",50.1168106,14.498901,Prague - Prosek,1 bedroom with open-plan kitchen,48 m²,"CZK 3,500",Furnished,3,No,No,No,No,No,Yes,No,01. 07. 2022,152,918,83,269,225,402,523,481,811,65,,"CZK 19,000",Cooperative,Prefab concrete building,,,,Middle floor,Interior,District heating,,,,,,,
716321,"CZK 19,000",50.04359,14.45589,"Počátecká, Prague - Michle",2 bedroom,68 m²,"CZK 4,000",Partially furnished,,No,No,Yes,No,No,No,No,01. 05. 2022,190,754,493,554,150,252,297,579,666,265,Excellent,"CZK 19,000",Personal,Brick building,G,,,,,,,,,,,,
462794,"CZK 17,500",50.0719945,14.4586477,"Žitomírská, Prague - Vršovice",1 bedroom with open-plan kitchen,53 m²,"CZK 4,000",Partially furnished,7,Yes,No,Yes,No,No,Yes,No,01. 05. 2022,89,613,63,390,128,388,202,295,688,336,Excellent,"CZK 17,553",Personal,Brick building,,1 to 10 years years,Premium materials and solutions,Top floor,,Gas boiler,,,,,,,
716319,"CZK 15,500",50.10763,14.39085,"Šlejnická, Prague - Dejvice",2 bedroom,55 m²,"CZK 3,000",Furnished,5,No,No,Yes,No,No,Yes,No,01. 05. 2022,235,"1,371",4,778,373,178,618,161,676,639,Good,"CZK 18,500",Personal,Brick building,G,,,,,,,,,,,,
712894,"CZK 18,000",50.0744,14.50464,Prague - Strašnice,1 bedroom with open-plan kitchen,76 m²,"CZK 2,000",Furnished,3,Yes,No,No,Yes,Yes,Yes,No,02. 05. 2022,225,"1,146",268,"1,059",536,955,321,714,"1,128",468,Excellent,"CZK 40,000",Personal,Other,C,10 to 30 years years,Premium materials and solutions,Middle floor,Overall,Gas boiler,,,,,,Yes,
713512,"CZK 27,675",50.0747395,14.424046,"Lípová, Prague - Nové Město",1 bedroom with open-plan kitchen,45 m²,"CZK 9,225",Furnished,5,No,No,No,No,No,No,No,01. 05. 2022,120,534,85,337,48,344,183,195,543,341,,,,,,,,,,,,,,,,,
713502,"CZK 59,100",50.0882082,14.4262296,"Rybná, Prague - Staré Město",2 bedroom with open-plan kitchen,86 m²,"CZK 19,700",Furnished,2,Yes,No,No,No,No,No,No,29. 05. 2022,281,192,58,183,11,369,315,297,289,305,,,,,,,,,,,,,,,,,
716317,"CZK 17,000",50.1022068,14.4360584,"U Smaltovny, Prague - Holešovice",2 bedroom,56 m²,"CZK 3,500",Partially furnished,7,Yes,No,Yes,No,No,Yes,No,01. 05. 2022,378,857,122,337,55,401,423,484,984,,Excellent,"CZK 34,000",Cooperative,Brick building,G,,,,,,,,,,,,
716316,"CZK 7,900",50.07769,14.49927,"Tuklatská, Prague - Strašnice",Studio,28 m²,"CZK 3,500",Unfurnished,8,No,No,No,No,No,Yes,No,01. 05. 2022,149,618,52,485,222,438,440,477,"1,286",255,Good,"CZK 11,400",Cooperative,Prefab concrete building,G,,,,,,,,,,,,
716314,"CZK 15,500",50.10601,14.4356,"Bubenská, Prague - Holešovice",1 bedroom,40 m²,"CZK 3,000",Furnished,3,Yes,No,No,No,No,Yes,No,01. 06. 2022,310,"1,078",541,773,84,477,525,106,677,,Excellent,"CZK 18,500",Personal,Prefab concrete building,G,,,,Overall,Electric boiler,,,,,,,
716313,"CZK 15,000",50.02073,14.45459,"V Štíhlách, Prague - Krč",1 bedroom with open-plan kitchen,39 m²,"CZK 3,000",Partially furnished,6,No,No,Yes,No,No,Yes,No,01. 05. 2022,399,554,442,280,108,793,996,714,596,,Excellent,"CZK 30,000",Personal,Prefab concrete building,G,,,,,,,,,,,,
716189,"CZK 50,000",50.09034,14.42111,"U Staré školy, Prague - Josefov",2 bedroom,105 m²,,Furnished,3,Yes,No,No,No,No,No,No,01. 05. 2022,421,119,199,24,216,108,327,317,368,,Excellent,,Personal,Brick building,C,,,,,,,,,,,,40
716311,"CZK 14,000",50.1034592,14.435691,"U Smaltovny, Prague - Holešovice",1 bedroom with open-plan kitchen,55 m²,"CZK 2,485",Partially furnished,1,No,No,No,No,No,No,No,01. 05. 2022,292,936,172,448,127,276,562,344,843,,Excellent,"CZK 28,000",Personal,Brick building,D,,,,,,,,,,,,
313038,"CZK 13,000",50.0730831,14.4684947,"Ruská, Prague - Vršovice",1 bedroom,52 m²,"CZK 1,150",Partially furnished,,No,No,No,No,No,Yes,No,01. 05. 2022,183,752,266,552,259,312,431,316,569,79,,"CZK 13,000",Personal,Brick building,,,,Ground floor,,,,,,,,,
713480,"CZK 46,103",50.0840648,14.4187033,"Jilská, Prague - Staré Město",1 bedroom with open-plan kitchen,53 m²,"CZK 15,367",Furnished,3,No,No,No,No,No,Yes,No,17. 06. 2022,298,541,99,261,14,253,193,593,251,217,,,,,,,,,,,,,,,,,
713470,"CZK 32,175",50.0643299,14.4102127,"Strakonická, Prague - Smíchov",Studio,30 m²,"CZK 10,725",Furnished,3,No,No,No,No,No,Yes,No,16. 05. 2022,211,382,250,989,170,745,812,"1,050",387,543,,,,,,,,,,,,,,,,,
694998,"CZK 23,000",50.101655482973,14.452764628089,"Tusarova, Prague - Holešovice",1 bedroom with open-plan kitchen,47 m²,"CZK 4,000",Furnished,4,No,No,No,No,No,Yes,No,29. 04. 2022,186,544,93,266,23,203,405,367,111,248,New build,"CZK 23,000",Personal,Brick building,B,,,,,,,,,,,,
492410,"CZK 17,000",50.0983131,14.4249055,"Ovenecká, Prague - Holešovice",1 bedroom with open-plan kitchen,40 m²,"CZK 5,000",Partially furnished,2,No,No,No,No,No,Yes,No,01. 07. 2022,218,307,78,180,163,214,176,"1,459",502,426,Excellent,"CZK 25,000",Personal,Brick building,G,1 to 10 years years,Premium materials and solutions,Middle floor,Overall,Other,,,,,,,
656895,"CZK 12,000",50.1060796,14.4540639,Prague - Holešovice,Studio,31 m²,"CZK 4,000",Partially furnished,5,No,No,Yes,No,No,Yes,No,01. 06. 2022,205,629,135,441,133,395,474,894,294,243,Excellent,"CZK 22,000",Personal,Brick building,G,,,,,,,,,,,,
678758,"CZK 10,500",50.12694,14.41888,"Hnězdenská, Prague - Troja",Studio,36 m²,"CZK 2,400",Furnished,13,No,No,No,No,No,Yes,No,09. 05. 2022,355,262,265,205,155,306,637,827,"1,325",333,Excellent,"CZK 12,000",Personal,Low-energy building,C,10 to 30 years years,,,,District heating,,,,,,,
716217,"CZK 22,000",50.1068044,14.4975133,"Ocelářská, Prague - Vysočany",1 bedroom with open-plan kitchen,60 m²,"CZK 2,980",,2,No,No,Yes,Yes,Yes,Yes,No,Ihned,372,749,467,549,456,489,565,720,354,247,New build,"CZK 35,000",Personal,Low-energy building,A,,,,,,,,,,,Yes,
713465,"CZK 31,725",50.0795659,14.4357789,"Balbínova, Prague - Vinohrady",1 bedroom with open-plan kitchen,60 m²,"CZK 10,575",Furnished,3,No,No,No,No,No,Yes,No,21. 06. 2022,134,417,252,351,68,251,205,205,457,712,,,,,,,,,,,,,,,,,
715595,"CZK 9,200",50.05974,14.2945,"Na Radosti, Prague - Zličín",Studio,28 m²,"CZK 2,800",Partially furnished,1,No,No,No,No,No,No,No,01. 05. 2022,91,898,798,906,80,"1,016",679,"1,166",92,520,New build,"CZK 9,200",Personal,Brick building,G,,,,,,,,,,,,
683562,"CZK 16,000",50.08669,14.3467,"Nad Alejí, Prague - Břevnov",2 bedroom,56 m²,"CZK 4,000",Partially furnished,3,No,No,Yes,No,No,No,No,01. 06. 2022,212,422,286,361,180,300,95,159,517,101,Excellent,"CZK 20,000",Personal,Prefab concrete building,D,,,,Interior,District heating,,,,,,,
635038,"CZK 14,000",50.105327,14.50215,"Freyova, Prague - Vysočany",Studio,32 m²,"CZK 4,000",Furnished,4,No,No,No,No,No,Yes,No,01. 05. 2022,407,741,349,410,281,694,475,506,687,234,Excellent,"CZK 20,000",Personal,Other,B,,,,,,,,,,,Yes,
716301,"CZK 12,990",50.10329055555,14.51906805555,"Poděbradská, Prague - Vysočany",Studio,18 m²,"CZK 2,399",Furnished,3,No,No,Yes,No,No,Yes,No,,63,"1,436",206,"1,417",765,216,"1,046","1,462","1,011",524,New build,"CZK 15,389",Personal,Brick building,C,,,,,,,"CZK 15,389

                                
                                
                
i",,,,Yes,
716299,"CZK 13,800",50.05615,14.4466,"U Družstva Život, Prague - Nusle",1 bedroom with open-plan kitchen,50 m²,"CZK 2,500",Unfurnished,3,No,No,No,No,No,No,No,01. 05. 2022,392,998,83,491,319,989,294,210,874,330,Good,"CZK 41,400",Personal,Brick building,G,,,,,,,,,,,,
716298,"CZK 14,490",50.10329055555,14.51906805555,"Poděbradská, Prague - Vysočany",Studio,29 m²,"CZK 2,399",Furnished,3,No,No,Yes,No,No,No,No,,63,"1,436",206,"1,417",765,216,"1,046","1,462","1,011",524,New build,"CZK 16,889",Personal,Brick building,C,,,,,,,"CZK 16,889

                                
                                
                
i",,,,Yes,
715590,"CZK 43,775",50.09912,14.43261,Prague - Holešovice,3 bedroom with open-plan kitchen,113 m²,"CZK 5,500",Unfurnished,4,No,No,Yes,No,No,Yes,No,01. 06. 2022,54,722,20,64,99,38,187,"1,475",177,471,New build,"CZK 87,550",Personal,Brick building,A,,,,,,,,,,,,
716295,"CZK 13,990",50.10328972222,14.51910694444,"Poděbradská, Prague - Vysočany",Studio,27 m²,"CZK 2,399",Furnished,4,No,No,Yes,No,No,Yes,No,,61,"1,433",209,"1,415",762,219,"1,049","1,459","1,008",521,New build,"CZK 16,389",Personal,Brick building,C,,,,,,,"CZK 16,389

                                
                                
                
i",,,,Yes,
576044,"CZK 12,000",50.1251884,14.469121,"U Slovanky, Prague - Libeň",Studio,30 m²,"CZK 3,000",Furnished,4,No,No,Yes,No,Yes,Yes,Yes,28. 08. 2020,222,574,308,376,177,386,513,672,740,181,New build,"CZK 25,000",Personal,Brick building,B,1 to 10 years years,Premium materials and solutions,Middle floor,,District heating,,,,,,Yes,
445647,"CZK 10,500",50.1440866,14.57714,"Bohdanečská, Prague - Vinoř",Studio,69 m²,"CZK 2,200",Partially furnished,1,No,Yes,No,No,No,No,No,,36,47,579,171,562,458,400,158,196,,,,Personal,Brick building,,,,,,,,,,,,,
556222,"CZK 26,000",50.1011508,14.4284798,"Veletržní, Prague - Holešovice",2 bedroom with open-plan kitchen,78 m²,"CZK 6,800",Furnished,4,No,No,No,No,No,Yes,No,01. 08. 2022,175,265,141,239,116,220,226,195,584,,,"CZK 30,000",Personal,Brick building,,,Standard materials and solutions,Middle floor,Interior,Gas boiler,,,,,,,
565000,"CZK 13,500",50.1131896,14.4753639,"Braunerova, Prague - Libeň",Studio,30 m²,"CZK 2,400",Furnished,4,No,No,No,No,No,Yes,No,15. 05. 2022,147,82,"1,034",185,543,277,"1,232",680,144,,,"CZK 13,500",Personal,Brick building,,1 to 10 years years,,Middle floor,Overall,District heating,,,,,,Yes,
540339,"CZK 13,000",50.0743287,14.3177437,"Čistovická, Prague - Řepy",1 bedroom with open-plan kitchen,44 m²,"CZK 1,000",Unfurnished,1,No,No,No,No,No,No,No,15. 04. 2022,95,407,245,"1,357","1,182",257,370,276,,,,"CZK 26,000",Personal,Brick building,G,,,,,,,,,,,,
55276,"CZK 21,000",50.0775157,14.4945873,"Na Výsluní, Prague - Strašnice",2 bedroom,75 m²,"CZK 4,265",Furnished,2,Yes,No,No,No,No,No,No,,128,200,188,459,228,518,602,504,931,265,Excellent,"CZK 40,000",Personal,Brick building,,,,,,,,,,,,,
475975,"CZK 10,000",50.008473,14.4211704,"Pejevové, Prague - Modřany",Studio,27 m²,"CZK 2,500",Furnished,5,No,No,No,No,No,No,No,,448,594,445,455,523,480,241,"1,020",942,638,,"CZK 7,000",Personal,Prefab concrete building,C,,,,,,,,,,,,
713312,"CZK 16,000",50.1317955,14.5448996,Prague - Kbely,1 bedroom with open-plan kitchen,65 m²,"CZK 3,700",Partially furnished,2,Yes,Yes,No,No,No,No,No,01. 05. 2022,383,732,636,571,596,430,430,252,495,,Excellent,"CZK 16,000",Personal,Brick building,B,,,,,,15 m²,,,,,,
584474,"CZK 20,000",50.093256,14.448366,"Sokolovská, Prague - Karlín",1 bedroom with open-plan kitchen,50 m²,"CZK 3,000",Partially furnished,5,No,No,No,No,No,Yes,No,01. 04. 2022,162,40,176,224,43,326,383,"1,357",482,87,Excellent,"CZK 20,000",Cooperative,Brick building,G,,,,,,,,,,,,
716265,"CZK 12,000",50.03018,14.53209,"Steinerova, Prague - Háje",1 bedroom with open-plan kitchen,42 m²,"CZK 4,200",Partially furnished,4,No,No,No,No,No,Yes,No,01. 05. 2022,208,368,142,56,296,357,347,469,417,308,Excellent,"CZK 24,000",Cooperative,Prefab concrete building,C,,,,,,,,,,,,
716267,"CZK 14,990",50.07288527777,14.50361138888,"Oravská, Prague - Strašnice",2 bedroom,51 m²,"CZK 2,604",Partially furnished,2,No,No,No,No,No,No,No,,93,"1,198",73,988,574,856,402,666,919,272,Excellent,"CZK 17,594",Cooperative,Prefab concrete building,C,,,,,,,"CZK 17,594

                                
                                
                
i",,,,,
716266,"CZK 14,990",50.13787638888,14.50579833333,"Tupolevova, Prague - Letňany",2 bedroom,52 m²,"CZK 3,654",Partially furnished,5,No,No,No,No,No,Yes,No,,169,909,153,468,389,309,112,709,434,213,Excellent,"CZK 18,644",Personal,Prefab concrete building,C,,,,,,,"CZK 18,644

                                
                                
                
i",,,,,
716201,"CZK 12,500",50.0383794,14.3373813,"Bašteckého, Prague - Stodůlky",1 bedroom with open-plan kitchen,43 m²,"CZK 3,800",Partially furnished,4,No,No,Yes,No,No,Yes,No,01. 05. 2022,272,656,187,709,61,367,64,607,52,49,Excellent,"CZK 16,300",Personal,Prefab concrete building,C,,,,,,,,,,,,
716255,"CZK 54,789",50.0928722,14.4500782,"Křižíkova a, Prague - Karlín",5 bedroom,142 m²,"CZK 18,263",Furnished,4,Yes,Yes,No,No,No,Yes,Yes,01. 05. 2022,123,293,167,222,66,246,411,"1,258",283,254,,,,,,,,,,,,,,,,,
716254,"CZK 26,918",50.0582813,14.4230267,"Na Dolinách, Prague - Podolí",2 bedroom,80 m²,"CZK 8,972",Furnished,6,Yes,Yes,No,No,No,Yes,No,03. 06. 2022,186,458,318,436,44,435,455,544,404,439,,,,,,,,,,,,,,,,,
425185,"CZK 15,500",50.0761964,14.4905813,"Za Poštou, Prague - Strašnice",1 bedroom with open-plan kitchen,56 m²,,Furnished,1,No,No,Yes,No,No,No,No,,85,213,60,163,128,270,267,566,781,315,,"CZK 20,000",Personal,Brick building,C,1 to 10 years years,Premium materials and solutions,Raised ground floor,,Other,,,,,,,
712778,"CZK 28,000",50.07667,14.35035,"Nad Motolskou nemocnicí, Prague - Břevnov",2 bedroom with open-plan kitchen,120 m²,"CZK 5,000",Partially furnished,3,No,Yes,Yes,No,Yes,No,Yes,04. 04. 2022,325,968,"1,401",611,829,"1,088","1,138","1,303",542,,New build,"CZK 28,000",Personal,Brick building,G,,,,,,,,,,,,
716248,"CZK 15,500",50.06945,14.46176,"Arménská, Prague - Vršovice",2 bedroom,53 m²,"CZK 2,000",Partially furnished,4,Yes,No,Yes,No,No,Yes,No,01. 06. 2022,259,736,287,410,228,522,255,264,614,357,Excellent,"CZK 22,000",Personal,Brick building,G,,,,,,,,,,,,
715335,"CZK 14,900",50.08444,14.56321,"U Hostavického potoka, Prague - Hostavice",1 bedroom with open-plan kitchen,49 m²,"CZK 2,800",Furnished,1,No,Yes,Yes,No,No,Yes,Yes,01. 06. 2022,506,537,644,379,,,,,,,New build,"CZK 14,900",Personal,Brick building,G,,,,,,,,,,,,
573663,"CZK 19,900",50.0899503,14.3420175,"Na Okraji, Prague - Veleslavín",1 bedroom with open-plan kitchen,65 m²,"CZK 3,900",Partially furnished,4,Yes,No,Yes,No,No,Yes,No,11. 04. 2022,188,582,118,232,196,272,254,118,913,245,New build,"CZK 30,000",Personal,Brick building,C,1 to 10 years years,Premium materials and solutions,Top floor,,Central heating,,,,,,Yes,
716244,"CZK 18,000",50.01163,14.41707,"Hausmannova, Prague - Modřany",1 bedroom with open-plan kitchen,53 m²,"CZK 4,200",Unfurnished,,No,No,Yes,No,No,No,No,01. 05. 2022,96,817,288,719,734,710,315,348,"1,429",424,Excellent,"CZK 36,000",Cooperative,Prefab concrete building,G,,Standard materials and solutions,,Interior,District heating,,,,,,,
713010,"CZK 16,500",50.0887144,14.459732,"Koněvova, Prague - Žižkov",Studio,45 m²,CZK 900,Unfurnished,1,Yes,No,Yes,No,No,Yes,No,01. 05. 2022,84,377,222,366,71,311,440,610,127,443,New build,"CZK 33,000",Personal,Low-energy building,B,,,,,Central heating,,,,,,,
548319,"CZK 14,800",50.0453193,14.3371599,"Böhmova, Prague - Stodůlky",1 bedroom with open-plan kitchen,45 m²,"CZK 2,000",Partially furnished,2,No,No,No,No,No,Yes,No,01. 05. 2022,357,457,298,485,402,478,373,419,489,134,Excellent,"CZK 25,000",Personal,Prefab concrete building,,,,,,,,,,,,,
536913,"CZK 16,000",50.0848545,14.483906,Prague - Strašnice,Studio,52 m²,"CZK 4,000",Furnished,2,Yes,No,No,No,Yes,Yes,Yes,ihned,167,"1,302",579,"1,188",705,920,"1,055",176,690,361,,"CZK 20,000",Personal,Brick building,,1 to 10 years years,Premium materials and solutions,Middle floor,,,,,,,,Yes,
716235,"CZK 11,500",50.04454,14.56863,"Hornoměcholupská, Prague - Horní Měcholupy",Studio,33 m²,"CZK 2,500",Partially furnished,8,Yes,No,No,No,Yes,Yes,No,01. 06. 2022,137,"1,155",17,952,632,52,806,687,"1,106",484,New build,"CZK 14,000",Personal,Brick building,B,,,,,,,,,,,,
716233,"CZK 13,500",50.13091,14.41029,"Zelenohorská, Prague - Bohnice",1 bedroom with open-plan kitchen,43 m²,"CZK 3,500",Partially furnished,11,No,No,No,No,No,No,No,28. 04. 2022,79,905,114,835,112,902,630,449,303,,Excellent,"CZK 17,000",Personal,Prefab concrete building,B,,,,Overall,District heating,,,,,,,
652714,"CZK 24,000",50.140401,14.506608,"Místecká, Prague - Letňany",2 bedroom with open-plan kitchen,69 m²,"CZK 6,000",Furnished,9,No,No,Yes,Yes,Yes,Yes,No,01. 06. 2022,213,841,151,783,337,104,369,416,515,226,Excellent,"CZK 30,000",Personal,Prefab concrete building,G,,,,,,,,,,,,
277147,"CZK 28,000",50.0779565,14.4177856,Prague - Nové Město,2 bedroom with open-plan kitchen,92 m²,"CZK 4,500",Furnished,4,No,No,No,No,No,No,No,15. 12. 2021,64,431,52,170,24,345,178,243,487,429,Excellent,"CZK 42,000",Personal,Brick building,,1 to 10 years years,Premium materials and solutions,Attic,Interior,Gas boiler,2 m²,,,,,,
716225,"CZK 13,000",50.08876,14.3046,"U Valu, Prague - Ruzyně",1 bedroom with open-plan kitchen,42 m²,"CZK 3,000",Partially furnished,10,No,No,Yes,Yes,No,Yes,No,09. 05. 2022,224,487,429,416,372,473,383,"1,257",72,,Good,"CZK 15,000",Personal,Prefab concrete building,A,,,,,,,,,,,,
602233,"CZK 30,000",50.078073,14.423947,"Řeznická, Prague - Nové Město",3 bedroom,85 m²,"CZK 4,000",Furnished,1,Yes,No,No,No,No,Yes,No,01. 06. 2022,238,629,89,270,94,333,234,419,415,356,Good,"CZK 34,000",Personal,Brick building,F,over 50 years years,Standard materials and solutions,Middle floor,Bathroom unit,Central heating,,,,,,,
474952,"CZK 24,500",50.0523437,14.3299152,Prague - Stodůlky,2 bedroom with open-plan kitchen,90 m²,"CZK 3,000",Furnished,3,No,Yes,No,No,No,Yes,Yes,01. 07. 2022,190,"1,097",454,"1,062",658,617,"1,030",473,295,524,Excellent,CZK 1,Personal,Brick building,,1 to 10 years years,,,Overall,Central heating,,,,,,,
509105,"CZK 13,500",50.1058662,14.4495428,"U Měšťanského pivovaru, Prague - Holešovice",1 bedroom,49 m²,"CZK 4,200",Furnished,4,No,No,No,No,No,Yes,No,,134,324,75,137,35,140,340,599,310,417,,"CZK 20,000",Cooperative,Brick building,C,,,,,,,,,,,,
585738,"CZK 18,000",50.129377,14.551176,"Hornopočernická, Prague - Kbely",2 bedroom with open-plan kitchen,100 m²,"CZK 5,000",Partially furnished,2,No,Yes,Yes,No,No,No,No,28. 04. 2022,95,832,202,381,217,958,918,831,299,,Excellent,"CZK 22,000",Personal,Brick building,G,,,,,Central heating,,,,,,,
275083,"CZK 22,900",50.0855268,14.4464269,"Krásova, Prague - Žižkov",2 bedroom with open-plan kitchen,71 m²,CZK 900,Partially furnished,2,No,No,No,No,No,No,No,30. 04. 2022,159,357,61,299,88,378,280,107,439,583,,"CZK 30,000",Personal,Brick building,,1 to 10 years years,Standard materials and solutions,Middle floor,Interior,,,,,,,,
715209,"CZK 48,000",50.0718291,14.4385892,"Americká, Prague - Vinohrady",3 bedroom,72 m²,"CZK 16,000",Furnished,5,No,No,No,No,No,Yes,No,19. 06. 2022,274,300,81,587,69,312,103,253,793,568,,,,,,,,,,,,,,,,,
442008,"CZK 17,000",50.0996048,14.3444734,"Na Lužci, Prague - Vokovice",1 bedroom with open-plan kitchen,45 m²,"CZK 2,600",Partially furnished,2,No,No,No,No,No,No,No,27. 01. 2020,136,420,"1,003",113,625,347,545,405,91,,Excellent,"CZK 30,000",Personal,Brick building,B,1 to 10 years years,,Attic,Overall,Central heating,,,,,,,
113106,"CZK 16,800",50.0538919,14.4972997,"U Zahradního Města, Prague - Záběhlice",3 bedroom,67 m²,"CZK 4,500",Partially furnished,3,Yes,No,No,No,No,Yes,No,21. 02. 2022,302,839,466,"1,326",305,474,512,354,751,609,Excellent,"CZK 33,600",Personal,Brick building,,10 to 30 years years,Standard materials and solutions,Middle floor,,Central heating,,,,,,,
715350,"CZK 41,438",50.077834,14.422878,"Příčná, Prague - Nové Město",Studio,26 m²,"CZK 13,812",Furnished,2,No,No,No,No,No,No,No,20. 06. 2022,224,529,123,232,36,222,310,471,467,408,,,,,,,,,,,,,,,,,
716213,"CZK 28,688",50.0730353,14.4083714,"Zborovská, Prague - Smíchov",Studio,40 m²,"CZK 9,562",Furnished,2,Yes,Yes,No,No,No,No,No,27. 06. 2022,94,401,89,199,59,403,430,911,"1,115",601,,,,,,,,,,,,,,,,,
716212,"CZK 36,675",50.0830187,14.4654473,"Olšanská h, Prague - Žižkov",1 bedroom with open-plan kitchen,62 m²,"CZK 12,225",Furnished,7,No,No,No,No,No,Yes,No,27. 06. 2022,99,368,492,556,426,352,496,585,430,491,,,,,,,,,,,,,,,,,
471664,"CZK 30,000",50.0705672,14.4310026,"Legerova, Prague - Vinohrady",4 bedroom,126 m²,"CZK 12,000",Partially furnished,1,No,No,Yes,No,No,No,No,01. 05. 2022,190,550,227,457,24,316,119,480,501,471,Good,"CZK 50,000",Cooperative,Brick building,E,over 50 years years,Premium materials and solutions,Middle floor,Interior,Gas boiler,,,,,,,
716211,"CZK 14,900",50.09903,14.34437,"Na Lužci, Prague - Vokovice",1 bedroom with open-plan kitchen,34 m²,"CZK 2,600",Partially furnished,1,No,No,No,No,No,No,No,16. 05. 2022,219,"1,461",363,920,56,568,263,488,348,34,Excellent,"CZK 30,000",Personal,Brick building,B,,,,,,,,,,,,
338671,"CZK 14,000",50.0541721,14.3670096,"U Kříže, Prague - Jinonice",1 bedroom with open-plan kitchen,50 m²,"CZK 3,500",Partially furnished,,No,No,No,No,No,No,No,15. 05. 2022,224,233,454,316,525,229,835,806,201,,Excellent,"CZK 14,000",Personal,Brick building,,10 to 30 years years,Standard materials and solutions,Ground floor,,District heating,,,,,,,
619958,"CZK 25,000",50.036541,14.383217,"Pražského, Prague - Hlubočepy",4 bedroom,90 m²,"CZK 4,000",Furnished,2,Yes,No,No,No,No,Yes,No,01. 06. 2022,123,683,567,597,584,628,588,578,540,293,Excellent,"CZK 25,000",Personal,Other,G,10 to 30 years years,,Middle floor,Interior,District heating,,,,,,,
714011,"CZK 22,350",50.0799163,14.4476377,"Slavíkova, Prague - Žižkov",Studio,29 m²,"CZK 7,450",Furnished,5,No,Yes,No,No,No,Yes,No,10. 06. 2022,472,536,115,535,55,394,404,513,675,431,,,,,,,,,,,,,,,,,
633593,"CZK 29,000",50.041848,14.487247,"Jihovýchodní Ix, Prague - Záběhlice",2 bedroom with open-plan kitchen,83 m²,"CZK 6,000",Partially furnished,,No,Yes,Yes,No,Yes,No,No,01. 01. 2022,188,806,833,819,685,637,730,"1,285",528,,New build,"CZK 50,000",Personal,Brick building,B,,Premium materials and solutions,Ground floor,Overall,Central heating,400 m²,,,,,,
639060,"CZK 24,500",50.08376,14.455893,"Lupáčova, Prague - Žižkov",1 bedroom with open-plan kitchen,50 m²,"CZK 2,500",Furnished,8,No,No,No,No,No,Yes,No,01. 02. 2022,207,451,138,317,99,309,112,228,402,163,New build,"CZK 49,000",Personal,Brick building,A,,,,,,,,,,,,
689623,"CZK 16,000",50.06851,14.43809,"Perucká, Prague - Vinohrady",Studio,27 m²,"CZK 2,900",Partially furnished,5,No,Yes,Yes,No,No,Yes,No,26. 10. 2021,543,662,441,769,469,743,529,451,635,750,New build,"CZK 20,000",Personal,Brick building,C,,,,,,,,,,,Yes,
708271,"CZK 11,000",50.08458,14.47054,"Jana Želivského, Prague - Žižkov",Studio,29 m²,"CZK 4,000",Furnished,5,No,No,No,No,No,Yes,No,01. 05. 2022,76,143,67,473,86,349,656,604,456,529,Good,"CZK 22,000",Personal,Brick building,D,,Standard materials and solutions,Middle floor,Interior,Gas boiler,,,,,,,
713525,"CZK 20,250",50.0922767,14.4324355,"Klimentská, Prague - Nové Město",Studio,30 m²,"CZK 6,750",Furnished,1,No,No,No,No,No,No,No,06. 06. 2022,132,502,36,412,20,262,31,217,579,177,,,,,,,,,,,,,,,,,
715436,"CZK 27,504",50.0925119,14.4502616,"Křižíkova, Prague - Karlín",Studio,40 m²,"CZK 9,168",Furnished,6,Yes,Yes,No,No,No,Yes,Yes,03. 06. 2022,81,251,125,181,24,205,369,"1,216",241,212,,,,,,,,,,,,,,,,,
713969,"CZK 35,175",50.0769346,14.4169603,"Na Zbořenci, Prague - Nové Město",2 bedroom,65 m²,"CZK 11,725",Furnished,4,No,No,No,No,No,Yes,No,01. 06. 2022,168,319,99,227,101,409,227,243,632,429,,,,,,,,,,,,,,,,,
689621,"CZK 16,000",50.06851,14.43809,"Perucká, Prague - Vinohrady",Studio,26 m²,"CZK 2,900",Partially furnished,2,No,Yes,Yes,No,No,Yes,No,26. 10. 2021,543,662,441,769,469,743,529,451,635,750,New build,"CZK 20,000",Personal,Brick building,C,,,,,,,,,,,Yes,
324795,"CZK 20,000",50.0410429,14.3224894,"Bellušova, Prague - Stodůlky",2 bedroom with open-plan kitchen,73 m²,"CZK 3,500",Furnished,4,Yes,No,Yes,Yes,Yes,Yes,Yes,01. 07. 2022,384,920,595,566,716,630,330,689,483,215,Excellent,"CZK 10,000",Personal,Prefab concrete building,,10 to 30 years years,Premium materials and solutions,Middle floor,Overall,District heating,,,,,,,
700087,"CZK 19,500",50.07173,14.41968,"Na Hrádku, Prague - Nové Město",2 bedroom,50 m²,"CZK 4,000",Furnished,,No,No,Yes,No,No,No,No,19. 01. 2022,138,519,100,168,160,80,339,287,459,360,Excellent,"CZK 19,500",Personal,Brick building,G,,,,,,,,,,,,
457935,"CZK 10,500",50.086802,14.3838861,"Za Pohořelcem, Prague - Střešovice",Studio,15 m²,"CZK 2,900",Furnished,,No,No,No,No,No,No,No,,230,440,98,"1,076",198,840,347,337,259,80,,,Personal,Brick building,,,,,,,,,,,,,
713527,"CZK 22,950",50.0719498,14.4319499,"Koubkova, Prague - Nové Město",1 bedroom,39 m²,"CZK 7,650",Furnished,2,No,No,No,No,No,Yes,No,01. 06. 2022,203,332,57,333,25,268,328,262,694,682,,,,,,,,,,,,,,,,,
713522,"CZK 56,250",50.0766855,14.4294035,"Sokolská, Prague - Nové Město",1 bedroom with open-plan kitchen,45 m²,"CZK 18,750",Furnished,4,No,No,No,No,No,No,No,01. 05. 2022,212,525,185,151,68,162,317,392,109,262,,,,,,,,,,,,,,,,,
715723,"CZK 41,250",50.0643299,14.4102127,"Strakonická, Prague - Smíchov",2 bedroom,50 m²,"CZK 13,750",Furnished,-1,No,No,No,No,No,No,No,16. 05. 2022,211,382,250,989,170,745,812,"1,050",387,543,,,,,,,,,,,,,,,,,
705384,"CZK 19,500",50.0861644,14.3218614,"Rakovnická, Prague - Ruzyně",2 bedroom with open-plan kitchen,75 m²,"CZK 3,500",Furnished,2,No,No,No,Yes,Yes,No,No,15. 02. 2022,350,"1,494",393,284,"1,025",581,273,273,,,Excellent,"CZK 23,000",Personal,Brick building,G,,,,,,,,,,,,
512502,"CZK 20,000",50.0683646,14.4638444,"Altajská, Prague - Vršovice",1 bedroom with open-plan kitchen,50 m²,"CZK 4,500",Furnished,5,Yes,No,No,No,No,No,No,,179,538,265,233,242,581,271,355,652,413,,"CZK 23,000",Personal,Low-energy building,,1 to 10 years years,,Middle floor,,,,,,,,,
716190,"CZK 11,400",50.09068,14.45339,"Thámova, Prague - Karlín",Small studio,28 m²,CZK 960,Partially furnished,3,No,No,No,No,No,No,No,28. 04. 2022,275,621,289,249,52,323,279,834,310,243,Excellent,"CZK 11,400",Personal,Brick building,G,,,,,,,,,,,,
716174,"CZK 23,000",50.10822,14.55535,"Za černým mostem, Prague - Hloubětín",1 bedroom with open-plan kitchen,58 m²,"CZK 4,000",Furnished,7,Yes,Yes,Yes,Yes,Yes,Yes,Yes,01. 05. 2022,141,637,237,149,591,383,"1,160","1,274",640,,New build,"CZK 25,000",Personal,Brick building,A,,,,,District heating,,,,,,Yes,
290365,"CZK 9,000",50.0248707,14.4253578,"Údolní, Prague - Braník",Small studio,29 m²,"CZK 4,000",Furnished,1,No,No,No,No,No,No,No,01. 06. 2022,136,725,218,718,65,178,358,369,"1,176",252,Excellent,"CZK 13,000",Personal,Prefab concrete building,,1 to 10 years years,Standard materials and solutions,Raised ground floor,,District heating,,,,,,,
714338,"CZK 63,413",50.0907943,14.427063,"Dlouhá, Prague - Staré Město",2 bedroom with open-plan kitchen,62 m²,"CZK 21,137",Furnished,3,No,No,No,No,No,Yes,No,28. 05. 2022,2,191,16,48,1,127,128,306,209,259,,,,,,,,,,,,,,,,,
716180,"CZK 12,000",50.03846,14.50836,"Majerského, Prague - Chodov",Small studio,30 m²,"CZK 2,500",Partially furnished,2,No,No,No,No,No,No,No,01. 05. 2022,202,879,72,364,186,566,326,370,165,,Good,"CZK 14,500",Cooperative,Prefab concrete building,G,,,,,,,,,,,,
716178,"CZK 12,000",50.0334774,14.5321147,"Mendelova, Prague - Háje",1 bedroom with open-plan kitchen,43 m²,"CZK 3,350",Partially furnished,2,No,No,Yes,No,No,Yes,No,01. 05. 2022,267,280,49,367,82,348,253,190,396,50,Excellent,"CZK 15,000",Personal,Prefab concrete building,G,,,,,,,,,,,,
713206,"CZK 19,000",50.07059,14.30566,"Španielova, Prague - Řepy",3 bedroom,74 m²,"CZK 6,500",Furnished,7,Yes,No,No,No,No,Yes,No,01. 05. 2022,234,969,215,931,184,497,172,364,"1,327",453,Good,"CZK 30,000",Personal,Prefab concrete building,G,30 to 50 years years,Standard materials and solutions,Middle floor,Exterior,,,,,,,,
713499,"CZK 39,015",50.0882058,14.4262315,"Rybná, Prague - Staré Město",1 bedroom with open-plan kitchen,44 m²,"CZK 13,005",Furnished,3,No,No,No,No,No,No,No,19. 05. 2022,281,192,58,183,11,368,315,297,289,305,,,,,,,,,,,,,,,,,
186129,"CZK 13,000",50.0876866,14.4527865,Prague - Žižkov,1 bedroom with open-plan kitchen,42 m²,"CZK 3,500",Partially furnished,4,No,No,Yes,No,No,No,No,01. 05. 2022,43,346,171,484,33,364,327,484,272,564,Excellent,"CZK 16,500",Personal,Brick building,,,Standard materials and solutions,Top floor,,,,,,,,,
716172,"CZK 12,000",50.06736,14.36831,"Musílkova, Prague - Košíře",1 bedroom with open-plan kitchen,42 m²,"CZK 3,500",Partially furnished,1,No,No,Yes,No,Yes,No,No,01. 05. 2022,333,757,234,567,420,478,391,885,257,425,Excellent,"CZK 24,000",Personal,Brick building,G,,,,,,,,,,,,
599161,"CZK 19,000",50.07205,14.488471,"V Olšinách, Prague - Strašnice",1 bedroom with open-plan kitchen,66 m²,"CZK 6,500",Furnished,4,No,Yes,No,No,No,Yes,No,02. 05. 2022,170,727,227,351,250,210,332,691,308,227,Excellent,"CZK 26,000",Personal,Brick building,B,1 to 10 years years,Premium materials and solutions,Top floor,Overall,Gas boiler,,,,,,,
710120,"CZK 17,000",50.09243,14.44636,"Karlínské náměstí, Prague - Karlín",1 bedroom with open-plan kitchen,58 m²,"CZK 2,000",Partially furnished,4,No,No,Yes,No,No,No,No,28. 04. 2022,58,206,68,430,100,499,278,"1,248",588,185,Good,"CZK 19,000",Cooperative,Brick building,C,,,,,,,,,,,,
716095,"CZK 11,000",50.06946,14.37034,"Pod Kavalírkou, Prague - Košíře",1 bedroom,36 m²,,Furnished,4,No,No,No,No,No,No,No,01. 06. 2022,152,461,160,193,58,145,291,"1,174",611,93,Good,"CZK 22,000",Municipal,Brick building,B,,,,,,,,,,,,
716156,"CZK 14,000",50.06164,14.36178,"Naskové, Prague - Košíře",Studio,34 m²,"CZK 3,000",Furnished,3,Yes,No,Yes,No,No,Yes,Yes,01. 05. 2022,449,"1,154","1,147",965,"1,241",791,422,"1,082",653,,New build,"CZK 17,000",Personal,Brick building,G,,,,,,,,,,,,
716153,"CZK 17,000",50.02973,14.59703,"Oty Bubeníčka, Prague - Uhříněves",Studio,32 m²,"CZK 2,000",Furnished,4,No,No,Yes,Yes,Yes,Yes,No,01. 07. 2022,153,292,295,401,213,265,711,814,918,101,New build,"CZK 50,000",Personal,Brick building,B,,,,,,,,,,,,
696054,"CZK 18,000",50.06312,14.40452,"Radlická, Prague - Smíchov",Studio,42 m²,"CZK 3,500",Furnished,1,No,No,No,No,No,No,No,01. 01. 1970,25,450,75,856,15,203,647,619,790,542,Excellent,"CZK 18,000",Personal,Brick building,E,,,,,,,,,,,,
715505,"CZK 15,500",50.05001,14.48432,"Střimelická, Prague - Záběhlice",3 bedroom,69 m²,"CZK 8,400",Furnished,3,Yes,No,Yes,No,No,Yes,No,01. 07. 2022,102,553,211,495,293,"1,490",341,109,904,40,Excellent,"CZK 60,000",Personal,Brick building,G,,,,,,,,,,,,
716146,"CZK 14,900",50.1153416,14.4743339,"Na Sypkém, Prague - Libeň",Studio,34 m²,"CZK 2,700",Partially furnished,1,No,No,Yes,No,No,No,No,27. 04. 2022,134,"1,388",426,"1,206",128,680,505,"1,371",852,342,New build,"CZK 15,000",Personal,Other,B,,Premium materials and solutions,Raised ground floor,,Gas boiler,,,,,,,
648716,"CZK 12,000",50.04791,14.556934,"Boloňská, Prague - Horní Měcholupy",Studio,49 m²,"CZK 5,000",Partially furnished,,No,No,Yes,No,Yes,No,No,01. 06. 2022,34,904,139,981,346,"1,048",552,404,678,335,Excellent,"CZK 15,000",Personal,Prefab concrete building,C,1 to 10 years years,,,,,,,,,,,
715500,"CZK 29,000",50.04711,14.30195,"Svitákova, Prague - Stodůlky",3 bedroom with open-plan kitchen,100 m²,"CZK 9,000",Partially furnished,1,No,No,No,No,No,No,No,08. 08. 2022,334,243,49,247,"1,107","1,075",702,863,160,,New build,"CZK 40,000",Personal,Other,B,,,,,,,,,,,,
716135,"CZK 26,000",50.07025,14.41663,"Pod Slovany, Prague - Nové Město",2 bedroom with open-plan kitchen,93 m²,"CZK 5,500",Partially furnished,3,No,No,Yes,No,No,Yes,No,01. 07. 2022,248,730,35,222,163,156,255,89,309,278,Excellent,"CZK 52,000",Personal,Brick building,G,,,,,,,,,,,,
716142,"CZK 18,500",50.11066,14.4517,"Varhulíkové, Prague - Holešovice",1 bedroom with open-plan kitchen,47 m²,"CZK 3,400",Furnished,4,Yes,No,No,No,No,Yes,Yes,01. 06. 2022,106,957,476,769,459,555,413,"1,232",686,354,New build,"CZK 25,000",Personal,Prefab concrete building,F,10 to 30 years years,,Middle floor,,Central heating,,,,,,,
715481,"CZK 35,175",50.0769346,14.4169603,"Na Zbořenci, Prague - Nové Město",2 bedroom,65 m²,"CZK 11,725",Furnished,3,No,No,No,No,No,Yes,No,02. 06. 2022,168,319,99,227,101,409,227,243,632,429,,,,,,,,,,,,,,,,,
716108,"CZK 14,000",50.04626,14.45966,"Hodonínská, Prague - Michle",Studio,30 m²,"CZK 3,500",Partially furnished,1,No,No,Yes,No,No,No,No,01. 05. 2022,172,498,97,591,165,570,403,230,189,118,Excellent,"CZK 28,000",Personal,Brick building,B,,,,,,,,,,,,
716128,"CZK 14,000",49.96188,14.39462,"Žitavského, Prague - Zbraslav",1 bedroom with open-plan kitchen,53 m²,"CZK 1,000",Unfurnished,1,No,No,No,No,No,No,No,27. 04. 2022,260,593,"1,177","1,363","1,185",875,"1,293",,,,Excellent,"CZK 14,000",Personal,Brick building,G,,,,,,,,,,,,
716103,"CZK 11,000",50.0683841,14.4990407,"Krupská, Prague - Strašnice",2 bedroom,50 m²,"CZK 6,000",Partially furnished,1,No,No,No,No,No,No,No,01. 05. 2022,351,"1,213",200,"1,002",330,87,332,214,772,129,Good,"CZK 11,000",Personal,Prefab concrete building,G,,,Raised ground floor,,Central heating,,,,,,,
273391,"CZK 6,000",49.9590093,14.3622008,"Jiříčkova, Prague - Lipence",Other,18 m²,,Partially furnished,1,No,No,No,No,Yes,No,No,01. 06. 2022,534,297,386,555,488,,,,,,,"CZK 7,000",Personal,Brick building,,10 to 30 years years,Standard materials and solutions,Ground floor,,Electric boiler,50 m²,,,,,,
714283,"CZK 21,900",50.05814,14.37359,"Nyklíčkova, Prague - Jinonice",1 bedroom with open-plan kitchen,42 m²,"CZK 4,000",Furnished,1,No,Yes,Yes,No,Yes,Yes,Yes,03. 05. 2022,156,365,313,"1,248",325,427,967,164,"1,424",210,New build,CZK 2,Personal,Brick building,C,,,,,,,,,,,,
695122,"CZK 14,000",50.14774165,14.4489425,"Bolebořská, Prague - Dolní Chabry",2 bedroom,63 m²,"CZK 5,130",Unfurnished,2,No,No,Yes,No,Yes,No,No,28. 04. 2022,159,299,405,368,359,822,757,631,,,Excellent,"CZK 18,000",Cooperative,Brick building,G,,,,,,,,,,,,
716117,"CZK 29,252",50.0925135,14.4556107,"Šaldova, Prague - Karlín",1 bedroom,40 m²,"CZK 9,751",Furnished,2,No,Yes,No,No,No,Yes,No,09. 06. 2022,367,716,142,317,156,180,346,"1,276",231,204,,,,,,,,,,,,,,,,,
714304,"CZK 29,520",50.0861053,14.4085409,"Na Kampě, Prague - Malá Strana",1 bedroom with open-plan kitchen,39 m²,"CZK 9,840",Furnished,3,No,No,No,No,No,No,No,16. 05. 2022,417,407,197,386,62,673,443,555,732,174,,,,,,,,,,,,,,,,,
716116,"CZK 27,720",50.0925119,14.4502616,"Křižíkova, Prague - Karlín",Studio,51 m²,"CZK 9,240",Furnished,5,Yes,No,No,No,No,Yes,Yes,02. 06. 2022,81,251,125,181,24,205,369,"1,216",241,212,,,,,,,,,,,,,,,,,
716115,"CZK 68,348",50.0928722,14.4500782,"Křižíkova a, Prague - Karlín",3 bedroom with open-plan kitchen,160 m²,"CZK 22,783",Furnished,6,No,Yes,No,No,No,Yes,Yes,01. 06. 2022,123,293,167,222,66,246,411,"1,258",283,254,,,,,,,,,,,,,,,,,
449204,"CZK 15,000",50.080914047543,14.457678969311,"Křišťanova, Prague - Žižkov",1 bedroom with open-plan kitchen,49 m²,"CZK 4,000",Furnished,2,No,No,Yes,Yes,No,Yes,No,01. 06. 2022,270,524,229,264,183,637,302,205,533,220,Good,"CZK 30,000",Personal,Brick building,,,,,,,,,,,,,
87340,"CZK 28,000",50.0734871,14.3916435,"Zapova, Prague - Smíchov",4 bedroom,112 m²,CZK 987,Partially furnished,3,No,No,No,No,No,No,Yes,,287,"1,211",218,902,58,993,297,739,"1,200",129,Excellent,"CZK 56,000",Personal,Brick building,,,Standard materials and solutions,Middle floor,Overall,Gas boiler,,,,,,,
288662,"CZK 19,500",50.1014102,14.3708384,"Vostrovská, Prague - Dejvice",2 bedroom,50 m²,"CZK 4,000",Unfurnished,1,No,No,No,No,No,No,No,01. 04. 2021,294,928,442,564,441,347,743,854,776,314,Good,"CZK 45,000",Personal,Brick building,G,,Standard materials and solutions,Middle floor,Interior,Gas boiler,,,,,,,
706890,"CZK 11,890",50.05203722222,14.33069055555,"Symfonická, Prague - Stodůlky",Studio,52 m²,"CZK 2,149",Partially furnished,1,Yes,No,No,No,No,Yes,No,,263,979,527,944,628,499,912,521,435,407,Excellent,"CZK 14,039",Personal,Other,C,,,,,,,"CZK 14,039

                                
                                
                
i",,,,,
603343,"CZK 42,500",50.085203,14.428022,"Nekázanka, Prague - Nové Město",Other,114 m²,"CZK 5,000",Furnished,5,No,No,No,No,No,Yes,No,01. 05. 2022,232,136,116,213,140,227,297,701,403,667,Excellent,"CZK 47,500",Personal,Brick building,G,30 to 50 years years,Premium materials and solutions,Top floor,Overall,Central heating,,,,,,,
453637,"CZK 14,500",50.1412404,14.510172,"Kuželova, Prague - Letňany",1 bedroom with open-plan kitchen,43 m²,"CZK 4,000",Partially furnished,8,Yes,No,No,No,No,Yes,No,22. 04. 2022,389,777,192,"1,061",400,377,543,309,551,81,Excellent,"CZK 29,000",Personal,Brick building,,,Standard materials and solutions,Top floor,,Electric boiler,,,,,,,
705981,"CZK 13,990",50.08524,14.44984,"Štítného, Prague - Žižkov",Studio,30 m²,CZK 760,Partially furnished,1,No,No,No,No,No,Yes,No,29. 04. 2022,255,222,50,211,7,189,62,278,94,553,Excellent,"CZK 25,000",Personal,Other,C,1 to 10 years years,Standard materials and solutions,Middle floor,Overall,Other,,,,,,,
716105,"CZK 18,500",50.03031,14.53358,"Steinerova, Prague - Háje",4 bedroom,74 m²,"CZK 5,100",Partially furnished,1,No,No,Yes,Yes,No,Yes,No,02. 05. 2022,158,293,175,163,375,465,267,387,525,287,Excellent,"CZK 23,600",Cooperative,Prefab concrete building,B,,,,,,,,,,,,
716034,"CZK 12,500",50.0605665,14.427394,"Mikuláše z Husi, Prague - Nusle",Studio,31 m²,CZK 500,Partially furnished,3,Yes,No,Yes,No,No,No,No,01. 05. 2022,63,686,39,246,15,354,416,100,138,255,Good,"CZK 13,000",Personal,Brick building,G,,,,,,,,,,,,
563249,"CZK 16,000",50.0623095,14.3256648,"5. máje, Prague - Stodůlky",1 bedroom with open-plan kitchen,60 m²,"CZK 4,000",Partially furnished,1,Yes,No,No,No,Yes,No,No,02. 05. 2022,485,"1,479","1,251",799,"1,296","1,308","1,488",572,,,Excellent,"CZK 21,000",Personal,Brick building,,,Standard materials and solutions,Ground floor,Overall,Gas boiler,,,,,,,
52689,"CZK 12,000",50.0798736,14.4868594,"Počernická, Prague - Strašnice",Studio,36 m²,"CZK 2,215",Furnished,1,Yes,Yes,No,No,No,No,No,01. 05. 2022,133,695,208,479,369,294,718,599,359,290,,"CZK 20,000",Personal,Brick building,,,,,,,,,,,,,
433813,"CZK 15,000",50.0563315,14.2828153,"Sazovická, Prague - Zličín",1 bedroom with open-plan kitchen,58 m²,"CZK 2,500",Furnished,1,No,No,No,No,No,No,No,01. 06. 2022,86,"1,102",756,686,911,810,300,"1,049",149,,New build,"CZK 40,000",Personal,Brick building,A,1 to 10 years years,Premium materials and solutions,,,District heating,,,,,,Yes,
716097,"CZK 14,500",50.08415,14.44908,"Víta Nejedlého, Prague - Žižkov",1 bedroom with open-plan kitchen,47 m²,CZK 500,Partially furnished,2,No,No,No,No,No,No,No,01. 05. 2022,287,125,75,152,66,146,133,200,244,514,New build,"CZK 30,000",Personal,Brick building,G,,,,,,,,,,,,
31263,"CZK 16,000",50.1115724,14.4775255,Prague - Libeň,3 bedroom,70 m²,"CZK 3,820",Unfurnished,,No,No,No,No,No,No,No,27. 04. 2022,207,"1,286",438,977,150,622,756,"1,018",699,41,Good,"CZK 20,000",Personal,Brick building,,,Standard materials and solutions,Ground floor,Interior,Electric boiler,,,,,,,
576460,"CZK 13,500",50.0807978,14.4844751,"Nad Vodovodem, Prague - Strašnice",1 bedroom,40 m²,"CZK 3,500",Furnished,1,No,No,No,No,No,No,No,01. 12. 2019,90,950,192,680,234,537,972,610,92,319,Excellent,"CZK 27,000",Personal,Brick building,G,,,Raised ground floor,Overall,Central heating,,,,,,,
551075,"CZK 16,000",50.0893775,14.46752,"Biskupcova, Prague - Žižkov",1 bedroom with open-plan kitchen,50 m²,"CZK 1,000",Furnished,3,No,No,Yes,No,No,Yes,No,27. 04. 2022,97,735,22,65,76,93,396,481,427,267,Excellent,"CZK 19,800",Personal,Brick building,,over 50 years years,Standard materials and solutions,Middle floor,Overall,Other,,,,,,,
699695,"CZK 14,500",50.14276,14.5262,"Kadečkové, Prague - Letňany",1 bedroom with open-plan kitchen,42 m²,"CZK 2,000",Unfurnished,2,Yes,No,Yes,No,Yes,Yes,Yes,01. 06. 2022,814,"1,169","1,498",373,"1,293","1,416",726,490,,,New build,"CZK 29,000",Personal,Brick building,B,,,,,,,,,,,,
685106,"CZK 17,500",50.06662,14.42307,"Horská, Prague - Nové Město",Studio,33 m²,"CZK 5,000",Furnished,5,Yes,No,No,No,No,No,No,01. 07. 2022,114,989,23,10,23,31,353,549,399,398,New build,"CZK 22,500",Personal,Brick building,B,,,,,,,,,,,,
685115,"CZK 23,000",50.06636,14.42333,"Horská, Prague - Nové Město",1 bedroom with open-plan kitchen,50 m²,"CZK 7,000",Furnished,4,No,No,No,Yes,Yes,Yes,Yes,06. 06. 2022,165,981,117,149,162,109,492,669,487,409,New build,"CZK 30,000",Personal,Brick building,B,,,,,,,,,,,,
716094,"CZK 37,500",50.0633339,14.4440155,"Mečislavova, Prague - Nusle",1 bedroom with open-plan kitchen,56 m²,"CZK 12,500",Furnished,5,No,No,No,No,No,Yes,No,01. 06. 2022,243,541,100,272,177,315,457,820,635,594,,,,,,,,,,,,,,,,,
380614,"CZK 20,000",50.0981031,14.3582803,"Evropská, Prague - Vokovice",2 bedroom with open-plan kitchen,75 m²,"CZK 5,000",Partially furnished,7,No,No,No,Yes,No,Yes,No,01. 05. 2022,90,334,179,160,60,190,155,133,"1,075",294,Excellent,"CZK 20,000",Cooperative,Prefab concrete building,,,Standard materials and solutions,,,District heating,,,,,,,
438163,"CZK 15,000",50.1295252,14.4159214,"Ratibořská, Prague - Bohnice",1 bedroom with open-plan kitchen,42 m²,"CZK 3,264",Partially furnished,7,No,No,No,No,Yes,Yes,No,01. 06. 2022,184,402,362,332,325,409,495,643,"1,423",196,Excellent,"CZK 15,000",Personal,Prefab concrete building,,1 to 10 years years,Standard materials and solutions,Middle floor,Overall,District heating,,,,,,,
714474,"CZK 37,500",50.0822245,14.4146349,"Krocínova, Prague - Staré Město",2 bedroom with open-plan kitchen,102 m²,"CZK 12,500",Furnished,2,Yes,Yes,No,No,No,Yes,No,17. 06. 2022,258,962,181,204,1,145,392,348,304,385,,,,,,,,,,,,,,,,,
715207,"CZK 17,625",50.0753237,14.4575982,"Korunní, Prague - Vinohrady",Studio,29 m²,"CZK 5,875",Furnished,1,No,No,No,No,No,Yes,No,19. 06. 2022,159,612,67,290,33,373,307,359,795,244,,,,,,,,,,,,,,,,,
586683,"CZK 17,000",50.05174,14.543651,"Horolezecká, Prague - Hostivař",1 bedroom with open-plan kitchen,58 m²,"CZK 6,000",Furnished,6,Yes,No,No,No,No,No,No,15. 02. 2020,235,288,192,226,389,754,172,512,293,,,"CZK 23,000",Personal,Brick building,A,,,,,,,,,,,,
464110,"CZK 15,000",49.9615309,14.3822935,"Pickova, Prague - Zbraslav",1 bedroom with open-plan kitchen,68 m²,"CZK 4,000",Partially furnished,2,Yes,No,Yes,No,Yes,Yes,No,01. 06. 2022,345,327,599,615,976,210,227,,,,Excellent,"CZK 25,000",Personal,Low-energy building,C,10 to 30 years years,Premium materials and solutions,Middle floor,,District heating,,,,,,,
713500,"CZK 63,000",50.0895437,14.4260543,"Rybná, Prague - Staré Město",3 bedroom,86 m²,"CZK 21,000",Furnished,3,No,No,No,No,No,No,No,01. 06. 2022,138,70,36,61,45,257,146,128,234,214,,,,,,,,,,,,,,,,,
713487,"CZK 39,971",50.0877117,14.4091678,"U Lužického semináře, Prague - Malá Strana",2 bedroom,56 m²,"CZK 13,324",Furnished,1,No,Yes,No,No,No,No,No,27. 05. 2022,337,356,19,335,43,634,392,362,865,215,,,,,,,,,,,,,,,,,
713475,"CZK 32,250",50.0717643,14.4385436,"Americká, Prague - Vinohrady",Studio,27 m²,"CZK 10,750",Furnished,4,No,No,No,No,No,Yes,No,16. 05. 2022,272,322,70,607,60,509,83,250,792,565,,,,,,,,,,,,,,,,,
713490,"CZK 39,600",50.0876118,14.4080467,"Míšeňská, Prague - Malá Strana",1 bedroom with open-plan kitchen,46 m²,"CZK 13,200",Furnished,2,No,No,No,No,No,No,No,16. 05. 2022,249,259,109,237,65,537,295,274,806,231,,,,,,,,,,,,,,,,,
716057,"CZK 16,000",50.07755,14.43073,"Čelakovského sady, Prague - Vinohrady",Small studio,22 m²,"CZK 1,000",Furnished,4,No,No,No,No,No,Yes,No,10. 06. 2022,231,407,203,126,70,313,504,578,223,376,Excellent,"CZK 10,000",Personal,Other,B,,,,,,,,,,,,
713473,"CZK 31,425",50.0643299,14.4102127,"Strakonická, Prague - Smíchov",Studio,30 m²,"CZK 10,475",Furnished,2,No,No,No,No,No,Yes,No,19. 05. 2022,211,382,250,989,170,745,812,"1,050",387,543,,,,,,,,,,,,,,,,,
654369,"CZK 12,000",50.08424,14.34691,"Brunclíkova, Prague - Břevnov",1 bedroom,38 m²,"CZK 2,500",Unfurnished,2,No,No,Yes,No,No,No,No,15. 05. 2022,92,716,67,569,258,587,280,300,360,153,Excellent,"CZK 12,000",Personal,Prefab concrete building,G,,,Middle floor,Overall,District heating,,,,,,,
716048,"CZK 17,000",50.05292,14.50358,"Práčská, Prague - Záběhlice",1 bedroom with open-plan kitchen,59 m²,"CZK 3,800",Partially furnished,4,Yes,No,Yes,No,Yes,Yes,No,01. 05. 2022,1,718,910,"1,130",116,981,920,400,"1,230",614,Excellent,"CZK 23,000",Personal,Brick building,C,,,,,Central heating,,,,,,,
715945,"CZK 9,000",50.11268,14.613,"Běchorská, Prague - Horní Počernice",Small studio,25 m²,CZK 600,Furnished,1,No,No,No,No,No,No,No,26. 04. 2022,211,435,184,847,454,144,"1,122","1,468",232,,Excellent,"CZK 5,000",Personal,Brick building,G,,Standard materials and solutions,Attic,,Central heating,,,,,,,
690612,"CZK 21,000",50.0619286,14.365565,"Na Pomezí, Prague - Košíře",1 bedroom with open-plan kitchen,45 m²,"CZK 3,967",Furnished,4,Yes,No,No,No,Yes,Yes,Yes,04. 11. 2021,42,"1,053","1,047","1,298",921,"1,141",320,437,850,182,New build,"CZK 30,000",Personal,Brick building,B,,,,,,,,,,,,
713501,"CZK 33,750",50.0718291,14.4385892,"Americká, Prague - Vinohrady",1 bedroom,43 m²,"CZK 11,250",Furnished,4,No,No,No,No,No,Yes,No,16. 05. 2022,274,300,81,587,69,312,103,253,793,568,,,,,,,,,,,,,,,,,
713467,"CZK 23,625",50.0984636,14.4253146,"Ovenecká, Prague - Holešovice",1 bedroom with open-plan kitchen,55 m²,"CZK 7,875",Furnished,5,No,No,No,No,No,Yes,No,01. 06. 2022,220,310,47,185,156,218,202,"1,485",496,451,,,,,,,,,,,,,,,,,
715418,"CZK 14,500",50.0367596,14.5056446,Prague - Chodov,Studio,34 m²,"CZK 3,000",Partially furnished,1,Yes,No,No,No,No,Yes,Yes,23. 05. 2022,221,601,232,"1,420",43,398,201,201,38,102,New build,"CZK 14,500",Personal,Other,B,,,,,,,,,,,,
713518,"CZK 60,289",50.0821872,14.4175604,"Národní, Prague - Staré Město",2 bedroom,,"CZK 20,096",Furnished,1,No,No,No,No,No,No,No,01. 05. 2022,198,801,15,163,39,141,121,304,55,465,,,,,,,,,,,,,,,,,
713495,"CZK 49,650",50.0882058,14.4262315,"Rybná, Prague - Staré Město",1 bedroom with open-plan kitchen,53 m²,"CZK 16,550",Furnished,3,No,No,No,No,No,Yes,No,06. 06. 2022,281,192,58,183,11,368,315,297,289,305,,,,,,,,,,,,,,,,,
713464,"CZK 43,350",50.0894289,14.423732,"Masná, Prague - Staré Město",Studio,46 m²,"CZK 14,450",Furnished,3,No,No,No,No,No,Yes,No,18. 05. 2022,68,269,126,89,16,107,70,52,156,144,,,,,,,,,,,,,,,,,
713459,"CZK 51,225",50.090911,14.4295366,"Soukenická, Prague - Nové Město",1 bedroom with open-plan kitchen,50 m²,"CZK 17,075",Furnished,4,No,No,No,No,No,Yes,Yes,18. 05. 2022,144,325,176,152,60,230,49,259,388,439,,,,,,,,,,,,,,,,,
712898,"CZK 17,000",50.09525,14.50889,"Mezilehlá, Prague - Hrdlořezy",1 bedroom with open-plan kitchen,61 m²,"CZK 5,700",Partially furnished,,No,Yes,Yes,No,Yes,Yes,Yes,01. 05. 2022,189,499,654,463,962,728,"1,279","1,091",262,,New build,"CZK 40,000",Personal,Brick building,B,,,,,,,,,,,Yes,
25959,"CZK 12,600",50.1335671,14.4751987,"Kubíkova, Prague - Kobylisy",1 bedroom with open-plan kitchen,48 m²,"CZK 2,350",Partially furnished,2,No,No,Yes,No,No,Yes,No,25. 04. 2022,242,978,430,"1,107",305,922,324,445,"1,248",356,,"CZK 20,000",,Prefab concrete building,C,,Standard materials and solutions,Middle floor,,District heating,,,,,,,
716038,"CZK 14,500",50.07486,14.42255,"Salmovská, Prague - Nové Město",Studio,20 m²,"CZK 1,500",Furnished,4,No,No,No,No,No,Yes,No,01. 05. 2022,150,397,110,388,95,207,304,316,662,421,New build,"CZK 16,000",Personal,Brick building,G,,,,,,,,,,,,
716039,"CZK 27,000",50.09876,14.40049,"Jaselská, Prague - Bubeneč",3 bedroom,73 m²,"CZK 6,000",Unfurnished,,No,No,Yes,No,No,No,No,01. 05. 2022,265,383,113,66,65,280,189,750,443,27,Excellent,"CZK 66,000",Personal,Brick building,G,,,Ground floor,Overall,Electric boiler,,,,,,,
714044,"CZK 15,000",50.06881,14.43794,"Perucká, Prague - Vinohrady",Studio,24 m²,"CZK 3,598",Furnished,1,No,No,Yes,No,No,No,No,29. 04. 2022,533,652,431,809,459,782,519,441,675,740,New build,"CZK 50,000",Personal,Prefab concrete building,C,,,,,,,,,,,,
272123,"CZK 11,000",50.1208585,14.502658,"Prosecká, Prague - Prosek",1 bedroom with open-plan kitchen,40 m²,"CZK 2,500",Furnished,7,No,No,Yes,Yes,No,Yes,No,01. 05. 2022,191,487,321,484,410,341,113,616,"1,205",69,,"CZK 20,000",Personal,Prefab concrete building,,,Standard materials and solutions,Middle floor,Overall,District heating,,,,,,,
716036,"CZK 74,850",50.090911,14.4295366,"Soukenická, Prague - Nové Město",2 bedroom with open-plan kitchen,90 m²,"CZK 24,950",Furnished,4,Yes,Yes,No,No,No,Yes,Yes,18. 05. 2022,144,325,176,152,60,230,49,259,388,439,,,,,,,,,,,,,,,,,
716035,"CZK 63,000",50.090911,14.4295366,"Soukenická, Prague - Nové Město",2 bedroom with open-plan kitchen,90 m²,"CZK 21,000",Furnished,4,No,No,No,No,No,Yes,Yes,18. 05. 2022,144,325,176,152,60,230,49,259,388,439,,,,,,,,,,,,,,,,,
713454,"CZK 31,875",50.0902753,14.4260311,"Rybná, Prague - Staré Město",Studio,40 m²,"CZK 10,625",Furnished,1,No,No,No,No,No,No,No,26. 05. 2022,124,153,54,67,17,194,209,158,151,202,,,,,,,,,,,,,,,,,
665567,"CZK 15,000",50.07714,14.44497,"Vinohradská, Prague - Vinohrady",1 bedroom,35 m²,"CZK 3,000",Furnished,1,No,No,Yes,No,No,Yes,No,01. 05. 2022,200,453,160,372,92,133,461,156,338,289,Good,"CZK 18,000",Personal,Brick building,G,1 to 10 years years,Standard materials and solutions,Middle floor,Interior,Electric boiler,,,,,,,
695256,"CZK 18,000",50.07786,14.41518,"Vojtěšská, Prague - Nové Město",Studio,32 m²,"CZK 4,000",Furnished,1,No,No,No,No,No,No,No,01. 05. 2022,186,489,77,381,97,578,197,255,533,269,New build,"CZK 22,000",Personal,Brick building,G,1 to 10 years years,Premium materials and solutions,Ground floor,Interior,Electric boiler,,,,,,,
716033,"CZK 10,500",50.0552,14.40241,"Na Konvářce, Prague - Smíchov",1 bedroom,43 m²,"CZK 1,000",Furnished,-1,No,No,No,No,No,No,No,09. 05. 2022,229,"1,377",537,"1,353",526,992,901,832,622,,Excellent,"CZK 12,000",Personal,Brick building,G,,,,,,,,,,,,
651403,"CZK 16,000",50.064968,14.594997,"Ke Korunce, Prague - Dubeč",1 bedroom with open-plan kitchen,58 m²,"CZK 4,000",Furnished,3,No,Yes,No,No,Yes,No,No,01. 05. 2022,101,959,427,585,313,653,967,,,,New build,"CZK 30,000",Personal,Brick building,A,,Premium materials and solutions,,,Gas boiler,,,,,,Yes,
716029,"CZK 37,656",50.0928722,14.4500782,"Křižíkova a, Prague - Karlín",1 bedroom,36 m²,"CZK 12,552",Furnished,2,No,No,No,No,No,Yes,Yes,12. 06. 2022,123,293,167,222,66,246,411,"1,258",283,254,,,,,,,,,,,,,,,,,
714443,"CZK 33,675",50.0749602,14.4305105,"Legerova, Prague - Vinohrady",Studio,30 m²,"CZK 11,225",Furnished,6,No,No,No,No,No,Yes,No,21. 05. 2022,22,463,81,96,72,158,361,436,384,451,,,,,,,,,,,,,,,,,
484160,"CZK 13,900",50.1040098,14.4465769,"Osadní, Prague - Holešovice",1 bedroom,40 m²,"CZK 3,100",Furnished,2,Yes,No,No,No,No,Yes,No,01. 08. 2021,74,140,28,286,62,53,280,432,375,327,Excellent,"CZK 17,000",Cooperative,Brick building,,1 to 10 years years,Standard materials and solutions,Middle floor,Overall,Electric boiler,,,,,,,
391791,"CZK 15,000",50.1018961,14.4186782,Prague - Bubeneč,Studio,20 m²,"CZK 2,000",Furnished,1,No,Yes,Yes,No,No,Yes,No,01. 06. 2022,150,482,75,350,137,567,163,"1,493",189,330,New build,"CZK 17,000",Personal,Brick building,C,1 to 10 years years,Premium materials and solutions,Ground floor,,Electric boiler,10 m²,,,,,Yes,
713968,"CZK 22,575",50.0769346,14.4169603,"Na Zbořenci, Prague - Nové Město",1 bedroom,48 m²,"CZK 7,525",Furnished,1,No,Yes,No,No,No,Yes,No,21. 05. 2022,168,319,99,227,101,409,227,243,632,429,,,,,,,,,,,,,,,,,
552720,"CZK 23,999",50.1017746,14.419715,"Havanská, Prague - Bubeneč",3 bedroom,108 m²,CZK 500,Unfurnished,4,No,No,No,No,No,Yes,No,03/2019,217,398,16,267,151,484,94,280,290,,Excellent,CZK 1,Personal,Brick building,G,,Standard materials and solutions,Middle floor,,Gas boiler,,,,,,,
716016,"CZK 28,000",50.08622,14.44951,"Dalimilova, Prague - Žižkov",1 bedroom with open-plan kitchen,50 m²,"CZK 3,300",Furnished,3,Yes,No,Yes,No,No,Yes,No,01. 06. 2022,250,377,223,384,63,344,89,302,89,726,Excellent,"CZK 56,000",Personal,Brick building,F,,,,,,,,,,,,
671979,"CZK 9,500",50.09451,14.49492,"U Kněžské louky, Prague - Žižkov",1 bedroom with open-plan kitchen,44 m²,"CZK 1,000",Partially furnished,,No,No,No,No,No,No,No,01. 05. 2022,148,366,252,698,97,388,286,527,430,225,Excellent,"CZK 10,500",Personal,Brick building,G,30 to 50 years years,Standard materials and solutions,Ground floor,,Other,,,,,,,
710368,"CZK 16,990",50.0770962,14.4355937,Prague - Vinohrady,Studio,24 m²,"CZK 2,890",,,No,No,No,No,No,Yes,No,01. 06. 2022,32,97,83,143,48,139,384,384,579,732,Excellent,"CZK 10,000",Personal,Brick building,G,,,,,,,,,,,,
716009,"CZK 17,500",50.0483074,14.3124035,Prague - Stodůlky,1 bedroom with open-plan kitchen,55 m²,"CZK 3,500",Partially furnished,1,No,Yes,No,No,Yes,Yes,Yes,01. 05. 2022,385,385,256,924,205,493,300,294,201,191,Excellent,"CZK 25,000",Personal,Brick building,D,1 to 10 years years,,Ground floor,,,40 m²,,,,,Yes,
715582,"CZK 30,000",50.0848162,14.4690502,"Pitterova, Prague - Žižkov",Studio,50 m²,"CZK 10,000",Furnished,6,Yes,Yes,No,No,No,Yes,Yes,22. 05. 2022,130,178,103,494,73,222,671,527,372,445,,,,,,,,,,,,,,,,,
575502,"CZK 18,000",50.0656113,14.4278253,"Oldřichova, Prague - Nusle",2 bedroom with open-plan kitchen,52 m²,"CZK 1,200",Partially furnished,4,No,No,Yes,No,No,No,No,01. 06. 2022,241,876,155,451,119,301,585,697,417,245,Excellent,"CZK 34,000",Personal,Brick building,G,,Standard materials and solutions,Middle floor,Overall,Electric boiler,,,,,,,
715999,"CZK 10,000",50.08865,14.40115,"Nerudova, Prague - Malá Strana",Studio,33 m²,"CZK 4,420",Partially furnished,3,No,No,No,No,No,No,No,13. 05. 2022,86,349,35,251,0,75,280,716,862,497,Good,"CZK 20,000",Personal,Brick building,G,,,,,,,,,,,,
715997,"CZK 15,000",50.06641,14.39943,"Bieblova, Prague - Smíchov",1 bedroom,50 m²,"CZK 2,500",Partially furnished,4,No,No,No,No,No,No,No,09. 05. 2022,45,276,6,647,218,360,80,274,536,212,Excellent,"CZK 15,600",Other,Brick building,G,,,,,,,,,,,,
593217,"CZK 15,000",50.066406,14.399425,"Bieblova, Prague - Smíchov",1 bedroom,55 m²,"CZK 2,500",Partially furnished,3,No,No,No,No,No,No,No,09. 05. 2022,45,276,6,647,218,360,80,274,536,212,Excellent,"CZK 15,600",Other,Brick building,E,,,,,,,,,,,,
704120,"CZK 21,000",50.0568,14.37815,"Kačirkova, Prague - Jinonice",1 bedroom with open-plan kitchen,57 m²,"CZK 3,000",Partially furnished,4,No,No,Yes,Yes,No,Yes,Yes,01. 02. 2022,425,383,567,433,477,975,428,"1,467",364,,New build,"CZK 24,000",Personal,Brick building,B,,,,,Central heating,,,,,,,
715981,"CZK 24,000",50.07555,14.38298,"Pod Hájem, Prague - Smíchov",1 bedroom with open-plan kitchen,75 m²,"CZK 5,000",Furnished,1,No,No,No,No,Yes,No,No,01. 06. 2022,575,"1,192",746,"1,338",759,"1,396",771,376,"1,049",371,Excellent,"CZK 54,000",Personal,Brick building,G,,,,,,,,,,,,
653705,"CZK 19,900",50.10566,14.48235,"náměstí Na Balabence, Prague - Libeň",2 bedroom,51 m²,"CZK 3,400",Partially furnished,6,No,No,Yes,Yes,No,Yes,No,01. 05. 2022,121,603,138,235,361,720,117,622,486,75,Excellent,"CZK 35,000",Personal,Brick building,G,,,,,,,,,,,,
715976,"CZK 10,500",49.99684,14.3205,"Na Cikánce, Prague - Radotín",Studio,35 m²,"CZK 2,500",Furnished,1,No,No,No,No,No,No,No,01. 05. 2022,127,,,,,,,,,,Excellent,"CZK 30,000",Personal,Brick building,G,,,,,,,,,,,,
623185,"CZK 16,000",50.064273,14.270993,"Hostivická, Prague - Sobín",1 bedroom with open-plan kitchen,52 m²,"CZK 2,000",Partially furnished,2,No,Yes,No,No,Yes,No,No,27. 04. 2022,49,"1,321",86,"1,128",,,,,,,Excellent,"CZK 19,000",Personal,Brick building,B,1 to 10 years years,Standard materials and solutions,Middle floor,Overall,Central heating,20 m²,,,,,Yes,
457605,"CZK 18,000",50.0450286,14.4444703,"Herálecká III, Prague - Krč",2 bedroom,52 m²,"CZK 3,000",Furnished,3,No,No,Yes,No,No,No,No,15. 04. 2022,272,447,226,378,222,312,296,343,756,328,Good,"CZK 36,000",Personal,Prefab concrete building,,,Standard materials and solutions,Middle floor,Overall,District heating,,,,,,,
713926,"CZK 18,000",50.06363,14.5918,"Starodubečská, Prague - Dubeč",2 bedroom with open-plan kitchen,67 m²,"CZK 4,100",Unfurnished,2,No,Yes,No,No,Yes,No,No,12. 04. 2022,48,487,319,195,77,263,577,,,,Excellent,"CZK 30,000",Personal,Brick building,G,1 to 10 years years,Standard materials and solutions,Middle floor,Overall,Gas boiler,,,,,,,
715967,"CZK 27,936",50.0918972,14.4483184,"Křižíkova, Prague - Karlín",Studio,44 m²,"CZK 9,312",Furnished,3,No,No,No,No,No,Yes,Yes,15. 06. 2022,224,159,75,308,58,360,238,"1,343",368,105,,,,,,,,,,,,,,,,,
715966,"CZK 28,505",50.0918972,14.4483184,"Křižíkova, Prague - Karlín",Studio,44 m²,"CZK 9,501",Furnished,2,No,Yes,No,No,No,Yes,Yes,15. 06. 2022,224,159,75,308,58,360,238,"1,343",368,105,,,,,,,,,,,,,,,,,
715965,"CZK 26,208",50.0928722,14.4500782,"Křižíkova a, Prague - Karlín",Studio,50 m²,"CZK 8,736",Furnished,1,No,No,No,No,No,Yes,Yes,01. 06. 2022,123,293,167,222,66,246,411,"1,258",283,254,,,,,,,,,,,,,,,,,
715964,"CZK 28,857",50.0918972,14.4483184,"Křižíkova, Prague - Karlín",Studio,49 m²,"CZK 9,619",Furnished,2,Yes,Yes,No,No,No,Yes,Yes,27. 05. 2022,224,159,75,308,58,360,238,"1,343",368,105,,,,,,,,,,,,,,,,,
715963,"CZK 30,276",50.0918972,14.4483184,"Křižíkova, Prague - Karlín",1 bedroom with open-plan kitchen,63 m²,"CZK 10,092",Furnished,2,Yes,Yes,No,No,No,Yes,Yes,04. 06. 2022,224,159,75,308,58,360,238,"1,343",368,105,,,,,,,,,,,,,,,,,
715962,"CZK 20,663",50.0910052,14.4210032,"Bílkova, Prague - Staré Město",Studio,35 m²,"CZK 6,887",Furnished,5,Yes,No,No,No,No,Yes,No,10. 06. 2022,190,595,159,287,45,281,221,427,252,401,,,,,,,,,,,,,,,,,
715960,"CZK 12,500",50.13412,14.43702,"Jestřebická, Prague - Čimice",Studio,38 m²,"CZK 3,000",Partially furnished,2,No,No,No,No,No,No,No,01. 05. 2022,307,725,183,706,"1,098",927,622,624,195,,Excellent,"CZK 16,000",Personal,Brick building,G,,,,,,,,,,,,
377950,"CZK 22,000",50.1050536,14.4879673,"Drahobejlova, Prague - Libeň",2 bedroom with open-plan kitchen,67 m²,"CZK 4,700",Furnished,6,Yes,No,Yes,No,Yes,Yes,Yes,01. 09. 2021,200,80,120,118,164,278,337,565,181,47,New build,"CZK 40,000",Personal,Brick building,B,1 to 10 years years,Premium materials and solutions,Middle floor,,District heating,,,,,,Yes,
520398,"CZK 24,000",50.0127421,14.3877674,Prague - Velká Chuchle,2 bedroom with open-plan kitchen,96 m²,"CZK 3,500",Furnished,,Yes,No,No,No,Yes,No,No,01. 05. 2022,197,372,300,504,598,,,,,,,"CZK 48,000",Personal,Brick building,C,,,,,,,,,,,,
715954,"CZK 14,900",50.13412,14.43702,"Jestřebická, Prague - Čimice",Studio,52 m²,"CZK 3,000",Partially furnished,1,No,Yes,Yes,Yes,No,No,No,01. 05. 2022,307,725,183,706,"1,098",927,622,624,195,,Excellent,"CZK 18,000",Personal,Brick building,G,,,,,,,,,,,,
566413,"CZK 11,000",50.0599398,14.4285851,"Na Pankráci, Prague - Nusle",Studio,30 m²,CZK 880,Partially furnished,1,No,No,No,No,No,No,No,01. 06. 2020,157,726,41,354,95,245,526,9,172,365,,"CZK 11,000",Personal,Brick building,,,,,,,,,,,,,
715950,"CZK 20,000",50.08309,14.56256,"U Hostavického potoka, Prague - Hostavice",1 bedroom with open-plan kitchen,57 m²,"CZK 3,900",Furnished,1,Yes,No,No,No,Yes,Yes,Yes,11. 06. 2022,586,521,791,107,,,,,,,New build,"CZK 40,000",Personal,Brick building,G,,,,,,,,,,,,
641972,"CZK 8,000",49.965235,14.36761,"Josefa Houdka, Prague - Lipence",Studio,25 m²,"CZK 4,000",Furnished,,No,Yes,No,No,No,No,No,01. 02. 2021,114,954,694,"1,440",963,"1,322",,,,,Excellent,"CZK 10,000",Personal,Brick building,B,,,,,,,,,,,,
577002,"CZK 16,000",50.1171669,14.4317465,"Trojská, Prague - Troja",1 bedroom with open-plan kitchen,43 m²,"CZK 3,500",Unfurnished,1,No,No,No,No,No,No,No,01. 01. 2022,141,"1,030","1,164",484,672,"1,054",233,748,,,,"CZK 48,000",Personal,Brick building,C,,,,,,,,,,,,
710751,"CZK 14,500",50.06853,14.38762,"Nad Popelkou, Prague - Smíchov",1 bedroom with open-plan kitchen,55 m²,CZK 950,Partially furnished,1,No,No,Yes,No,No,No,No,01. 07. 2022,52,986,661,"1,180",625,"1,073",698,"1,065",537,177,Excellent,"CZK 29,000",Personal,Brick building,F,,,Ground floor,Overall,Other,,,,,,,
715943,"CZK 17,000",50.14016,14.37385,"Pod Rybníčkem, Prague - Suchdol",1 bedroom with open-plan kitchen,62 m²,"CZK 4,000",Partially furnished,1,No,Yes,No,No,No,No,Yes,01. 05. 2022,647,"1,057",733,"1,062",201,979,752,"1,304","1,480",594,Excellent,"CZK 30,000",Personal,Brick building,G,,,,,,,,,,,,
712631,"CZK 14,000",50.090668,14.3081756,"Žukovského, Prague - Ruzyně",1 bedroom with open-plan kitchen,42 m²,"CZK 3,500",Partially furnished,9,No,No,No,Yes,Yes,Yes,No,21. 04. 2022,177,173,80,67,185,123,375,"1,335","1,464",119,Excellent,"CZK 28,000",Personal,Prefab concrete building,G,,Standard materials and solutions,,Overall,,,,,,,,
656514,"CZK 13,000",50.08298,14.45354,"Bořivojova, Prague - Žižkov",Studio,50 m²,"CZK 3,000",Furnished,5,No,No,No,No,No,Yes,No,01. 05. 2022,161,133,103,297,14,246,314,447,599,333,Excellent,"CZK 15,000",Personal,Brick building,D,,Standard materials and solutions,Middle floor,,Gas boiler,,,,,,,
150740,"CZK 13,000",50.070043,14.3676817,"Plzeňská, Prague - Smíchov",1 bedroom,36 m²,"CZK 2,000",Partially furnished,1,No,No,No,No,No,No,No,,281,584,176,286,42,178,350,"1,363",693,362,Excellent,"CZK 15,000",Personal,Brick building,C,1 to 10 years years,Standard materials and solutions,,,Gas boiler,,,,,,,
713920,"CZK 86,625",50.0882058,14.4262315,"Rybná, Prague - Staré Město",3 bedroom with open-plan kitchen,150 m²,"CZK 28,875",Furnished,4,No,No,No,No,No,No,No,11. 06. 2022,281,192,58,183,11,368,315,297,289,305,,,,,,,,,,,,,,,,,
690939,"CZK 14,500",50.090668,14.3081756,"Žukovského, Prague - Ruzyně",1 bedroom with open-plan kitchen,41 m²,"CZK 4,500",Partially furnished,8,Yes,No,No,No,Yes,Yes,No,01. 05. 2022,177,173,80,67,185,123,375,"1,335","1,464",119,Excellent,"CZK 28,000",Personal,Prefab concrete building,C,,Standard materials and solutions,,Overall,District heating,,,,,,,
536098,"CZK 14,000",50.090469220676,14.451218128051,"Pernerova, Prague - Karlín",Studio,33 m²,"CZK 1,500",Unfurnished,2,No,No,No,No,No,Yes,No,01. 07. 2022,367,465,234,364,151,430,172,992,425,360,Excellent,"CZK 30,000",Personal,Brick building,,,,,,Other,,,,,,,
624497,"CZK 14,500",50.056579,14.373918,"Kačírkova, Prague - Jinonice",Studio,33 m²,"CZK 2,500",,3,Yes,No,No,No,No,No,No,01. 05. 2022,167,110,211,"1,262",70,153,729,190,"1,174",169,New build,"CZK 10,000",Personal,Low-energy building,A,,,,,,,,,,,,
255872,"CZK 12,000",50.1175036,14.4174317,Prague - Troja,Studio,33 m²,"CZK 2,000",Partially furnished,6,No,No,No,Yes,No,Yes,No,20. 01. 2022,55,358,50,"1,460",389,561,211,700,435,,Excellent,"CZK 20,000",Personal,Prefab concrete building,B,,,Middle floor,Overall,District heating,,,,,,,
715316,"CZK 20,000",50.0471,14.30405,"Svitákova, Prague - Stodůlky",1 bedroom with open-plan kitchen,47 m²,"CZK 4,000",Furnished,5,Yes,No,No,No,Yes,Yes,No,20. 04. 2022,176,168,143,114,939,958,584,745,127,,Excellent,"CZK 40,000",Personal,Brick building,G,,,,,,,,,,,,
715924,"CZK 14,000",50.00671,14.433,"Mladenovova, Prague - Modřany",3 bedroom,73 m²,"CZK 7,500",Partially furnished,4,Yes,No,Yes,No,No,Yes,No,02. 05. 2022,163,"1,244",583,"1,233",133,"1,229",687,144,495,129,Excellent,"CZK 20,000",Personal,Prefab concrete building,G,,,,,,,,,,,,
350796,"CZK 12,000",50.1039365,14.5127289,"Pod Harfou, Prague - Vysočany",Studio,36 m²,"CZK 3,000",Partially furnished,7,No,No,No,No,No,Yes,No,08. 05. 2022,155,236,"1,362",936,429,759,"1,081",804,219,,,"CZK 15,000",Personal,Brick building,,,,,,District heating,,,,,,,
715920,"CZK 35,000",50.0895937,14.3696966,"Na Bateriích, Prague - Střešovice",2 bedroom with open-plan kitchen,83 m²,"CZK 4,000",Partially furnished,3,Yes,Yes,No,No,Yes,No,No,26. 04. 2022,383,882,218,971,385,350,465,717,531,348,Excellent,"CZK 35,000",Personal,Other,B,,,,,,,,,,,,
715919,"CZK 16,000",50.07212,14.45724,"Mexická, Prague - Vršovice",1 bedroom with open-plan kitchen,45 m²,CZK 650,Unfurnished,,No,No,No,No,No,No,No,27. 04. 2022,155,665,114,441,0,439,253,383,677,378,Excellent,"CZK 16,000",Personal,Brick building,G,,,,,,,,,,,,
694826,"CZK 12,000",50.135,14.46912,Prague - Kobylisy,1 bedroom with open-plan kitchen,49 m²,"CZK 5,000",Partially furnished,1,No,No,Yes,No,No,No,No,01. 05. 2022,280,993,364,"1,015",324,893,399,221,"1,423",246,Good,"CZK 17,000",Personal,Prefab concrete building,A,1 to 10 years years,Standard materials and solutions,Raised ground floor,,District heating,,,,,,,
715306,"CZK 20,000",50.06326,14.28874,"Křivatcová, Prague - Zličín",2 bedroom with open-plan kitchen,70 m²,"CZK 5,000",Partially furnished,1,Yes,No,No,Yes,Yes,Yes,No,21. 04. 2022,185,129,"1,122","1,370",544,"1,481",680,838,446,,New build,"CZK 25,000",Personal,Brick building,A,,,,,,,,,,,,
554738,"CZK 17,000",50.0694,14.4840287,Prague - Strašnice,1 bedroom with open-plan kitchen,42 m²,"CZK 4,500",Partially furnished,5,Yes,No,Yes,No,No,No,No,16. 05. 2022,341,748,429,494,264,420,647,692,482,532,New build,"CZK 34,000",Personal,Brick building,,,,,,District heating,,,,,,Yes,
715650,"CZK 16,000",50.11068,14.44779,Prague - Holešovice,1 bedroom with open-plan kitchen,48 m²,"CZK 2,500",Partially furnished,2,No,No,Yes,No,No,Yes,No,01. 05. 2022,35,917,310,850,463,547,290,"1,277",779,158,Excellent,"CZK 32,000",Personal,Brick building,G,,Standard materials and solutions,Middle floor,Interior,Other,,,,,,,
715906,"CZK 19,000",50.1206665,14.4611681,"Ke Stírce, Prague - Kobylisy",1 bedroom with open-plan kitchen,55 m²,"CZK 2,000",Furnished,1,No,Yes,No,No,Yes,Yes,No,01. 06. 2022,166,138,188,453,286,224,598,234,742,300,Excellent,"CZK 19,000",Personal,Other,G,1 to 10 years years,Standard materials and solutions,Ground floor,,Gas boiler,10 m²,,,,,,
715902,"CZK 28,500",50.07732,14.42821,"Žitná, Prague - Nové Město",2 bedroom with open-plan kitchen,62 m²,"CZK 3,800",Furnished,3,Yes,No,No,No,No,Yes,No,01. 05. 2022,151,552,123,257,0,336,366,446,89,353,Excellent,"CZK 57,000",Personal,Brick building,G,,,,,,,,,,,,
713734,"CZK 13,000",50.03225,14.55993,"Jakobiho, Prague - Petrovice",1 bedroom with open-plan kitchen,43 m²,"CZK 4,000",Partially furnished,9,No,No,Yes,No,Yes,Yes,No,01. 05. 2022,123,"1,094",507,"1,191",86,966,252,125,490,18,Excellent,"CZK 13,000",Personal,Prefab concrete building,B,,,,Bathroom unit,District heating,,,,,,,
715205,"CZK 29,900",50.0812346,14.4298177,"Opletalova, Prague - Nové Město",2 bedroom,71 m²,"CZK 2,140",,6,No,No,No,No,No,No,No,20. 04. 2022,333,299,45,200,54,39,271,954,190,582,Good,"CZK 31,000",Personal,Other,,,,,,,,"CZK 5,666",,,,,
647423,"CZK 16,000",50.071234,14.407889,"Vrázova, Prague - Smíchov",2 bedroom,76 m²,"CZK 3,000",Partially furnished,,No,No,No,No,No,No,No,15. 05. 2022,194,566,107,108,148,383,672,"1,031","1,018",505,Excellent,"CZK 30,000",Personal,Brick building,G,,,Raised ground floor,,,,,,,,,
713379,"CZK 16,000",50.12931,14.49382,"Makedonská, Prague - Střížkov",Studio,42 m²,"CZK 2,600",Partially furnished,6,Yes,No,No,No,Yes,No,No,18. 04. 2022,208,909,53,834,481,327,408,285,"1,035",155,New build,"CZK 30,000",Personal,Brick building,D,1 to 10 years years,Premium materials and solutions,Top floor,Overall,District heating,,,,,,Yes,
715878,"CZK 10,000",50.06038,14.3974,"Holubova, Prague - Smíchov",Studio,25 m²,"CZK 3,000",Partially furnished,1,No,No,No,No,No,No,No,01. 06. 2022,177,897,204,758,197,597,434,717,495,373,Excellent,"CZK 10,000",Personal,Brick building,G,,,Ground floor,,,,,,,,,
715877,"CZK 18,490",50.04469833333,14.51761583333,"náměstí Přátelství, Prague - Hostivař",1 bedroom with open-plan kitchen,61 m²,"CZK 2,329",Furnished,7,Yes,No,No,No,Yes,Yes,No,,153,134,70,59,913,292,"1,006",102,,,New build,"CZK 20,819",Personal,Brick building,B,,,,,,,"CZK 20,819

                                
                                
                
i",,,,Yes,
715876,"CZK 15,000",50.0124216,14.4017606,"Vrátnická, Prague - Modřany",1 bedroom with open-plan kitchen,53 m²,"CZK 4,000",Partially furnished,2,Yes,No,Yes,No,No,Yes,Yes,25. 04. 2022,79,953,290,"1,197",615,"1,258","1,259",537,,,New build,"CZK 30,000",Personal,Brick building,G,,,,,,,,,,,,
715268,"CZK 20,000",50.06891,14.40011,"Kováků, Prague - Smíchov",1 bedroom with open-plan kitchen,48 m²,"CZK 3,000",Partially furnished,1,No,No,Yes,No,Yes,Yes,Yes,01. 05. 2022,70,130,118,310,54,23,349,625,840,192,Excellent,"CZK 20,000",Personal,Brick building,G,,,,,,,,,,,,
715858,"CZK 19,000",50.07632,14.42788,"Hálkova, Prague - Nové Město",1 bedroom with open-plan kitchen,46 m²,"CZK 6,000",Furnished,1,No,No,No,No,No,No,No,01. 05. 2022,216,660,188,120,96,151,187,262,216,168,Excellent,"CZK 25,000",Personal,Brick building,G,,,,,,,,,,,,
715862,"CZK 13,800",50.09118,14.34546,"Krásného, Prague - Veleslavín",1 bedroom with open-plan kitchen,56 m²,"CZK 3,500",Partially furnished,4,No,No,Yes,No,No,No,No,01. 05. 2022,144,382,95,309,314,284,183,208,689,39,Excellent,"CZK 15,000",Personal,Prefab concrete building,G,,,,,,,,,,,,
24757,"CZK 7,500",50.0939141,14.5324196,Prague - Hloubětín,Studio,28 m²,"CZK 3,000",Furnished,2,No,No,No,No,No,No,No,Ihned,293,747,"1,083","1,062","1,356","1,185","1,300",688,557,,,"CZK 10,000",Personal,Brick building,B,,,,,Central heating,,,,,,,
645018,"CZK 15,000",50.086305,14.422709,"Kamzíková, Prague - Staré Město",1 bedroom,25 m²,"CZK 5,000",Furnished,2,No,No,No,No,No,No,No,01. 06. 2021,328,441,85,176,39,224,174,429,297,437,Excellent,"CZK 20,000",Personal,Brick building,G,,,Middle floor,,Other,,,,,,,
715256,"CZK 16,000",50.09179,14.44168,"Sokolovská, Prague - Karlín",Studio,18 m²,"CZK 2,500",Furnished,2,No,Yes,No,No,No,No,No,25. 04. 2022,170,423,142,168,13,109,427,891,261,225,Excellent,"CZK 18,500",Personal,Brick building,G,,,,,,,,,,,,
35209,"CZK 16,400",50.0709893,14.5034918,"Sečská 21, Prague - Strašnice",2 bedroom,65 m²,"CZK 3,000",Partially furnished,4,No,No,No,No,No,No,No,21. 05. 2018,268,"1,308",227,"1,096",483,613,251,400,960,64,,"CZK 20,000",Cooperative,Prefab concrete building,,30 to 50 years years,Standard materials and solutions,Top floor,Overall,District heating,,,,,,,
496356,"CZK 28,000",50.0896186,14.4324025,"Havlíčkova, Prague - Nové Město",2 bedroom with open-plan kitchen,164 m²,"CZK 3,000",Furnished,4,No,No,No,No,No,No,No,01. 07. 2022,212,199,123,98,33,92,321,131,259,513,,"CZK 31,000",Personal,Brick building,G,,,Attic,,Gas boiler,,,,,,,
715849,"CZK 12,000",50.06067,14.43501,"Žateckých, Prague - Nusle",1 bedroom with open-plan kitchen,47 m²,CZK 630,Partially furnished,2,No,No,Yes,No,No,No,No,26. 04. 2022,174,819,29,613,88,562,214,528,450,342,Excellent,"CZK 20,000",Personal,Brick building,D,,,,,,,,,,,,
665746,"CZK 26,000",50.10527,14.44355,"Argentinská, Prague - Holešovice",1 bedroom with open-plan kitchen,60 m²,"CZK 3,000",Furnished,7,No,Yes,Yes,No,Yes,Yes,No,01. 05. 2022,185,451,296,464,326,319,626,804,173,345,New build,,Personal,Brick building,A,,,,,,,,,,,Yes,
703675,"CZK 23,500",50.09054,14.42611,"Dlouhá, Prague - Staré Město",1 bedroom with open-plan kitchen,49 m²,"CZK 1,800",Furnished,1,No,No,Yes,No,No,Yes,No,01. 06. 2022,77,200,48,62,30,211,200,222,145,196,Excellent,"CZK 49,580",Personal,Brick building,G,,Premium materials and solutions,Middle floor,Interior,Central heating,,,,,,,
715239,"CZK 18,000",50.0886644,14.484117,"Olgy Havlové, Prague - Žižkov",Studio,38 m²,"CZK 1,500",Partially furnished,7,Yes,No,Yes,No,Yes,Yes,No,20. 04. 2022,381,810,423,623,137,666,490,358,355,113,New build,"CZK 54,000",Personal,Brick building,A,1 to 10 years years,Premium materials and solutions,Middle floor,,Central heating,,,,,,,
715839,"CZK 15,000",50.0406073,14.4348978,"Hudečkova, Prague - Krč",1 bedroom with open-plan kitchen,46 m²,,Furnished,1,No,No,Yes,Yes,No,No,No,15. 05. 2022,181,741,120,386,116,610,939,235,501,102,Excellent,"CZK 15,000",Personal,Prefab concrete building,G,,,,,,,,,,,,
596203,"CZK 12,700",50.0144,14.58426,"Chorošová, Prague - Pitkovice",Studio,37 m²,"CZK 2,900",Partially furnished,1,Yes,Yes,Yes,No,No,Yes,No,01. 06. 2022,412,,,,,,,,,,New build,"CZK 15,000",Personal,Low-energy building,B,1 to 10 years years,Premium materials and solutions,Ground floor,,Central heating,41 m²,,,,,Yes,
715833,"CZK 12,900",50.102466,14.562647,"Dobrovolného, Prague - Černý Most",Studio,35 m²,"CZK 3,500",Furnished,5,Yes,No,Yes,No,No,Yes,No,01. 05. 2022,108,574,484,"1,489",859,639,584,239,806,325,Excellent,"CZK 25,800",Personal,Brick building,A,,,,,District heating,,,,,,,
81884,"CZK 14,000",50.070642,14.677549,"Rohožnická, Prague - Újezd nad Lesy",1 bedroom with open-plan kitchen,50 m²,"CZK 3,000",Furnished,3,Yes,No,Yes,No,Yes,No,No,10. 07. 2022,377,132,424,197,380,62,,,,,,"CZK 15,000",Personal,Brick building,,1 to 10 years years,Standard materials and solutions,,Interior,District heating,,,,,,,
715236,"CZK 24,000",50.10014,14.40155,"Jilemnického, Prague - Bubeneč",1 bedroom with open-plan kitchen,59 m²,"CZK 3,000",Furnished,4,No,No,No,No,No,Yes,No,01. 06. 2022,55,538,169,224,154,376,206,581,398,277,Excellent,"CZK 25,000",Personal,Brick building,D,,,,,,,,,,,,
715831,"CZK 23,000",50.04981,14.48307,"Střimelická, Prague - Záběhlice",3 bedroom,68 m²,"CZK 3,400",Unfurnished,6,Yes,No,Yes,No,No,Yes,No,01. 06. 2022,88,583,115,563,197,"1,395",409,259,841,204,Excellent,"CZK 46,000",Personal,Brick building,C,over 50 years years,Standard materials and solutions,Top floor,Bathroom unit,Central heating,,,,,,,
698766,"CZK 16,500",50.07717,14.41919,"Karlovo náměstí, Prague - Nové Město",1 bedroom,43 m²,"CZK 1,500",Furnished,,No,No,No,No,No,No,No,25. 04. 2022,51,235,42,74,4,202,262,428,550,377,Excellent,"CZK 33,000",Personal,Brick building,C,,,Ground floor,,,,,,,,,
715826,"CZK 17,500",50.10089,14.349,"Nad Jenerálkou, Prague - Vokovice",1 bedroom with open-plan kitchen,70 m²,CZK 1,Furnished,,No,No,No,No,No,No,No,25. 04. 2022,378,"1,483",429,"1,310",445,714,615,554,414,288,Excellent,"CZK 20,000",Personal,Brick building,C,,,,,,,,,,,,
425448,"CZK 10,500",50.0582532,14.44353,"Na Jezerce, Prague - Nusle",Small studio,18 m²,"CZK 2,000",Furnished,1,No,No,No,No,No,No,No,02. 01. 2022,96,"1,112",343,721,186,792,491,465,675,180,Excellent,"CZK 12,500",Personal,Brick building,,1 to 10 years years,Standard materials and solutions,,Overall,,,,,,,,
678488,"CZK 13,000",50.09024,14.34522,"Na Okraji, Prague - Veleslavín",2 bedroom,53 m²,"CZK 4,000",Furnished,2,No,No,Yes,No,No,No,No,01. 09. 2021,78,384,92,176,181,245,117,210,706,60,Good,"CZK 13,000",Personal,Brick building,G,,,,,,,,,,,,
706675,"CZK 12,990",50.10241638888,14.47648416666,"Sokolovská, Prague - Libeň",1 bedroom,44 m²,"CZK 3,479",Furnished,1,No,No,Yes,No,No,No,No,,130,222,63,270,198,305,184,230,208,532,Excellent,"CZK 16,469",Personal,Brick building,B,,,,,,,"CZK 16,469

                                
                                
                
i",,,,,
522467,"CZK 14,000",50.036731,14.3283986,Prague - Stodůlky,1 bedroom,43 m²,"CZK 3,000",Furnished,2,Yes,Yes,Yes,No,No,Yes,Yes,01. 06. 2022,437,"1,079",740,"1,116",412,"1,007",773,929,617,264,,"CZK 20,000",Personal,Brick building,,,Premium materials and solutions,Middle floor,,Geothermal heat pump,,,,,,Yes,
704963,"CZK 15,500",50.06535,14.43616,"Závišova, Prague - Nusle",1 bedroom with open-plan kitchen,48 m²,"CZK 1,000",Furnished,3,No,No,No,No,No,No,No,01. 05. 2022,88,289,320,423,244,526,254,238,213,191,Good,"CZK 20,000",Personal,Brick building,G,,,,,,,,,,,,
683216,"CZK 21,000",50.1038054,14.4320472,"Strojnická, Prague - Holešovice",2 bedroom with open-plan kitchen,73 m²,"CZK 3,900",Furnished,3,No,No,No,No,No,Yes,No,06. 05. 2022,77,674,231,359,0,62,438,302,713,,Excellent,"CZK 40,000",Personal,Brick building,G,,,,,District heating,,,,,,,
589495,"CZK 15,000",50.058519,14.377489,"Peroutkova, Prague - Jinonice",1 bedroom,31 m²,"CZK 4,000",Furnished,5,No,No,No,No,No,Yes,No,01. 05. 2022,268,604,268,"1,017",406,800,"1,195",497,"1,194",159,New build,"CZK 15,000",Personal,Brick building,C,1 to 10 years years,Standard materials and solutions,Middle floor,Overall,District heating,,,,,,Yes,
714464,"CZK 15,000",50.04483,14.41961,"Gončarenkova, Prague - Braník",2 bedroom with open-plan kitchen,46 m²,"CZK 3,000",Partially furnished,2,No,No,No,No,Yes,No,No,19. 04. 2022,168,416,"1,419",395,"1,154","1,289",936,845,,,Excellent,"CZK 18,000",Personal,Brick building,G,,,,,,400 m²,,,,,,
705611,"CZK 15,000",50.07741,14.41775,"Na Zbořenci, Prague - Nové Město",1 bedroom,45 m²,"CZK 2,000",Partially furnished,2,No,No,No,No,No,Yes,No,01. 05. 2022,86,394,74,147,32,369,241,311,550,497,Excellent,"CZK 15,000",Personal,Brick building,G,,,,,,,,,,,,
659654,"CZK 10,000",50.0754406,14.4923271,Prague - Strašnice,Studio,32 m²,"CZK 2,230",Furnished,3,No,No,No,No,No,No,No,01. 06. 2022,235,115,149,272,125,269,246,414,721,295,Excellent,"CZK 13,000",Personal,Brick building,G,,,,,Electric boiler,,,,,,,
