Price,Fees,Refundable security deposit,Listing ID,Layout,Avaliable from,Ownership,Floor space,Fully furnished,Floor,Building type,Lift,public_transport,post,shop,bank,restaurant,pharmacy,school,kindergarten,sports_field,playground,District,Latitude,Longitude,EPC,Condition,Balcony,Parking,Enclosed balcony,Age,Reconstruction,Heating,Designe,Garage,New-build,Domácí mazlíčci vítáni,Cellar,Terrace,Administrative fee,Plot type
"CZK 10,700",CZK 860,"CZK 21,400",410669,1 bedroom,10/1/2022,Personal,34 m²,Partly,3,Brick,1.0,230.65,1392.41,158.0,877.3,201.79,445.72,362.79,745.16,457.82,104.46,"Primátorská, Prague - Libeň",50.1127192,14.472558,,,,,,,,,,,,,,,,
"CZK 14,500","CZK 3,000","CZK 17,500",730887,Studio,9/1/2022,,32 m²,Unfurnished,2,Brick,,206.99,98.74,186.83,303.03,210.81,162.87,479.01,479.46,1222.77,257.9,Prague - Vokovice,50.09689,14.3627,G,Very good,,,,,,,,,,,,,,
"CZK 16,000","CZK 5,000","CZK 32,000",730886,2 bedroom,9/1/2022,,54 m²,Partly,7,Prefab concrete,1.0,117.55,283.24,47.76,49.82,100.77,45.16,286.2,328.77,1133.85,162.62,Prague - Vokovice,50.09735,14.35869,G,Very good,1.0,,,,,,,,,,,,,
"CZK 17,000","CZK 5,000","CZK 34,000",730297,Studio,9/1/2022,,38 m²,Fully furnished,5,Low-energy,1.0,280.58,594.53,280.71,334.69,330.61,408.9,573.31,547.03,561.08,221.57,Prague - Strašnice,50.07897,14.48762,C,Very good,1.0,1.0,,,,,,,,,,,,
"CZK 22,000","CZK 5,000","CZK 27,000",730882,3+1,8/28/2022,,76 m²,Partly,3,Prefab concrete,,442.67,1565.03,308.03,1557.68,804.05,517.2,342.47,108.55,701.73,262.84,Prague - Kamýk,50.01374,14.43016,A,Good,,,1.0,,,,,,,,,,,
"CZK 27,000","CZK 7,000","CZK 30,000",601657,3+kk,9/1/2022,Personal,92 m²,Fully furnished,1,Brick,,385.44,258.55,28.35,299.17,17.26,478.16,328.59,513.48,872.36,214.33,"Jagellonská, Prague - Vinohrady",50.079319,14.453,G,Very good,,,,Up to 10 years,Interior,Gas boiler,Standard,,,,,,,
"CZK 12,000","CZK 1,500","CZK 24,000",505631,1 bedroom,8/15/2022,Personal,34 m²,Fully furnished,2,Brick,,179.37,297.82,106.8,303.76,116.11,358.08,307.02,241.35,495.87,520.5,"Bělehradská, Prague - Vinohrady",50.0713759,14.4333425,,,,,,Up to 10 years,Complete,Electric boiler,Standard,,,,,,,
"CZK 23,000",CZK 0,"CZK 23,000",730874,2+kk,8/22/2022,,65 m²,Unfurnished,4,Brick,1.0,39.31,419.67,50.49,81.81,83.87,256.63,436.01,216.74,822.44,308.5,Prague - Žižkov,50.07779,14.45755,G,Very good,1.0,,,,,,,,,,,,,
"CZK 19,800","CZK 6,600",,729753,3+1,9/23/2022,,90 m²,Fully furnished,5,,1.0,82.8,397.93,96.94,404.98,135.48,353.78,131.46,217.55,654.74,661.34,"Blanická, Prague - Vinohrady",50.0746503,14.439294,,,,,,,,,,,,,,,,
"CZK 14,947","CZK 4,982",,730872,Studio,8/24/2022,,19 m²,Fully furnished,1,,,126.19,670.53,145.31,408.99,138.64,543.24,178.24,219.08,298.17,317.3,"Kodaňská, Prague - Vršovice",50.0701958,14.4617404,,,,,,,,,,,,,,,,
"CZK 18,000","CZK 4,000","CZK 25,000",621107,2 bedroom,9/1/2022,Personal,54 m²,Partly,2,Brick,,338.56,414.66,193.61,356.99,167.2,314.04,241.15,437.06,701.08,238.38,"Herálecká I, Prague - Krč",50.045587,14.443898,G,Very good,,,,,Complete,Central,,,,,,,,
"CZK 28,500","CZK 6,500","CZK 60,000",729473,3+kk,9/1/2022,,80 m²,Fully furnished,1,Other,1.0,157.65,460.15,319.12,458.96,444.21,464.19,642.41,845.71,714.23,167.02,Prague - Záběhlice,50.05611,14.51485,B,New-build,1.0,1.0,,,,,,1.0,1.0,,,,,
"CZK 19,000","CZK 3,600","CZK 40,000",730840,3+kk,8/22/2022,,66 m²,Partly,1,Brick,1.0,373.24,558.63,249.13,538.0,542.7,562.68,936.71,826.05,725.49,256.37,Prague - Hostivař,50.05654,14.51776,B,New-build,,1.0,,,,,,1.0,1.0,1.0,1.0,,,
"CZK 18,000","CZK 4,000","CZK 18,000",730863,2+kk,8/22/2022,,50 m²,Partly,4,Brick,,54.15,613.56,19.65,25.54,43.7,138.5,276.11,361.15,306.6,378.5,Prague - Žižkov,50.08869,14.46837,G,Very good,,,,,,,,,,,1.0,,,
"CZK 20,000","CZK 6,500","CZK 20,000",730859,1 bedroom,9/1/2022,Personal,50 m²,Fully furnished,9,Prefab concrete,1.0,248.27,324.72,184.88,416.93,199.08,353.8,640.59,151.91,195.52,188.5,Prague - Chodov,50.02571,14.49186,G,Good,,1.0,1.0,30 - 50 years,Bathroom unit,Central,Standard,,,,,,,
"CZK 17,500","CZK 2,500","CZK 25,000",404507,2+kk,8/15/2022,Personal,44 m²,Unfurnished,3,Brick,1.0,314.12,465.35,344.55,234.05,291.91,454.65,173.32,780.57,389.91,135.89,Prague - Podolí,50.0561286,14.4214707,,Very good,1.0,1.0,,,Complete,Central,Standard,,,,1.0,,,
"CZK 18,500","CZK 4,500","CZK 37,000",564594,2+kk,10/1/2022,Personal,42 m²,Partly,2,Brick,,194.89,963.05,372.61,353.99,331.39,786.83,758.81,273.24,1119.02,416.56,"Velvarská, Prague - Dejvice",50.099268,14.3842157,,Very good,1.0,,,Up to 10 years,Complete,Electric boiler,Standard,,,,,,,
"CZK 21,500","CZK 1,400","CZK 43,000",729511,2 bedroom,8/11/2022,,57 m²,Partly,2,Brick,1.0,267.75,1301.32,208.94,1122.02,496.69,676.19,348.18,214.56,1000.15,110.09,Prague - Strašnice,50.07119,14.50355,G,Very good,,,,,,,,,,,1.0,,,
"CZK 20,000","CZK 3,000","CZK 23,000",730295,2+kk,8/25/2022,Personal,66 m²,Partly,2,Brick,1.0,221.5,396.3,382.97,395.11,380.36,400.34,706.26,817.94,650.38,103.17,"Švehlova, Prague - Hostivař",50.05572765,14.5155122,B,New-build,1.0,,,Up to 10 years,,Central,Standard,1.0,1.0,,1.0,,,
"CZK 18,000","CZK 3,500","CZK 45,000",593418,2+kk,10/1/2022,Personal,55 m²,,2,Prefab concrete,1.0,294.21,673.31,134.15,695.24,347.37,573.28,168.91,377.15,1505.14,162.74,"Jelínkova, Prague - Kobylisy",50.132785,14.466411,A,New-build,,,,,,,,,,,,,,
"CZK 24,000","CZK 4,000","CZK 48,000",730850,3+1,8/22/2022,,100 m²,Partly,4,Brick,,59.26,296.08,0.0,35.85,45.02,69.1,567.23,721.88,224.98,342.7,Prague - Karlín,50.09386,14.45174,G,Good,1.0,,,,,,,,,,,,,
"CZK 16,000","CZK 4,500","CZK 32,000",730849,2+kk,9/1/2022,,47 m²,Partly,3,Prefab concrete,1.0,131.97,614.65,167.71,938.18,526.16,312.8,441.85,915.79,284.53,188.63,Prague - Záběhlice,50.05853,14.4948,C,Very good,,,1.0,,,,,,,,,,,
"CZK 20,000","CZK 3,500","CZK 40,000",474374,3+kk,6/1/2022,Cooperative,72 m²,Partly,3,Prefab concrete,1.0,89.61,422.46,487.67,590.76,265.68,426.8,499.48,593.53,271.32,350.7,"Pod Jarovem, Prague - Žižkov",50.0895199,14.4891951,,,1.0,,1.0,,,,,,,,,,,
"CZK 20,000","CZK 3,900","CZK 20,000",718608,2+kk,10/1/2022,Personal,72 m²,Partly,1,Brick,,179.61,210.27,72.02,334.04,55.39,313.69,302.45,395.64,509.36,219.04,"Semanského, Prague - Uhříněves",50.02972,14.60008,G,New-build,1.0,,1.0,,,,,,1.0,,,1.0,,
"CZK 16,000","CZK 1,698","CZK 16,000",628460,Studio,9/1/2022,Personal,43 m²,Unfurnished,1,Brick,1.0,327.31,584.04,205.09,356.41,172.42,367.7,158.25,176.48,373.62,150.08,"Kamenická, Prague - Holešovice",50.0976,14.427997,G,Good,,,,,,Distance,,,,,,,,
"CZK 28,500","CZK 3,000","CZK 31,500",716384,3+kk,8/15/2022,Personal,77 m²,Partly,7,Brick,1.0,333.31,299.19,45.56,214.52,54.5,38.78,271.42,790.21,190.1,583.95,"Opletalova, Prague - Nové Město",50.08123,14.42982,G,Very good,1.0,1.0,1.0,Up to 10 years,Interior,Distance,Luxurious,,,,,,,
"CZK 17,000","CZK 7,500","CZK 34,000",730280,2 bedroom,8/17/2022,,51 m²,Partly,5,Brick,1.0,174.57,1207.36,174.27,505.0,209.71,126.79,445.15,418.56,527.51,385.81,Prague - Dejvice,50.1077,14.39349,G,Very good,,,,,,,,,,,1.0,,,
"CZK 18,000","CZK 6,500","CZK 24,500",595560,3+kk,10/1/2022,Personal,60 m²,Partly,2,Brick,,146.61,999.39,291.59,1038.03,1154.94,1144.35,1305.26,1098.49,829.69,773.79,"Jeremiášova, Prague - Stodůlky",50.056761,14.310367,G,Very good,,,,,,Electric boiler,,,,,,,,
"CZK 13,800","CZK 4,800","CZK 18,000",341638,Studio,8/17/2022,Personal,34 m²,Fully furnished,6,Other,1.0,136.45,973.09,67.89,711.09,418.74,835.73,213.02,2078.74,1087.17,96.34,"Míšovická, Prague - Zličín",50.0570375,14.2829647,,Very good,,,,10 to 30 years,,,Standard,,,,,,,
"CZK 18,500","CZK 7,500","CZK 37,000",730267,2+kk,9/2/2022,Personal,55 m²,Fully furnished,,Other,1.0,134.96,1056.21,507.07,1107.28,363.41,1124.77,648.61,524.6,639.62,315.42,Prague - Modřany,50.00556,14.42918,G,New-build,,1.0,,Up to 10 years,,,Luxurious,1.0,1.0,1.0,1.0,1.0,,
"CZK 30,000","CZK 10,000",,730836,2+kk,9/22/2022,,40 m²,Fully furnished,1,,,29.42,633.78,151.61,536.89,130.46,316.51,391.7,900.17,984.89,128.97,"Šporkova, Prague - Malá Strana",50.0876289,14.3978335,,,,,,,,,,,,,,,,
"CZK 12,000","CZK 3,000","CZK 15,000",730835,Studio,9/1/2022,,29 m²,Fully furnished,3,Brick,1.0,212.22,204.39,73.48,564.01,78.17,410.73,65.03,237.92,765.84,740.13,Prague - Vinohrady,50.07094,14.43661,A,Very good,1.0,1.0,,,,,,,,,,,,
"CZK 20,000","CZK 7,000","CZK 40,000",730261,3+kk,11/1/2022,,70 m²,Partly,3,Prefab concrete,1.0,179.41,734.25,199.06,3432.53,206.66,1356.73,829.3,261.64,1918.6,104.41,Prague - Čakovice,50.15711,14.51994,G,Very good,1.0,1.0,,,,,,,,1.0,,,,
"CZK 13,500","CZK 4,000","CZK 13,500",730513,2 bedroom,9/1/2022,,54 m²,Partly,,Brick,,85.35,397.46,123.74,363.29,405.2,121.79,397.15,493.96,635.68,177.84,Prague - Petrovice,50.0385,14.56096,G,Very good,,,,,,,,,,1.0,,,,
"CZK 16,000","CZK 2,500","CZK 37,000",730259,Studio,8/17/2022,,32 m²,Fully furnished,2,Brick,,110.17,1151.62,486.69,1390.49,516.43,1141.26,906.6,797.73,1015.03,331.85,Prague - Braník,50.0358252,14.4138519,B,New-build,,,,,,,,,,,,1.0,,
"CZK 23,000","CZK 3,869","CZK 40,000",728906,2+kk,9/1/2022,Personal,52 m²,Fully furnished,2,Brick,1.0,100.67,552.16,76.41,168.19,45.96,95.08,323.13,505.31,539.03,607.16,Prague - Vinohrady,50.0739,14.43092,B,Very good,,,,,Complete,,Standard,,,,,,,
"CZK 40,000","CZK 5,500","CZK 91,000",730824,3+1,8/22/2022,,170 m²,Partly,4,Brick,,330.89,661.36,322.57,513.77,359.29,650.66,459.34,819.46,239.7,329.09,Prague - Podolí,50.05526,14.42152,G,Very good,1.0,1.0,,,,,,,,,1.0,1.0,,
"CZK 19,000","CZK 2,000","CZK 38,000",605812,Studio,9/7/2022,Personal,42 m²,Partly,5,Brick,1.0,165.64,741.92,52.41,96.6,104.88,171.12,251.74,483.54,150.69,593.26,"Veverkova, Prague - Holešovice",50.100125,14.431629,,Very good,,,,,,Central,,,,,,1.0,,
"CZK 34,500","CZK 11,500",,728709,2+kk,10/8/2022,,45 m²,Fully furnished,6,,1.0,73.01,281.28,58.33,478.54,20.37,379.07,102.37,138.49,668.56,481.36,"Francouzská, Prague - Vinohrady",50.0739894,14.440101,,,,,,,,,,,,,,,,
"CZK 29,925","CZK 9,975",,730822,1 bedroom,8/28/2022,,30 m²,Fully furnished,2,,1.0,22.29,481.37,107.82,95.32,6.34,158.39,351.4,425.94,380.79,468.94,"Legerova, Prague - Vinohrady",50.0749602,14.4305105,,,,,,,,,,,,,,,,
"CZK 14,000","CZK 3,500","CZK 20,000",680477,2+kk,9/1/2021,Personal,46 m²,Fully furnished,4,Brick,,7.74,689.1,123.69,684.43,184.85,22.29,399.14,496.48,410.57,259.22,"Jaromírova, Prague - Nusle",50.06516,14.42953,C,Very good,,,,,,,,,,,1.0,,,
"CZK 11,200","CZK 3,800","CZK 15,000",730230,2+kk,8/17/2022,,43 m²,Unfurnished,,Brick,,67.67,505.17,66.53,879.75,114.26,596.76,26.0,196.36,1013.91,346.15,Prague - Košíře,50.07069,14.38098,G,Very good,,,,,,,,,,,,,,
"CZK 16,800",CZK 800,"CZK 33,600",518150,3+kk,9/1/2022,Personal,62 m²,Unfurnished,1,Brick,,136.52,161.2,174.39,571.31,228.96,210.25,838.28,528.14,827.24,593.25,"Zenklova, Prague - Libeň",50.1193528,14.4614637,,,,,,,,,,,,,,,,
"CZK 14,200",CZK 800,"CZK 28,400",518153,2 bedroom,9/1/2022,Personal,53 m²,Unfurnished,-1,Brick,,136.52,161.2,174.39,571.31,228.96,210.25,838.28,528.14,827.24,593.25,Prague - Libeň,50.1193528,14.4614637,,,,,,,,,,,,,,,,
"CZK 17,400","CZK 4,500","CZK 20,000",730817,Studio,8/22/2022,,35 m²,Partly,2,Brick,1.0,188.68,499.12,653.79,1751.9,463.43,820.62,728.32,1269.8,1091.09,261.86,Prague - Hrdlořezy,50.09525,14.50889,B,New-build,,,,Up to 10 years,,,,1.0,1.0,,1.0,1.0,,
"CZK 19,000","CZK 4,000","CZK 38,000",730819,2+kk,8/22/2022,,40 m²,Fully furnished,2,Brick,1.0,204.75,739.95,76.09,367.32,58.25,230.46,154.86,958.74,280.98,269.42,Prague - Karlín,50.09391,14.45695,D,Very good,,,,,,,,,,,,,,
"CZK 20,000","CZK 4,500","CZK 25,000",730818,3+1,8/22/2022,,80 m²,Unfurnished,8,Prefab concrete,1.0,200.89,268.35,80.24,612.71,250.02,239.34,164.5,293.43,342.4,133.97,Prague - Žižkov,50.08661,14.45867,E,Good,,,1.0,,,,,,,1.0,1.0,,,
"CZK 34,920","CZK 11,640",,728102,2 bedroom,8/31/2022,,52 m²,Fully furnished,5,,1.0,99.55,314.58,150.34,67.01,34.6,412.05,133.24,331.05,397.28,726.22,"Vinohradská, Prague - Vinohrady",50.0779159,14.4375296,,,,,,,,,,,,,,,,
"CZK 16,500","CZK 4,500","CZK 21,000",181296,2+kk,10/1/2022,Personal,49 m²,Fully furnished,2,Brick,1.0,283.26,1010.99,131.62,469.66,235.83,554.2,304.96,253.85,397.72,318.19,"Biskupcova, Prague - Žižkov",50.09127,14.4787539,,,1.0,,,Up to 10 years,Interior,,,,,,,,,
"CZK 18,500","CZK 4,000","CZK 30,000",386251,2+kk,10/1/2022,Personal,50 m²,Unfurnished,4,Brick,,165.73,967.35,452.49,655.69,532.17,774.53,379.36,540.99,834.63,385.43,"Loosova, Prague - Háje",50.025985,14.5313856,,,,,,Up to 10 years,,Central,Standard,,,,,1.0,,
"CZK 12,500","CZK 3,500","CZK 16,000",446173,Small studio,10/1/2022,Personal,27 m²,Fully furnished,1,Brick,1.0,222.24,645.51,201.94,549.22,68.21,477.87,68.18,441.27,448.28,311.29,"Na Vítězné pláni, Prague - Nusle",50.0620688,14.4355684,,Very good,,,,Up to 10 years,Interior,Central,,,,,1.0,,,
"CZK 16,200","CZK 3,800",CZK 0,317875,2+kk,9/1/2022,Personal,46 m²,Fully furnished,3,Prefab concrete,1.0,286.97,534.67,339.67,626.88,389.52,469.04,622.73,345.66,329.07,176.61,"Jarníkova, Prague - Chodov",50.0248408,14.4900167,,Very good,,,,,Complete,Central,,,,,,,,
"CZK 11,000","CZK 2,000","CZK 13,000",425448,Small studio,9/1/2022,Personal,18 m²,Fully furnished,1,Brick,,96.37,1112.27,342.53,720.59,185.54,791.77,490.82,465.42,674.92,179.97,"Na Jezerce, Prague - Nusle",50.0582532,14.44353,,Very good,,,,Up to 10 years,Complete,,Standard,,,,,,,
"CZK 27,999","CZK 3,900","CZK 27,999",730132,4+1,8/16/2022,Personal,94 m²,Fully furnished,3,Brick,,319.09,325.97,227.01,251.15,242.38,191.69,343.27,530.31,1101.55,143.32,Prague - Vokovice,50.09625,14.35756,G,Good,1.0,,,Over 50 years,,Central,Standard,,,1.0,,,,
"CZK 10,000","CZK 4,500","CZK 14,500",652174,2+kk,9/1/2022,Personal,43 m²,Partly,6,Low-energy,1.0,123.49,1093.35,507.3,1191.49,86.25,965.89,252.17,125.15,490.24,18.46,"Jakobiho, Prague - Petrovice",50.032251,14.559848,G,Good,,1.0,,,,Distance,,,,,1.0,,,
"CZK 13,167","CZK 1,333","CZK 29,000",728104,Studio,10/1/2022,Personal,20 m²,Unfurnished,1,Brick,,257.3,355.51,136.02,544.38,348.13,356.87,179.85,77.83,658.54,300.0,"Jakutská, Prague - Vršovice",50.0725171,14.47334415,C,Good,,,,,Complete,Central,,,,,,,,
"CZK 28,000","CZK 5,000","CZK 35,000",730219,3+kk,8/17/2022,Personal,74 m²,Fully furnished,1,Brick,,277.08,786.82,248.92,496.44,271.74,327.01,327.14,612.29,280.72,228.81,Prague - Libeň,50.10861,14.47539,G,Very good,1.0,1.0,,,,,,,,,1.0,,,
"CZK 20,000","CZK 4,808","CZK 25,000",497125,2+kk,1/24/2021,Personal,55 m²,Fully furnished,1,Brick,1.0,289.31,1030.71,185.29,875.56,580.15,1000.2,374.44,2240.15,1249.45,201.42,"Sazovická, Prague - Zličín",50.0570157,14.2807456,,New-build,1.0,1.0,,Up to 10 years,,Central,,,1.0,,,,,
"CZK 41,250","CZK 13,750",,719999,2+kk,10/9/2022,,55 m²,Fully furnished,1,,1.0,76.78,951.56,41.94,296.91,109.07,229.41,371.34,325.8,517.82,388.28,"Rečkova, Prague - Žižkov",50.0904334,14.4705869,,,,,,,,,,,,,,,,
"CZK 6,900",CZK 0,"CZK 6,900",564526,4+1,8/22/2022,Personal,85 m²,Fully furnished,1,Brick,,66.19,1365.59,272.35,822.48,8.68,464.95,601.2,985.73,423.01,273.55,"Zenklova, Prague - Libeň",50.1118856,14.4754122,,,,,,Up to 10 years,,,Standard,,,,,,,
"CZK 6,900",CZK 0,"CZK 6,900",564526,4+1,8/22/2022,Personal,85 m²,Fully furnished,1,Brick,,66.19,1365.59,272.35,822.48,8.68,464.95,601.2,985.73,423.01,273.55,"Zenklova, Prague - Libeň",50.1118856,14.4754122,,,,,,Up to 10 years,,,Standard,,,,,,,
"CZK 12,000","CZK 2,634","CZK 15,000",730809,Studio,8/22/2022,Personal,25 m²,Partly,5,Low-energy,1.0,183.61,947.69,30.3,613.49,0.29,337.13,207.69,198.48,367.79,73.11,Prague - Libeň,50.10722,14.49056,B,New-build,,,,,,Other,,,1.0,,,,,
"CZK 13,900","CZK 3,900","CZK 17,800",454213,2+kk,9/1/2022,Personal,35 m²,Fully furnished,3,Brick,,228.09,392.09,59.59,266.35,61.42,779.44,349.31,309.88,628.04,243.87,"Podléšková, Prague - Záběhlice",50.0598611,14.5032006,,,,,,,,,,,,,,,,
"CZK 18,500","CZK 3,500","CZK 37,000",730591,2+kk,8/20/2022,,42 m²,Partly,11,Prefab concrete,1.0,225.25,509.23,210.61,197.57,313.05,374.5,333.7,365.29,434.6,205.29,Prague - Háje,50.0292,14.53153,A,Very good,,,,,,,,,,,1.0,,,
"CZK 23,500","CZK 4,000","CZK 47,000",729642,2+kk,9/15/2022,,79 m²,Fully furnished,,Brick,1.0,121.48,1227.99,928.72,1099.69,499.69,876.19,826.93,1182.44,637.73,82.41,Prague - Řeporyje,50.03812,14.32275,C,Very good,,1.0,1.0,10 to 30 years,,Electric boiler,Luxurious,1.0,,1.0,1.0,1.0,,
"CZK 17,500","CZK 3,500","CZK 17,000",406355,1 bedroom,8/30/2022,Personal,40 m²,Fully furnished,2,Brick,1.0,245.16,118.28,34.46,158.9,60.95,337.88,188.31,373.21,805.61,74.06,"Milešovská, Prague - Vinohrady",50.0788293,14.4518748,,Very good,,,,,,,,,,,,,,
"CZK 13,500","CZK 2,500","CZK 27,000",342199,Studio,10/15/2022,Personal,33 m²,Partly,5,Other,1.0,180.9,275.92,211.57,252.38,137.33,251.39,270.69,505.51,363.09,285.71,Prague - Podolí,50.0584062,14.4233332,C,New-build,,1.0,,Up to 10 years,Complete,Central,Luxurious,1.0,1.0,,,,,
"CZK 23,000","CZK 4,000","CZK 27,000",730804,3+1,10/1/2022,,77 m²,Partly,2,Brick,,473.84,1388.43,450.65,1215.14,466.26,729.37,635.55,575.59,435.22,232.77,Prague - Vokovice,50.10084,14.34982,G,Very good,,1.0,,,,,,,,1.0,1.0,,,
"CZK 14,500","CZK 1,487","CZK 15,000",393821,1 bedroom,9/8/2022,Personal,32 m²,Partly,1,Brick,,266.05,522.79,143.84,295.16,111.17,306.45,245.68,237.66,312.37,211.26,Prague - Holešovice,50.0981469,14.427865,,,,,,,,Gas boiler,,,,,,,,
"CZK 22,000","CZK 5,000","CZK 25,000",539856,2+kk,9/15/2021,Personal,55 m²,Fully furnished,1,Brick,1.0,223.43,981.59,819.74,1191.68,381.56,450.67,479.9,1171.22,401.22,333.31,"Radouňova, Prague - Řeporyje",50.0379471,14.3129703,,,,,1.0,,Complete,Electric boiler,,1.0,1.0,,1.0,,,
"CZK 28,350","CZK 9,450",,730801,2 bedroom,8/24/2022,,75 m²,Fully furnished,3,,1.0,286.21,293.35,195.84,193.77,92.11,378.02,243.35,1039.65,522.33,334.73,"Čechova, Prague - Bubeneč",50.1016621,14.4210737,,,,,,,,,,,,,,,,
"CZK 18,000",CZK 750,"CZK 40,000",730794,3+1,8/22/2022,,72 m²,Partly,5,Prefab concrete,1.0,391.46,583.51,405.3,513.38,94.94,580.04,370.59,358.22,1667.49,130.99,Prague - Bohnice,50.12973,14.41257,G,Very good,,,,,,,,,,,1.0,,,
"CZK 19,900","CZK 3,200","CZK 46,200",730792,2 bedroom,9/1/2022,,80 m²,Unfurnished,1,Brick,,166.46,626.55,152.29,530.25,122.81,458.91,122.79,446.38,395.26,292.32,Prague - Nusle,50.06194,14.43608,G,Very good,,,1.0,,,,,,,,,,,
"CZK 15,000",CZK 650,"CZK 15,000",730658,2+kk,8/29/2022,,45 m²,Unfurnished,3,Brick,,156.25,663.41,113.92,440.06,0.11,438.41,253.01,384.55,669.84,374.48,Prague - Vršovice,50.07212,14.45724,G,Good,,,,,,,,,,1.0,,,,
"CZK 14,500","CZK 4,000","CZK 18,500",730200,Studio,9/1/2022,,35 m²,Fully furnished,,Brick,,99.64,1068.06,938.4,1181.5,305.86,786.58,924.01,796.99,416.96,112.49,Prague - Modřany,49.99909,14.41013,A,New-build,,1.0,,,,,,,1.0,1.0,1.0,1.0,,
"CZK 22,000","CZK 6,000","CZK 22,000",730789,3+kk,10/1/2022,,81 m²,Partly,1,Prefab concrete,1.0,378.58,1911.94,502.31,1586.49,1240.39,708.11,1040.33,1321.24,1024.76,33.51,Prague - Vysočany,50.10509,14.51541,G,Very good,,1.0,,,,,,1.0,,1.0,1.0,1.0,,
"CZK 30,375","CZK 10,125",,730787,2 bedroom,9/7/2022,,77 m²,Fully furnished,1,,,362.98,762.3,103.79,363.25,76.62,226.39,253.28,848.57,276.91,306.73,"Březinova, Prague - Karlín",50.0930254,14.4565404,,,,,,,,,,,,,,,,
"CZK 25,920","CZK 8,640",,730786,2+kk,9/1/2022,,50 m²,Fully furnished,2,,1.0,256.88,230.57,115.16,212.72,190.01,251.36,415.49,530.5,578.5,441.78,"Čajkovského, Prague - Žižkov",50.0830128,14.4521943,,,,,,,,,,,,,,,,
"CZK 22,000",CZK 1,"CZK 44,000",659396,3+kk,10/1/2022,Personal,75 m²,Fully furnished,-1,Brick,,51.61,489.31,46.18,84.8,159.63,568.15,1042.43,477.78,442.42,240.28,"Kamýcká, Prague - Suchdol",50.13239,14.37724,B,Very good,,1.0,,,,,Standard,,,,1.0,,,
"CZK 14,900","CZK 2,900","CZK 12,000",713712,2+kk,9/1/2022,Personal,51 m²,Partly,3,Brick,,128.9,745.76,104.94,191.13,29.28,808.95,276.05,437.33,713.68,163.41,"Jaurisova, Prague - Nusle",50.0596745,14.4494645,E,Very good,,,,,,Electric boiler,Standard,,,,1.0,,,
"CZK 20,000","CZK 1,750","CZK 40,000",730536,2+kk,8/19/2022,,65 m²,Fully furnished,1,Brick,,467.09,1003.0,522.43,1785.3,521.26,624.12,460.18,394.67,481.92,205.34,Prague - Libuš,50.01273,14.44535,D,Very good,,,,,,,,,1.0,,,1.0,,
"CZK 14,500","CZK 5,500","CZK 20,000",605928,1 bedroom,10/1/2022,Personal,51 m²,Fully furnished,1,Low-energy,,183.47,686.2,229.3,214.79,146.92,354.99,577.44,572.39,517.85,250.6,"Žerotínova, Prague - Žižkov",50.08849,14.464717,B,Very good,,,,Up to 10 years,Complete,Electric boiler,Luxurious,,,,,1.0,,
"CZK 53,510","CZK 17,836",,725486,4+1,10/2/2022,,110 m²,Fully furnished,7,,1.0,348.55,940.69,207.03,294.37,97.8,272.7,322.85,445.04,400.99,361.6,"Divadelní, Prague - Staré Město",50.0824664,14.4140344,,,1.0,,,,,,,,,,,1.0,,
"CZK 42,075","CZK 14,025",,726062,2 bedroom,9/26/2022,,80 m²,Fully furnished,6,,1.0,73.01,281.28,58.33,478.54,20.37,379.07,102.37,138.49,668.56,481.36,"Francouzská, Prague - Vinohrady",50.0739894,14.440101,,,,,,,,,,,,,,,,
"CZK 15,000","CZK 2,000","CZK 15,000",574723,Studio,10/1/2022,Personal,42 m²,Fully furnished,1,Brick,1.0,327.17,1748.1,1747.45,2463.07,1816.23,1796.45,2542.09,2557.41,1457.07,1222.39,"Penízovková, Prague - Pitkovice",50.0148387,14.5845553,,Very good,1.0,1.0,,10 to 30 years,,Central,,,1.0,,,,,
"CZK 20,000","CZK 2,700","CZK 40,000",730782,3+kk,8/22/2022,,72 m²,Partly,8,Low-energy,1.0,352.66,710.44,418.96,1275.94,405.71,711.63,327.09,286.26,1161.14,187.92,Prague - Chodov,50.02796,14.51352,G,Very good,1.0,,,,,,,,,,1.0,,,
"CZK 23,000","CZK 6,000","CZK 35,000",730656,3+kk,8/21/2022,,84 m²,Partly,4,Brick,1.0,184.94,655.02,3.59,431.68,73.84,430.02,244.62,333.82,572.87,269.17,Prague - Vršovice,50.07191,14.45951,G,Very good,1.0,,,,,,,,,,1.0,,,
"CZK 25,000","CZK 5,000","CZK 30,000",564309,4+1,9/1/2022,Personal,90 m²,Unfurnished,5,Prefab concrete,1.0,355.55,874.19,250.25,415.09,350.44,770.08,245.79,688.45,593.16,325.92,"Podvinný mlýn, Prague - Libeň",50.10706,14.485427,B,Very good,,,1.0,10 to 30 years,Complete,Distance,Standard,,,,1.0,,,
"CZK 14,999","CZK 2,500","CZK 17,500",598559,2+kk,9/1/2022,Personal,55 m²,Partly,2,Brick,,91.39,310.67,92.06,91.12,15.07,54.1,374.99,679.58,586.87,437.09,"Čestmírova, Prague - Nusle",50.064342,14.442252,B,New-build,1.0,1.0,,Up to 10 years,Complete,,Luxurious,,,,1.0,,,
"CZK 11,000","CZK 1,000","CZK 12,000",287227,Studio,9/1/2021,Personal,25 m²,Partly,2,Brick,,323.68,1197.48,307.68,357.49,262.34,316.16,373.23,595.86,400.59,133.66,"Nad Ohradou, Prague - Žižkov",50.0919092,14.4717412,,,1.0,1.0,,Up to 10 years,,Gas boiler,,,,,,,,
"CZK 20,000","CZK 6,000","CZK 40,000",730774,2+kk,8/22/2022,,63 m²,Fully furnished,3,Brick,1.0,158.74,1188.58,757.59,1555.19,328.52,591.88,877.03,1380.22,1106.35,584.36,Prague - Horní Počernice,50.10818,14.60192,G,Good,1.0,,,,,,,1.0,,,1.0,,,
"CZK 17,000","CZK 5,000","CZK 34,000",665598,3+1,9/1/2022,Personal,70 m²,Partly,6,Prefab concrete,1.0,60.45,406.53,148.91,385.23,453.89,409.45,628.8,299.94,817.12,295.0,Prague - Lhotka,50.0231546,14.4388284,A,Very good,,1.0,1.0,,Complete,Distance,Standard,,,,,,,
"CZK 16,000","CZK 1,000","CZK 17,000",697622,1 bedroom,9/1/2022,Personal,42 m²,Partly,2,Low-energy,,292.69,656.94,498.74,327.69,154.18,1254.37,385.86,685.76,207.05,339.6,"Pod Stárkou, Prague - Michle",50.0576031,14.4536973,B,New-build,1.0,1.0,1.0,,,,Luxurious,,,,,1.0,,
"CZK 8,000","CZK 2,500","CZK 31,500",729444,3+1,8/10/2022,,63 m²,Fully furnished,5,Prefab concrete,1.0,104.67,745.53,173.45,868.68,402.1,153.89,477.35,366.26,945.52,155.81,Prague - Chodov,50.02711,14.52102,G,Very good,,,1.0,,,,,,,,1.0,,,
"CZK 17,000","CZK 4,800","CZK 17,000",726503,2 bedroom,7/19/2022,Cooperative,64 m²,Fully furnished,3,Brick,,77.26,1194.19,749.99,1186.85,601.55,675.04,515.47,826.4,1235.44,627.62,Prague - Braník,50.02706,14.41658,,Very good,1.0,1.0,,,,,Standard,,,,,,,
"CZK 14,900","CZK 3,500","CZK 14,900",730755,2+kk,8/22/2022,,43 m²,Partly,4,Brick,,198.02,1003.12,215.83,1191.11,171.61,335.89,625.08,714.44,1142.37,275.55,Prague - Košíře,50.07016,14.38685,G,New-build,,,,,Complete,Central,Standard,,,,,1.0,,
"CZK 13,500","CZK 3,000","CZK 20,000",730761,Studio,8/22/2022,,36 m²,Partly,1,Brick,1.0,482.95,2156.35,1774.98,2150.51,563.85,2018.82,1466.63,2024.54,689.82,1388.76,Prague - Hodkovičky,50.01916,14.40095,A,Very good,,1.0,1.0,,,,,1.0,1.0,1.0,1.0,,,
"CZK 17,000","CZK 2,000","CZK 34,000",730563,Studio,9/1/2022,,37 m²,Partly,5,Brick,,334.54,285.07,79.27,409.99,30.53,352.79,158.63,416.7,688.25,184.92,Prague - Vinohrady,50.08069,14.45421,C,New-build,1.0,,,,,,,,,,,,,
"CZK 21,750","CZK 7,250",,728426,Studio,10/2/2022,,25 m²,Fully furnished,12,,1.0,228.88,257.2,204.55,166.76,173.2,262.96,328.04,408.55,436.47,292.09,"Freyova, Prague - Vysočany",50.108944,14.501028,,,,,,,,,,,,,,,,
"CZK 59,250","CZK 19,750",,717599,4+kk,8/24/2022,,90 m²,Fully furnished,2,,1.0,140.09,527.92,223.64,125.85,37.89,66.77,510.79,1001.31,1180.94,559.23,"Stroupežnického, Prague - Smíchov",50.0710929,14.4032595,,,,,,,,,,,,,,,,
"CZK 38,040","CZK 12,680",,724143,2 bedroom,8/24/2022,,70 m²,Fully furnished,5,,,92.39,704.33,6.31,418.26,11.89,396.59,447.42,561.87,517.82,191.93,"Karoliny Světlé, Prague - Staré Město",50.0841726,14.4139535,,,,,,,,,,,,,,,,
"CZK 23,624","CZK 7,875",,728891,3+kk,9/10/2022,,63 m²,Fully furnished,5,,,205.2,814.61,229.97,533.27,206.46,282.56,446.62,227.35,110.18,111.62,"U školičky, Prague - Libeň",50.1085928,14.4915135,,,,,,,,,,,,,,,,
"CZK 39,000","CZK 13,000",,729613,2 bedroom,10/11/2022,,72 m²,Fully furnished,3,,1.0,73.01,281.28,58.33,478.54,20.37,379.07,102.37,138.49,668.56,481.36,"Francouzská, Prague - Vinohrady",50.0739894,14.440101,,,,,,,,,,,,,,,,
"CZK 51,656","CZK 17,219",,728895,2 bedroom,10/6/2022,,60 m²,Fully furnished,4,,1.0,110.1,392.87,177.02,129.22,79.72,168.29,299.92,497.22,273.67,349.66,"Dlážděná, Prague - Nové Město",50.0865843,14.4323212,,,,,,,,,,,,,,,,
"CZK 29,250","CZK 9,750",,724407,2 bedroom,9/19/2022,,65 m²,Fully furnished,4,,1.0,163.79,319.88,110.55,226.38,103.86,407.78,227.16,243.22,785.75,360.1,"Na Zbořenci, Prague - Nové Město",50.0769346,14.4169603,,,,,,,,,,,,,,,,
"CZK 16,000",CZK 600,"CZK 16,000",624990,2 bedroom,9/7/2020,Personal,60 m²,,2,Brick,1.0,165.58,704.11,211.41,196.9,129.03,337.11,559.55,554.51,499.96,268.51,"Žerotínova, Prague - Žižkov",50.088534,14.4649585,E,Good,,,,,,,,,,,,,,
"CZK 24,608","CZK 8,202",,730328,2+kk,10/17/2022,,67 m²,Fully furnished,2,,1.0,190.62,1447.15,484.7,1260.45,182.11,737.34,559.67,596.72,660.13,404.95,"V Zahradách, Prague - Libeň",50.1148427,14.4750191,,,1.0,,,,,,,1.0,,,,1.0,,
"CZK 13,000","CZK 2,500","CZK 11,000",112065,Small studio,,Cooperative,32 m²,Fully furnished,3,Brick,1.0,295.27,769.79,360.39,695.89,310.63,789.36,458.91,343.44,592.3,202.7,"Ruská 90, Prague - Vršovice",50.0729513923,14.4642949104,C,Very good,,,,,Complete,Gas boiler,Standard,,,,1.0,,,
"CZK 12,000","CZK 2,000",CZK 0,461122,Studio,8/21/2022,Personal,30 m²,Fully furnished,1,Prefab concrete,,305.74,951.75,331.05,1019.95,530.0,1302.5,505.82,1258.14,924.82,244.19,"Klapálkova, Prague - Chodov",50.0437747,14.4959001,,,,,,,,Distance,,,,,,,,
"CZK 47,340","CZK 15,780",,717682,2+kk,8/24/2022,,69 m²,Fully furnished,6,,1.0,104.56,349.59,143.75,145.93,108.83,150.53,431.56,393.96,289.53,329.01,"Na Maninách, Prague - Holešovice",50.1025661,14.4522431,,,1.0,,,,,,,,,,,1.0,,
"CZK 26,363","CZK 8,787",,729443,1 bedroom,9/7/2022,,46 m²,Fully furnished,2,,,450.08,851.94,613.97,1216.3,634.57,923.06,534.48,156.81,999.06,301.07,"U Pernikářky, Prague - Smíchov",50.0745289,14.3827184,,,,,,,,,,,,,,,,
"CZK 36,338","CZK 12,112",,728972,5+kk,9/20/2022,,180 m²,Fully furnished,1,,,710.63,2420.81,2011.34,2281.37,826.06,2150.45,2487.2,2253.5,2584.79,783.97,"Ibišková, Prague - Křeslice",50.0183023,14.5625656,,,1.0,,,,,,,1.0,,,,1.0,,
"CZK 18,000","CZK 6,000","CZK 48,000",730751,3+1,9/1/2022,,74 m²,Partly,7,Prefab concrete,,470.4,578.25,456.92,542.52,449.65,680.13,226.91,329.24,961.92,141.08,Prague - Řepy,50.06267,14.30506,A,Very good,,,1.0,,,,,,,,,,,
"CZK 14,500","CZK 3,000","CZK 29,000",147926,2+kk,11/1/2022,Personal,45 m²,Partly,3,Brick,,140.36,1538.25,310.84,1816.92,368.3,357.37,945.26,368.13,1082.06,17.82,"Bratislavská, Prague - Hostivař",50.0437706,14.5156536,B,Very good,1.0,,,,,Central,Standard,,,,,,,
"CZK 22,000","CZK 3,000","CZK 23,000",600303,2+kk,9/1/2022,Personal,60 m²,Fully furnished,4,Brick,1.0,209.59,223.23,37.16,194.83,38.85,132.16,95.36,317.71,278.11,367.81,"Štítného, Prague - Žižkov",50.085184,14.452429,A,Very good,1.0,,,Up to 10 years,Complete,,Standard,,,,,,,
"CZK 13,500","CZK 2,826","CZK 27,000",730746,Studio,9/1/2022,,29 m²,Fully furnished,3,Brick,1.0,207.73,569.54,301.26,370.44,171.38,378.02,505.22,643.85,770.01,187.08,Prague - Libeň,50.1252,14.46909,G,Very good,,,,,,,,,1.0,,1.0,,,
"CZK 19,000","CZK 3,200","CZK 38,000",730739,2 bedroom,8/21/2022,,58 m²,Partly,2,Brick,1.0,275.75,84.74,111.47,326.1,28.63,172.83,35.66,239.04,835.07,811.97,Prague - Vinohrady,50.07328,14.4362,D,Very good,,1.0,,,,,,,,,,,,
"CZK 31,590","CZK 10,530",,722787,1 bedroom,9/5/2022,,52 m²,Fully furnished,3,,1.0,194.81,408.3,97.23,765.36,41.67,716.59,415.49,296.07,511.26,224.74,"Rybalkova, Prague - Vinohrady",50.0719171,14.4429188,,,,,,,,,,,,,,,,
"CZK 14,000","CZK 3,000","CZK 28,000",730740,2+kk,9/1/2022,,44 m²,Fully furnished,7,Prefab concrete,1.0,320.25,825.35,315.27,1209.96,363.72,765.89,402.86,400.54,410.81,272.99,Prague - Háje,50.03729,14.5195,G,Good,,,,,,,,,,,1.0,,,
"CZK 15,000","CZK 4,500","CZK 30,000",730732,2+kk,8/21/2022,Cooperative,38 m²,Fully furnished,3,Brick,,107.31,904.74,281.52,438.87,355.35,401.47,708.13,668.16,544.73,237.67,Prague - Prosek,50.11621,14.50202,G,Very good,,,,,,,,,,,1.0,,,
"CZK 10,500","CZK 3,000","CZK 15,000",516182,1 bedroom,9/1/2022,Personal,33 m²,Partly,1,Brick,,167.79,1120.14,581.0,1043.2,374.35,816.86,541.38,694.22,765.96,510.52,"K Mostku, Prague - Řepy",50.0715636,14.3005907,,Very good,,,,,,,,,,,,,,
"CZK 15,300","CZK 2,700","CZK 18,000",146694,2+kk,9/15/2018,Personal,45 m²,Partly,9,Brick,1.0,197.13,823.35,167.39,545.57,356.99,337.52,169.29,615.37,522.89,223.02,Prague - Letňany,50.1384241,14.5063347,C,Good,,,,,,,,,,,,,,
"CZK 38,000","CZK 6,140","CZK 60,000",714349,3+1,9/1/2022,Personal,125 m²,Partly,4,Brick,1.0,169.6,512.43,178.1,306.01,36.59,299.49,192.69,443.73,233.23,420.28,"Bílkova, Prague - Staré Město",50.09099,14.42074,G,Very good,,,,,Interior,,,,,,1.0,,,
"CZK 18,000","CZK 4,000","CZK 22,000",730729,2+kk,8/21/2022,,42 m²,Fully furnished,2,Prefab concrete,1.0,142.01,314.5,268.56,2635.66,318.83,312.14,379.46,1691.27,1244.29,72.32,Prague - Ruzyně,50.0892,14.30693,G,Very good,,1.0,,,,,,,,,,,,
"CZK 31,752","CZK 10,584",,726633,2 bedroom,9/2/2022,,57 m²,Fully furnished,7,,1.0,7.74,76.74,105.28,213.89,45.41,117.47,178.45,327.18,381.26,239.99,"Dělnická, Prague - Holešovice",50.1031132,14.4472134,,,1.0,,,,,,,,,,,1.0,,
"CZK 11,500","CZK 3,000","CZK 16,000",620642,1 bedroom,10/1/2022,Personal,32 m²,,6,Brick,1.0,193.48,870.2,220.27,574.01,214.0,612.71,762.59,761.13,796.77,627.35,"Družstevní, Prague - Nusle",50.062579,14.447259,G,Very good,1.0,,,,,Central,,,,,,,,
"CZK 21,000","CZK 3,900","CZK 35,000",484018,2+kk,9/1/2022,,64 m²,Fully furnished,2,Brick,1.0,147.73,398.09,319.69,406.32,74.93,392.19,463.28,254.94,377.71,263.55,"Na Žertvách, Prague - Libeň",50.1051921,14.4782886,,Very good,1.0,1.0,,,,,,1.0,,,,,,
"CZK 12,000","CZK 3,000","CZK 19,000",726777,Small studio,8/31/2022,,20 m²,Partly,1,Brick,,476.01,1797.91,1520.88,1790.57,730.58,1278.75,570.77,1430.11,944.43,214.45,Prague - Hodkovičky,50.02584,14.40784,G,New-build,,1.0,,10 to 30 years,,,Standard,,1.0,,,,,
"CZK 8,500","CZK 4,000","CZK 15,000",730728,Studio,8/29/2022,,30 m²,Partly,-1,Brick,,316.86,1211.38,288.09,897.75,374.18,971.78,946.12,272.14,959.79,267.32,Prague - Dejvice,50.0979,14.37711,G,Good,,,,,,,,,,,,,,
"CZK 16,000","CZK 3,290","CZK 19,290",730159,2 bedroom,9/30/2022,,54 m²,Partly,11,Prefab concrete,1.0,118.09,489.85,20.91,438.5,309.94,459.86,121.07,212.17,710.25,223.59,Prague - Vršovice,50.0723,14.47152,A,Very good,,,,,,,,,,1.0,,,,
"CZK 35,000","CZK 10,000","CZK 35,000",729540,3+kk,9/1/2022,,136 m²,Fully furnished,5,Other,1.0,414.08,771.69,477.5,878.68,3.32,463.98,336.19,409.67,481.2,613.02,"Na Výsledku II, Prague - Nusle",50.05555665,14.44677365,G,Very good,,,,,,,,,,,1.0,1.0,,
"CZK 29,850","CZK 9,950",,728156,2+kk,10/16/2022,,50 m²,Fully furnished,3,,1.0,75.01,890.63,40.68,622.44,47.2,145.83,371.43,242.4,512.42,352.71,"Kubelíkova, Prague - Žižkov",50.0815843,14.4461973,,,,,,,,,,,,,,,,
"CZK 14,000","CZK 2,500","CZK 28,000",730724,Studio,8/21/2022,,42 m²,Fully furnished,1,Brick,,1478.51,2152.1,1779.95,2050.57,1884.71,2089.31,1389.09,1749.38,2849.26,1483.91,Prague - Uhříněves,50.04535,14.59727,G,New-build,1.0,1.0,,10 to 30 years,,,Standard,,1.0,1.0,,,,
"CZK 9,500","CZK 2,500","CZK 12,000",728735,Small studio,9/1/2022,,15 m²,Fully furnished,4,Brick,,6.13,1142.27,634.69,818.33,746.52,711.11,579.27,699.97,377.71,338.38,Prague - Smíchov,50.07075,14.36128,B,Good,,,,,,,,,,,,,,
"CZK 24,000","CZK 5,000","CZK 75,000",729939,3+kk,8/15/2022,,80 m²,Fully furnished,3,Brick,1.0,404.22,627.09,484.92,932.02,709.91,847.27,542.04,621.82,662.9,305.7,Prague - Horní Měcholupy,50.04295,14.54968,G,New-build,1.0,1.0,,10 to 30 years,Complete,Central,,1.0,1.0,,1.0,,,
"CZK 19,800","CZK 6,600",,726085,3+1,10/4/2022,,90 m²,Fully furnished,5,,1.0,82.8,397.93,96.94,404.98,135.48,353.78,131.46,217.55,654.74,661.34,"Blanická, Prague - Vinohrady",50.0746503,14.439294,,,,,,,,,,,,,,,,
"CZK 11,500","CZK 2,580","CZK 15,000",730161,Studio,9/30/2022,,22 m²,Partly,1,Prefab concrete,1.0,313.68,468.15,553.55,2697.95,331.92,485.82,741.2,610.42,1689.93,249.23,Prague - Čimice,50.14157,14.43307,A,Very good,,,,,,,,,,1.0,,,,
"CZK 15,000","CZK 5,000","CZK 30,000",730398,2+kk,9/15/2022,,54 m²,Partly,2,Brick,,60.74,738.0,272.64,1093.95,101.41,576.03,488.78,430.55,388.92,367.0,Prague - Smíchov,50.06497,14.39291,E,Very good,,,,,,,,,,1.0,1.0,,,
"CZK 8,900","CZK 3,100","CZK 16,000",689133,Studio,8/17/2022,Personal,28 m²,Partly,4,Brick,1.0,325.63,279.64,115.51,2177.18,130.11,325.04,2.2,206.21,1466.61,480.39,"Školní, Prague - Braník",50.03722,14.41341,G,Very good,,,,,,,,,,,,1.0,,
"CZK 27,000","CZK 9,000",,730277,2+kk,9/1/2022,,52 m²,Fully furnished,2,,1.0,101.2,551.63,76.94,167.66,45.43,94.55,322.6,504.78,539.56,607.69,"Rumunská, Prague - Vinohrady",50.0739629,14.4309041,,,,,,,,,,,,,,,,
"CZK 18,000","CZK 5,000","CZK 36,000",683172,2+kk,8/16/2022,Personal,55 m²,Partly,5,Brick,,300.02,346.31,242.92,505.85,74.44,510.98,211.05,158.51,186.03,232.81,"Písecká, Prague - Vinohrady",50.0763515,14.4651577,G,Very good,,,,Over 50 years,Complete,Gas boiler,Standard,,,,1.0,,,
"CZK 11,800","CZK 3,700","CZK 11,800",174167,1 bedroom,9/1/2022,Personal,47 m²,Fully furnished,1,Brick,,269.91,482.78,119.66,1225.34,219.91,809.9,389.5,379.4,327.15,23.4,"Za Pohořelcem, Prague - Střešovice",50.0864318,14.3834355,,Very good,,,,,Complete,Gas boiler,Standard,,,,,,,
"CZK 14,700",CZK 0,"CZK 20,000",319784,2+kk,9/1/2022,Personal,52 m²,Fully furnished,3,Brick,1.0,183.18,395.09,68.94,148.73,17.96,292.33,263.93,505.32,342.96,196.0,"Valerije Pavloviče Čkalova, Prague - Bubeneč",50.0993313,14.3998311,,,,,,,,Electric boiler,,,,,,,,
"CZK 17,500","CZK 1,500","CZK 20,000",730111,2+kk,9/1/2022,,55 m²,Fully furnished,1,Brick,,129.88,1069.07,205.53,1004.68,159.66,663.48,615.44,421.6,536.05,467.95,Prague - Smíchov,50.06262,14.39664,A,Very good,,,,,,,,1.0,,,1.0,,,
"CZK 15,800","CZK 3,280","CZK 20,000",570248,Studio,10/1/2022,Personal,42 m²,Partly,3,Low-energy,1.0,99.26,361.63,490.78,556.87,427.65,345.52,452.0,519.02,404.9,293.38,"Olšanská, Prague - Žižkov",50.0830187,14.4654473,C,New-build,1.0,1.0,,Up to 10 years,,Distance,Luxurious,,1.0,,1.0,,,
"CZK 12,500","CZK 2,500","CZK 20,000",730113,Small studio,8/16/2022,,32 m²,Partly,1,Brick,,265.54,457.35,516.76,553.64,567.65,606.23,913.09,589.89,1518.52,803.9,Prague - Jinonice,50.05764,14.36741,B,Very good,,,,,,,,,,,,1.0,,
"CZK 21,500","CZK 3,058","CZK 32,250",386583,2+kk,9/5/2022,Personal,66 m²,Partly,6,Prefab concrete,1.0,200.44,899.67,116.64,347.09,27.75,327.12,327.09,562.48,353.21,44.52,"Kurta Konráda, Prague - Libeň",50.1050691,14.4879729,,New-build,1.0,,,Up to 10 years,,Central,Standard,1.0,1.0,,1.0,,,
"CZK 30,000","CZK 10,000",,718922,Studio,9/11/2022,,45 m²,Fully furnished,5,,1.0,241.61,542.2,98.71,270.79,176.01,313.55,455.64,821.55,633.96,593.3,"Mečislavova, Prague - Nusle",50.0633237,14.4440058,,,,,,,,,,,,,,,,
"CZK 17,500","CZK 3,500","CZK 17,500",730701,2+kk,8/21/2022,,65 m²,Partly,2,Brick,1.0,265.0,976.08,523.77,941.25,483.3,496.25,908.9,521.25,436.99,403.29,Prague - Stodůlky,50.05178,14.33128,C,New-build,1.0,,,,,,,,,,1.0,,,
"CZK 27,000","CZK 2,000","CZK 54,000",730698,3+1,9/1/2022,,100 m²,Partly,4,Brick,,111.55,568.7,105.68,389.17,22.69,257.42,701.81,529.29,514.74,478.42,Prague - Smíchov,50.06958,14.40615,G,Very good,,,,,,,,,,,,,,
"CZK 30,000","CZK 5,000","CZK 60,000",730693,3+1,8/21/2022,,98 m²,Fully furnished,6,Brick,1.0,206.4,463.59,26.18,490.53,132.33,56.4,300.37,399.38,623.06,491.83,Prague - Žižkov,50.08145,14.44794,D,Very good,1.0,,,,,,,,,,1.0,1.0,,
"CZK 21,019","CZK 7,006",,730685,Studio,8/31/2022,,28 m²,Fully furnished,1,,,194.2,798.76,138.2,283.7,89.62,474.09,247.17,335.61,500.98,81.99,"U Zeměpisného ústavu, Prague - Bubeneč",50.1033901,14.4020568,,,,,,,,,,,,,,,,
"CZK 15,000","CZK 4,000","CZK 30,000",730681,2 bedroom,9/5/2022,Personal,49 m²,Partly,1,Brick,,72.47,323.21,123.04,161.16,83.35,257.83,190.96,677.42,400.74,244.94,Prague - Strašnice,50.07551,14.48872,G,Very good,,1.0,,,Complete,,Standard,,,,,,,
"CZK 19,500","CZK 4,300","CZK 45,000",730680,2+kk,11/1/2022,Personal,51 m²,Fully furnished,3,Prefab concrete,1.0,77.89,806.6,238.19,510.21,346.43,332.17,116.14,372.1,179.0,189.14,Prague - Letňany,50.13414,14.50913,D,Very good,,,1.0,,,,,,,,1.0,,,
"CZK 43,000","CZK 7,000","CZK 90,000",730080,3+kk,9/1/2022,,90 m²,Partly,2,Brick,1.0,78.16,287.71,91.16,102.12,98.71,140.37,133.02,301.56,565.88,477.59,Prague - Nové Město,50.09072,14.4351,G,New-build,,,,,,,,,,,1.0,,,
"CZK 20,500","CZK 5,500","CZK 26,000",683312,2+kk,9/1/2022,Personal,64 m²,Fully furnished,5,Brick,1.0,54.15,613.56,19.65,25.54,43.7,138.5,276.11,361.15,306.6,378.5,"Jana Želivského, Prague - Žižkov",50.08869,14.46837,E,Very good,,,,,Complete,,,,,,1.0,,,
"CZK 17,000","CZK 2,900","CZK 40,000",730677,2+kk,9/1/2022,,48 m²,Partly,3,Brick,1.0,127.28,833.45,0.95,1967.51,86.67,787.29,490.85,1036.75,847.71,404.51,Prague - Kyje,50.10906,14.55753,C,Very good,1.0,,,,,,,1.0,,,1.0,,,
"CZK 19,500",CZK 779,"CZK 39,000",697625,2+kk,11/1/2022,Cooperative,58 m²,Unfurnished,3,Brick,1.0,82.7,455.01,98.38,158.1,81.21,239.05,520.06,207.7,804.87,290.93,"Baranova, Prague - Žižkov",50.07806,14.4581,G,Very good,1.0,,1.0,,,Gas boiler,,,,,,,,
"CZK 16,000","CZK 3,950","CZK 20,000",320028,2 bedroom,10/1/2022,Personal,60 m²,Partly,3,Prefab concrete,1.0,195.62,994.27,38.44,1213.76,334.91,313.68,465.33,577.57,746.52,421.28,"Olbramovická, Prague - Kamýk",50.0160639,14.4388525,,,,,,,,Central,,,,,1.0,,,
"CZK 14,000","CZK 3,600","CZK 14,000",505470,2+kk,10/1/2022,Personal,43 m²,Partly,7,Prefab concrete,1.0,97.07,518.62,175.18,614.86,171.34,492.91,345.02,334.45,1585.25,88.37,"Famfulíkova, Prague - Kobylisy",50.1318409,14.4711883,D,Very good,,,,,Bathroom unit,Distance,,,,,,,,
"CZK 21,768","CZK 2,772","CZK 60,000",730674,2+kk,8/21/2022,,47 m²,Fully furnished,1,Brick,1.0,189.21,570.4,309.44,252.01,222.72,568.96,235.01,384.66,186.41,205.54,Prague - Vršovice,50.06875,14.46365,B,Very good,1.0,,,,,,,,1.0,1.0,1.0,,,
"CZK 21,900","CZK 3,000","CZK 44,000",686568,Studio,9/1/2022,Personal,26 m²,Fully furnished,2,Brick,1.0,98.4,430.77,193.81,210.42,67.47,366.05,461.93,467.64,787.48,452.05,"Gorazdova, Prague - Nové Město",50.07386,14.41527,E,New-build,,,,Up to 10 years,Complete,,,,,,,,,
"CZK 22,000","CZK 3,500","CZK 34,000",607372,Studio,9/15/2022,Personal,25 m²,Fully furnished,1,Brick,1.0,148.83,419.07,71.5,195.07,56.82,331.69,329.58,642.28,911.37,462.1,"Gorazdova, Prague - Nové Město",50.074462,14.414953,E,Very good,,,,Up to 10 years,Complete,Central,Luxurious,,,,,,,
"CZK 20,000","CZK 1,000","CZK 25,000",730668,3+1,8/21/2022,,82 m²,Partly,1,Prefab concrete,1.0,249.23,243.32,171.92,966.42,151.79,801.36,290.08,469.24,587.42,189.96,Prague - Hlubočepy,50.03013,14.36698,G,Very good,,,1.0,,,,,,,,1.0,,,
"CZK 15,000","CZK 3,000","CZK 20,000",709035,Small studio,,Personal,29 m²,Fully furnished,,Low-energy,,618.33,731.45,510.18,791.23,537.83,770.06,567.75,517.78,666.68,817.36,Prague - Vinohrady,50.0684925,14.438051,,New-build,,,,Up to 10 years,,Central,Luxurious,,,,1.0,1.0,,
"CZK 10,000","CZK 2,500","CZK 12,500",730667,Studio,9/1/2022,,16 m²,Partly,2,Other,,611.24,780.27,433.45,420.1,219.24,740.32,581.38,100.21,449.61,338.75,Prague - Vysočany,50.10672,14.50538,B,New-build,,,,,,,,,1.0,,,,,
"CZK 33,750","CZK 11,250",,718218,2+kk,9/6/2022,,45 m²,Fully furnished,2,,1.0,210.86,382.06,250.08,989.18,169.53,744.75,811.66,1049.67,387.48,543.22,"Strakonická, Prague - Smíchov",50.0643299,14.4102127,,,,,,,,,,,,,,,,
"CZK 27,000","CZK 6,000","CZK 33,000",462223,3+kk,9/1/2022,Personal,106 m²,Fully furnished,8,Brick,1.0,212.08,812.91,162.18,1052.96,441.38,396.18,445.25,146.72,1065.71,247.83,"Otradovická, Prague - Kamýk",50.0198176,14.4448089,B,New-build,,,,Up to 10 years,,Central,Luxurious,1.0,1.0,,,1.0,,
"CZK 8,300",CZK 0,"CZK 12,000",730065,4+1,10/10/2022,,30 m²,Fully furnished,2,Brick,,416.15,1119.2,164.68,682.83,309.93,545.96,146.46,1060.0,596.48,112.48,Prague - Karlín,50.09357,14.46052,G,Good,,,,,,,,,,,1.0,,,
"CZK 39,600","CZK 13,200",,717648,2+kk,9/23/2022,,46 m²,Fully furnished,2,,,249.05,258.88,108.69,237.41,65.07,536.83,294.74,273.73,806.33,231.2,"Míšeňská, Prague - Malá Strana",50.0876118,14.4080467,,,,,,,,,,,,,,,,
"CZK 19,725","CZK 6,575",,730349,2 bedroom,10/15/2022,,90 m²,Fully furnished,6,,1.0,73.01,281.28,58.33,478.54,20.37,379.07,102.37,138.49,668.56,481.36,"Francouzská, Prague - Vinohrady",50.0739894,14.440101,,,,,,,,,,,,,,,,
"CZK 17,000","CZK 3,500","CZK 35,000",679463,2+kk,9/1/2022,Personal,55 m²,Fully furnished,4,Low-energy,1.0,119.61,1030.22,381.43,913.75,402.76,629.33,272.0,279.05,815.5,41.99,"Valečovská, Prague - Prosek",50.11799,14.49021,B,Very good,,1.0,,,,Central,Luxurious,,1.0,,,,,
"CZK 20,000","CZK 4,500","CZK 40,000",461130,3+kk,9/12/2022,Personal,62 m²,Fully furnished,1,Brick,1.0,245.07,1603.95,923.29,2129.19,697.88,1650.4,1292.07,1787.3,1232.57,710.16,"Farkašova, Prague - Kyje",50.1158365,14.5628399,C,,,1.0,,Up to 10 years,,,,,,,,1.0,,
"CZK 16,000","CZK 4,000","CZK 16,000",600766,2+kk,8/15/2022,Personal,56 m²,Partly,1,Brick,1.0,115.45,128.96,563.8,755.23,442.46,635.86,384.23,834.07,2003.92,309.41,"U Kříže, Prague - Jinonice",50.054407,14.365663,C,Very good,,,,,,,,1.0,,,,,,
"CZK 26,000","CZK 2,000","CZK 26,000",729064,2+kk,8/8/2022,,62 m²,Fully furnished,6,Brick,1.0,133.89,534.98,98.87,163.12,157.02,73.54,334.02,280.84,454.18,358.34,Prague - Nové Město,50.07173,14.41968,A,New-build,,,,,,,,,1.0,,,,,
"CZK 32,175","CZK 10,725",,726162,2+kk,9/16/2022,,62 m²,Fully furnished,7,,1.0,99.26,361.63,490.78,556.87,427.65,345.52,452.0,519.02,404.9,293.38,"Olšanská h, Prague - Žižkov",50.0830187,14.4654473,,,,,,,,,,,,,,,,
"CZK 16,200","CZK 3,800","CZK 20,000",686230,2+kk,10/1/2022,Personal,43 m²,Fully furnished,5,Brick,1.0,443.03,2205.5,1833.24,2208.76,443.04,2061.8,1256.25,2082.8,407.15,1143.0,"Šífařská, Prague - Hodkovičky",50.0204964,14.4029624,B,New-build,1.0,,,,,,,,,,1.0,,,
"CZK 22,900","CZK 3,500","CZK 25,000",326740,3+1,8/21/2022,Personal,73 m²,Unfurnished,7,Prefab concrete,,139.55,285.64,66.38,910.94,156.45,733.79,182.95,283.33,474.97,107.71,"Voskovcova, Prague - Hlubočepy",50.0296414,14.3686041,,,1.0,,,,Complete,Central,,,,,,,,
"CZK 19,000","CZK 5,000","CZK 24,000",729104,2+kk,8/20/2022,,48 m²,Fully furnished,4,Brick,1.0,634.27,870.62,220.77,1005.97,282.21,234.65,479.9,251.36,711.03,122.07,Prague - Kunratice,50.02378,14.48676,B,Very good,1.0,1.0,,,,Central,Standard,1.0,,,1.0,,,
"CZK 29,900",CZK 0,"CZK 29,900",730506,4+kk,9/1/2022,,110 m²,Partly,1,Brick,1.0,90.95,663.85,103.33,402.38,15.51,371.51,274.26,552.81,289.52,278.14,Prague - Bubeneč,50.10016,14.40303,G,Very good,1.0,1.0,,,,,,,,,1.0,,,
"CZK 13,000","CZK 5,000","CZK 26,000",726042,Studio,9/1/2022,Personal,32 m²,Fully furnished,3,Brick,1.0,249.66,693.57,692.2,1211.41,225.0,494.83,319.69,416.46,396.46,249.66,Prague - Hloubětín,50.10433,14.55168,G,Very good,,1.0,,Up to 10 years,,,Standard,,,,,,,
"CZK 41,756","CZK 13,919",,728695,4+1,10/4/2022,,102 m²,Fully furnished,2,,,183.27,1023.84,165.5,746.11,195.16,730.27,819.74,259.7,600.66,303.35,"Xaveriova, Prague - Smíchov",50.0626569,14.3913498,,,,,,,,,,,,,,,,
"CZK 60,000","CZK 20,000",,717694,2+kk,8/24/2022,,,Fully furnished,3,,,177.2,646.63,182.16,39.81,37.58,122.34,27.5,101.85,349.84,194.18,"Ječná, Prague - Nové Město",50.0757302,14.4269087,,,,,,,,,,,,,,,,
"CZK 20,625","CZK 6,875",,728424,2 bedroom,10/2/2022,,45 m²,Fully furnished,10,,1.0,256.77,316.9,138.95,255.27,129.78,146.97,532.26,445.84,886.9,24.33,"Jablonecká, Prague - Střížkov",50.1245336,14.4947443,,,,,,,,,,,,,,,,
"CZK 51,840","CZK 17,280",,728059,3+1,9/30/2022,,85 m²,Fully furnished,2,,1.0,278.51,602.82,173.91,301.83,0.93,288.1,225.94,440.55,233.82,416.1,"Bílkova, Prague - Staré Město",50.0912254,14.4209612,,,,,,,,,,,,,,,,
"CZK 41,438","CZK 13,812",,728262,Studio,9/11/2022,,26 m²,Fully furnished,2,,,229.1,530.05,122.61,223.26,36.43,222.12,280.75,471.08,466.92,408.11,"Příčná, Prague - Nové Město",50.077834,14.422878,,,,,,,,,,,,,,,,
"CZK 60,000","CZK 20,000",,717693,2+kk,8/24/2022,,,Fully furnished,3,,,177.2,646.63,182.16,39.81,37.58,122.34,27.5,101.85,349.84,194.18,"Ječná, Prague - Nové Město",50.0757302,14.4269087,,,,,,,,,,,,,,,,
"CZK 32,250","CZK 10,750",,727477,Studio,9/25/2022,,27 m²,Fully furnished,4,,1.0,275.28,321.52,72.5,617.26,60.27,467.19,25.57,60.76,793.43,562.96,"Americká, Prague - Vinohrady",50.0717643,14.4385436,,,,,,,,,,,,,,,,
"CZK 32,400","CZK 10,800",,728253,2 bedroom,10/1/2022,,65 m²,Fully furnished,5,,1.0,163.79,319.88,110.55,226.38,103.86,407.78,227.16,243.22,785.75,360.1,"Na Zbořenci, Prague - Nové Město",50.0769346,14.4169603,,,,,,,,,,,,,,,,
"CZK 33,000","CZK 11,000",,728257,3+kk,10/1/2022,,80 m²,Fully furnished,2,,,156.94,402.05,153.34,284.97,151.52,248.16,393.35,447.14,193.37,153.39,"Anežská, Prague - Staré Město",50.0920126,14.4239059,,,,,,,,,,,,,,,,
"CZK 29,250","CZK 9,750",,725020,2 bedroom,9/19/2022,,65 m²,Fully furnished,3,,1.0,163.79,319.88,110.55,226.38,103.86,407.78,227.16,243.22,785.75,360.1,"Na Zbořenci, Prague - Nové Město",50.0769346,14.4169603,,,,,,,,,,,,,,,,
"CZK 39,000","CZK 13,000",,728062,2 bedroom,9/25/2022,,92 m²,Fully furnished,7,,1.0,73.01,281.28,58.33,478.54,20.37,379.07,102.37,138.49,668.56,481.36,"Francouzská, Prague - Vinohrady",50.0739894,14.440101,,,1.0,,,,,,,,,,,1.0,,
"CZK 27,195","CZK 9,065",,730051,2+kk,10/15/2022,,50 m²,Fully furnished,1,,,255.31,501.77,459.42,715.23,218.51,523.94,431.76,479.05,374.11,261.13,"Na Balkáně, Prague - Žižkov",50.095259,14.4941569,,,1.0,,,,,,,,,,,1.0,,
"CZK 27,000","CZK 9,000",,729347,Studio,10/10/2022,,42 m²,Fully furnished,6,,1.0,281.75,307.61,213.79,334.55,123.9,263.48,107.78,215.2,467.08,403.1,"Krásova, Prague - Žižkov",50.0830503,14.4473656,,,1.0,,,,,,,,,,,1.0,,
"CZK 48,000","CZK 16,000",,717684,3+1,9/18/2022,,72 m²,Fully furnished,5,,1.0,273.55,299.9,80.57,586.7,68.95,312.33,103.27,252.88,792.89,567.68,"Americká, Prague - Vinohrady",50.0718291,14.4385892,,,,,,,,,,,,,,,,
"CZK 33,750","CZK 11,250",,730188,1 bedroom,10/16/2022,,45 m²,Fully furnished,3,,1.0,153.03,376.72,146.99,646.6,45.07,502.75,147.12,62.23,673.09,485.89,"Jana Masaryka, Prague - Vinohrady",50.0723321,14.4399493,,,,,,,,,,,,,,,,
"CZK 48,435","CZK 16,145",,730649,3+1,10/20/2022,,108 m²,Fully furnished,3,,1.0,170.36,424.31,260.04,428.7,73.65,305.75,38.65,29.43,439.38,720.46,"Balbínova, Prague - Vinohrady",50.0795643,14.4361068,,,,,,,,,,,,,,,,
"CZK 28,050","CZK 9,350",,730647,Studio,10/20/2022,,40 m²,Fully furnished,2,,,87.49,353.69,89.13,198.59,58.79,391.02,424.91,274.28,259.74,601.22,"Zborovská, Prague - Smíchov",50.0730353,14.4083714,,,1.0,,,,,,,,,,,1.0,,
"CZK 20,000","CZK 5,800","CZK 40,000",730026,3+kk,8/20/2022,,79 m²,Partly,4,Brick,1.0,123.98,590.32,215.96,3442.71,251.39,175.06,693.48,435.64,573.06,105.37,Prague - Kbely,50.13218,14.5513,B,Very good,1.0,1.0,,,,,,,,1.0,1.0,1.0,,
"CZK 26,000","CZK 7,900","CZK 50,000",548506,2+kk,8/21/2022,Personal,54 m²,Fully furnished,4,Brick,1.0,196.54,708.6,185.89,175.43,33.46,257.8,76.89,276.1,130.26,252.34,"Vyšehradská, Prague - Nové Město",50.0694781,14.418098,B,,,,,Up to 10 years,Complete,,Luxurious,,,,1.0,,,
"CZK 20,000","CZK 8,000","CZK 28,000",730639,3+1,10/1/2022,,90 m²,Partly,3,Brick,,44.22,1189.1,576.92,1480.73,532.01,1178.75,1005.21,708.52,1105.27,393.01,Prague - Braník,50.04159,14.42236,G,Good,,,,,,,,,,,,,,
"CZK 18,000","CZK 5,000","CZK 30,000",552552,2+kk,10/1/2022,Personal,63 m²,Partly,3,Brick,,280.09,1497.21,807.48,1588.99,980.25,1360.6,1441.37,1351.06,2122.56,1106.49,Prague - Uhříněves,50.034912,14.5808621,,Very good,1.0,,,,,,,,,,1.0,,,
"CZK 23,000","CZK 2,091","CZK 50,000",730638,3+kk,8/20/2022,,68 m²,Partly,8,Prefab concrete,1.0,359.8,896.27,372.32,643.41,170.94,405.27,358.15,398.69,688.26,211.72,Prague - Chodov,50.02743,14.52485,C,Very good,,,1.0,,,,,,,,1.0,,,
"CZK 35,063","CZK 11,687",,729576,3+kk,9/14/2022,,89 m²,Fully furnished,5,,1.0,122.69,292.83,150.02,222.27,31.53,246.25,406.08,512.95,283.22,254.06,"Křižíkova a, Prague - Karlín",50.0928722,14.4500782,,,1.0,,,,,,,1.0,,,,1.0,,
"CZK 17,250","CZK 5,750",,727831,3+kk,9/15/2022,,90 m²,Fully furnished,2,,1.0,82.8,397.93,96.94,404.98,135.48,353.78,131.46,217.55,654.74,661.34,"Blanická, Prague - Vinohrady",50.0746503,14.439294,,,,,,,,,,,,,,,,
"CZK 20,000","CZK 5,000","CZK 20,000",729979,2+kk,8/15/2022,,52 m²,Fully furnished,1,Other,1.0,147.37,951.08,153.05,538.29,374.51,662.93,209.14,1932.17,914.36,242.91,Prague - Zličín,50.05715,14.28452,G,Very good,1.0,1.0,,,,,,,,1.0,,,,
"CZK 10,900","CZK 3,798","CZK 14,698",730631,2+kk,9/1/2022,,43 m²,Partly,8,Prefab concrete,,256.32,973.77,271.19,227.25,271.81,311.37,128.71,282.21,617.34,142.38,Prague - Stodůlky,50.04385,14.31908,G,Good,,,,,,,,,,,1.0,,,
"CZK 14,000","CZK 7,500","CZK 16,000",621436,Studio,9/1/2022,Personal,40 m²,Fully furnished,1,Brick,,324.8,935.35,338.0,1038.12,168.04,650.8,580.16,549.31,350.29,231.28,"Nad Závěrkou, Prague - Břevnov",50.082898,14.379058,G,Very good,,,,,,,,,,,1.0,,,
"CZK 18,000",CZK 0,"CZK 16,000",730625,2 bedroom,8/20/2022,,70 m²,Partly,1,Brick,,116.18,1129.79,507.6,1052.84,342.54,826.51,467.99,680.11,864.92,474.26,Prague - Řepy,50.07081,14.30226,G,Good,,1.0,,Over 50 years,Interior,,,,,1.0,,,,
"CZK 17,000","CZK 3,000","CZK 30,000",678107,3+1,10/1/2022,Cooperative,82 m²,Partly,4,Prefab concrete,1.0,139.15,489.42,691.61,2969.27,540.85,838.62,952.02,1515.86,1660.06,368.03,"V Rohu, Prague - Libuš",50.01091,14.46631,C,Very good,1.0,,,,Bathroom unit,Central,,,,,1.0,,,
"CZK 12,000","CZK 2,000","CZK 14,000",653606,Small studio,8/22/2022,Personal,27 m²,Partly,5,Prefab concrete,1.0,237.35,1324.02,187.22,827.98,223.46,203.35,395.87,203.45,494.31,112.65,"Písečná, Prague - Troja",50.12429,14.44174,G,Good,,,1.0,,,Distance,,,,,,,,
"CZK 12,000","CZK 3,000","CZK 15,000",650716,Small studio,9/1/2022,Personal,33 m²,Partly,6,Brick,1.0,423.15,2168.74,1870.0,2245.52,406.28,2025.04,1219.49,2119.55,370.39,1106.24,"Šífařská, Prague - Hodkovičky",50.020821,14.40306,A,New-build,1.0,1.0,,Up to 10 years,,Distance,Luxurious,,1.0,,,,,
"CZK 19,000","CZK 4,000","CZK 19,000",514627,2+kk,9/1/2022,Personal,53 m²,Partly,8,Other,1.0,436.45,482.38,355.27,2168.88,451.43,585.29,902.55,311.64,478.12,124.82,"Kytínská, Prague - Hostivař",50.0529798,14.5443391,,New-build,1.0,,,Up to 10 years,,Distance,Standard,1.0,1.0,,1.0,,,
"CZK 14,000","CZK 1,930","CZK 31,860",437630,Studio,8/20/2022,Personal,32 m²,Fully furnished,5,Low-energy,1.0,777.75,1515.39,1436.1,2118.41,297.18,1411.22,1521.23,1349.24,501.91,402.89,"Kadečkové, Prague - Letňany",50.1425035,14.5253098,B,New-build,1.0,,,Up to 10 years,,Distance,Luxurious,1.0,1.0,,,,,
"CZK 18,000","CZK 4,500","CZK 20,000",613343,2+kk,10/1/2022,Personal,46 m²,,4,Brick,1.0,526.76,1019.91,431.15,1156.37,479.61,952.31,597.42,464.21,605.37,264.73,"Mírového Hnutí, Prague - Háje",50.037896,14.521034,A,Very good,1.0,1.0,,,,,,1.0,,,,,,
"CZK 9,500","CZK 4,500","CZK 16,000",326191,2+kk,8/20/2022,Personal,45 m²,Partly,,Brick,,118.21,901.07,270.57,440.14,356.62,402.74,697.18,657.21,541.06,238.94,"Nad Krocínkou, Prague - Prosek",50.1160844,14.5019544,,,,,,,,,,,,,,,,
"CZK 18,500","CZK 4,000","CZK 35,000",421225,2+kk,10/1/2022,Personal,52 m²,Partly,4,Brick,1.0,324.34,473.47,296.86,224.17,158.4,158.73,795.72,748.5,192.56,232.72,"Nepilova, Prague - Vysočany",50.110728,14.4959744,A,Very good,1.0,1.0,,,,,,,,,,,,
"CZK 16,500","CZK 6,000","CZK 33,000",730617,2+kk,9/1/2022,,57 m²,Partly,4,Brick,1.0,352.88,459.2,344.74,2082.0,594.17,633.94,971.66,204.9,5317.79,225.18,Prague - Zbraslav,49.96156,14.38226,G,Very good,1.0,1.0,,,,Distance,,,,,1.0,,,
"CZK 16,900","CZK 3,100","CZK 30,000",617632,2+kk,6/25/2022,Personal,44 m²,Partly,2,Prefab concrete,1.0,339.5,258.78,154.1,328.9,36.49,237.37,731.05,965.96,1127.37,353.92,"Olštýnská, Prague - Troja",50.127794,14.42029,B,Very good,1.0,,,Up to 10 years,Interior,Distance,Standard,,,,,,,
"CZK 17,829","CZK 2,000","CZK 40,000",728348,2+kk,8/2/2022,,42 m²,Fully furnished,8,Prefab concrete,1.0,66.96,672.24,233.95,511.93,198.85,128.91,217.4,629.67,272.59,147.55,Prague - Letňany,50.13562,14.50983,C,Good,,,,,,,,,,,1.0,,,
"CZK 28,235","CZK 5,289","CZK 60,000",728132,4+kk,9/1/2022,,99 m²,Partly,1,Brick,,202.61,529.78,235.18,323.22,88.92,261.38,106.14,367.73,96.61,432.73,Prague - Vinohrady,50.07836,14.44153,B,Good,,1.0,,,,,,,,,,,,
"CZK 19,900","CZK 3,900","CZK 47,600",547694,2+kk,9/1/2022,Personal,40 m²,Fully furnished,5,Brick,1.0,247.6,612.03,162.08,212.68,150.4,308.87,373.02,109.89,426.4,395.65,"Pod Slovany, Prague - Nové Město",50.0712083,14.4161981,E,New-build,,1.0,,Up to 10 years,Interior,Gas boiler,Standard,,1.0,,,,,
"CZK 18,000","CZK 2,500","CZK 15,000",730611,2+kk,9/1/2022,,487 m²,Fully furnished,2,Prefab concrete,,432.47,869.51,516.98,547.07,76.89,490.6,587.46,571.61,689.8,392.87,Prague - Stodůlky,50.04872,14.32451,G,Very good,,,,,,,,,,,1.0,,,
"CZK 21,000","CZK 6,000","CZK 50,000",730609,3+kk,9/1/2022,,63 m²,Partly,2,Brick,,261.41,912.52,281.87,426.36,218.4,429.59,471.08,561.14,311.81,403.98,Prague - Nusle,50.059,14.43643,G,Very good,,,,,,,,,,,1.0,,,
"CZK 18,000","CZK 5,500","CZK 24,000",186131,2+kk,8/17/2022,Personal,55 m²,Unfurnished,2,Brick,,195.19,877.98,502.29,700.39,241.47,555.71,968.09,689.81,1187.43,292.12,Prague - Strašnice,50.079646,14.5076921,,Very good,,,,Up to 10 years,,Central,Standard,,,,,,,
"CZK 3,000","CZK 2,500","CZK 3,000",519288,3+kk,9/1/2022,Personal,104 m²,Partly,1,Brick,1.0,96.33,542.63,85.99,322.57,25.69,320.91,135.51,230.39,466.15,198.39,"Kodaňská, Prague - Vršovice",50.0706748,14.4587171,,Very good,,,,Up to 10 years,Complete,Gas boiler,Standard,,,,1.0,,,
"CZK 13,800","CZK 2,297","CZK 13,800",448060,Studio,8/21/2022,Personal,31 m²,Partly,4,Brick,1.0,777.75,1515.39,1436.1,2118.41,297.18,1411.22,1521.23,1349.24,501.91,402.89,"Kadečkové, Prague - Letňany",50.1425035,14.5253098,A,New-build,1.0,,,Up to 10 years,,,Standard,,1.0,,1.0,1.0,,
"CZK 28,000","CZK 4,826","CZK 56,000",730307,3+kk,10/1/2022,,91 m²,Partly,5,Brick,1.0,146.4,1732.33,705.79,1697.51,857.78,1365.7,1665.15,1342.58,942.96,164.01,Prague - Stodůlky,50.0587,14.32951,G,Very good,1.0,1.0,,,,,,1.0,,,1.0,1.0,,
"CZK 12,000","CZK 3,500","CZK 14,998",462357,Studio,9/1/2022,Personal,30 m²,Fully furnished,1,Brick,1.0,284.43,507.29,365.12,812.22,599.34,727.47,422.24,502.02,543.1,195.13,"Padovská, Prague - Horní Měcholupy",50.0426908,14.550883,,,,,,,,,,1.0,,,1.0,,,
"CZK 17,500","CZK 4,500","CZK 22,000",177188,2+kk,10/1/2022,Personal,50 m²,Fully furnished,4,Brick,1.0,129.15,496.6,548.8,535.24,652.16,641.56,642.27,943.64,1359.31,423.04,Prague - Stodůlky,50.0619404,14.3107778,,,1.0,1.0,,Up to 10 years,,Electric boiler,,,1.0,,,,,
"CZK 8,000","CZK 2,500","CZK 10,000",730602,Small studio,8/20/2022,,20 m²,Partly,2,Brick,1.0,21.66,563.57,388.46,96.14,90.12,213.81,275.66,777.19,740.71,286.45,Prague - Smíchov,50.07176,14.4021,G,Good,,,,Over 50 years,,Electric boiler,,,,,,,,
"CZK 14,900","CZK 3,300","CZK 30,000",570282,Studio,10/1/2022,Personal,33 m²,Fully furnished,2,Brick,1.0,217.82,1579.87,778.68,898.42,525.92,766.94,621.01,720.34,2166.54,559.12,"Štverákova, Prague - Horní Počernice",50.1118599,14.6268181,B,,1.0,,,,,,,,1.0,,,,,
"CZK 24,500","CZK 3,900","CZK 28,400",647743,2+kk,8/23/2022,Personal,52 m²,Fully furnished,6,Brick,1.0,321.74,272.42,32.18,227.85,42.93,69.06,244.65,812.35,163.33,572.38,"Opletalova, Prague - Nové Město",50.0814214,14.4299039,D,Very good,,1.0,,,Complete,Central,Luxurious,,,,,1.0,,
"CZK 10,000","CZK 3,000","CZK 13,000",164266,Studio,8/31/2022,Personal,33 m²,Unfurnished,2,Brick,,306.66,1179.67,410.22,1895.33,122.95,1226.13,779.0,1363.02,1258.88,88.64,"Jordánská, Prague - Kyje",50.1100749251,14.560223236,A,Very good,1.0,1.0,,Up to 10 years,,,,1.0,1.0,,1.0,,,
"CZK 14,900","CZK 4,800","CZK 39,300",305093,2+kk,10/3/2022,Personal,48 m²,Fully furnished,2,Brick,,96.06,765.97,227.0,244.45,116.36,398.12,490.03,484.99,430.44,337.94,"Jeseniova, Prague - Žižkov",50.0878963,14.4653059,,,,,,,,,,,,,,,,
"CZK 37,500","CZK 12,500",,718920,2+kk,9/8/2022,,60 m²,Fully furnished,3,,1.0,241.61,542.2,98.71,270.79,176.01,313.55,455.64,821.55,633.96,593.3,"Mečislavova, Prague - Nusle",50.0633237,14.4440058,,,1.0,,,,,,,,,,,1.0,,
"CZK 29,500","CZK 6,000","CZK 29,500",730596,3+1,8/23/2022,,69 m²,Unfurnished,6,Brick,1.0,251.15,665.44,128.98,173.17,28.33,148.87,349.95,431.04,163.8,540.76,Prague - Holešovice,50.10039,14.43109,G,Very good,1.0,,1.0,,,,,,,,1.0,,,
"CZK 18,000","CZK 4,124","CZK 18,000",730266,2+kk,10/1/2022,,54 m²,Partly,5,Brick,1.0,175.3,564.49,102.46,100.04,144.3,390.19,592.06,397.3,382.76,510.05,Prague - Smíchov,50.07141,14.40787,G,Good,,,,,,,Standard,,,,,1.0,,
"CZK 13,000",CZK 0,"CZK 13,000",729911,Studio,9/1/2022,,36 m²,Fully furnished,,Brick,,323.42,1575.2,1109.44,1343.97,1257.51,1799.06,1288.39,1403.21,499.67,448.07,Prague - Hloubětín,50.09394,14.52976,C,Good,,,,,,,,,,,,,,
"CZK 20,000","CZK 2,500","CZK 22,000",577284,2+kk,10/23/2022,Cooperative,62 m²,Partly,1,Low-energy,1.0,33.11,987.61,363.88,969.16,628.75,914.45,908.02,958.36,839.36,322.99,"Saarinenova, Prague - Hloubětín",50.1067841,14.5284169,,New-build,,,,Up to 10 years,,Distance,Luxurious,,1.0,,,1.0,,
"CZK 31,500","CZK 10,500",,724600,2+kk,9/5/2022,,56 m²,Fully furnished,4,,,91.98,204.34,98.75,50.9,42.55,154.76,196.57,433.55,409.29,205.78,"náměstí Bratří Synků, Prague - Nusle",50.0640124,14.439955,,,,,,,,,,,,,,,,
"CZK 26,925","CZK 8,975",,730588,Studio,9/23/2022,,30 m²,Fully furnished,2,,1.0,210.86,390.29,319.5,985.86,301.65,338.01,858.33,290.45,385.77,539.9,"Strakonická, Prague - Smíchov",50.0643299,14.4102127,,,,,,,,,,,,,,,,
"CZK 9,300","CZK 4,500","CZK 15,000",729762,Studio,8/20/2022,,26 m²,Partly,2,Brick,1.0,114.97,208.62,396.31,1615.36,9.96,1381.57,274.93,170.26,414.89,259.12,Prague - Střešovice,50.08912,14.38529,G,Very good,1.0,1.0,,,,,,,,,,,,
"CZK 21,000","CZK 1,500","CZK 21,000",697671,2+kk,8/31/2022,Personal,64 m²,Partly,,Brick,,171.69,1015.59,407.1,797.48,264.17,765.75,520.57,495.17,663.79,270.66,"Pod Lázní, Prague - Nusle",50.0586,14.44228,B,Very good,,1.0,,Up to 10 years,Complete,Gas boiler,Standard,,1.0,,,,,
"CZK 12,000","CZK 3,000","CZK 20,000",275844,1 bedroom,9/1/2022,Personal,35 m²,Partly,1,Brick,,325.63,647.92,361.45,532.99,389.75,462.14,521.63,491.27,1145.53,208.4,"Zachova, Prague - Krč",50.0395754,14.4450065,,Very good,,,,Up to 10 years,Interior,Gas boiler,Standard,,,,,,,
"CZK 14,500",CZK 0,"CZK 14,500",727859,Studio,8/1/2022,Personal,42 m²,Fully furnished,1,Prefab concrete,1.0,406.25,992.01,179.15,816.42,163.67,350.4,524.05,477.87,585.78,346.29,Prague - Strašnice,50.07006,14.49794,G,Very good,,,1.0,,,,,,,,,,,
"CZK 37,500","CZK 12,500",,717602,2+kk,9/1/2022,,56 m²,Fully furnished,5,,1.0,242.69,541.12,99.79,271.87,177.08,314.62,456.71,820.48,635.04,594.38,"Mečislavova, Prague - Nusle",50.0633339,14.4440155,,,,,,,,,,,,,,,,
"CZK 20,000","CZK 3,500","CZK 47,000",730581,Studio,8/20/2022,,30 m²,Fully furnished,3,Brick,,249.44,775.46,296.54,454.56,346.44,471.4,754.24,623.73,388.52,189.67,Prague - Strašnice,50.07918,14.48536,C,New-build,1.0,,,,Complete,Central,Luxurious,,1.0,,,1.0,,
"CZK 18,000","CZK 4,950","CZK 25,000",416776,3+kk,9/1/2022,Personal,65 m²,Partly,6,Prefab concrete,,265.87,1107.74,271.42,1167.73,433.23,230.71,123.43,710.85,1212.58,94.84,"Tererova, Prague - Chodov",50.0240198,14.5211528,,,1.0,,,,Complete,Central,Standard,,,,,,,
"CZK 22,500","CZK 5,000","CZK 45,000",683548,2+kk,10/1/2022,Personal,68 m²,Partly,4,Brick,1.0,231.82,688.19,238.77,396.79,288.67,346.25,666.97,484.38,370.9,167.66,"Janýrova, Prague - Strašnice",50.0792694,14.4866147,D,Very good,1.0,1.0,,,,Distance,,1.0,,,1.0,1.0,,
"CZK 33,825","CZK 11,275",,726076,2 bedroom,9/15/2022,,79 m²,Fully furnished,5,,1.0,270.45,1172.6,186.32,213.17,97.89,229.78,181.65,481.59,415.95,182.56,"Neklanova, Prague - Vyšehrad",50.0667103,14.4200265,,,,,,,,,,,,,,,,
"CZK 27,000","CZK 9,000",,728060,1 bedroom,9/24/2022,,50 m²,Fully furnished,2,,,187.82,338.29,111.0,241.4,39.4,347.76,25.85,486.49,569.58,575.91,"Karmelitská, Prague - Malá Strana",50.08657,14.4033198,,,,,,,,,,,,,,,,
"CZK 12,250","CZK 2,615","CZK 20,000",485661,Studio,9/1/2022,Personal,50 m²,Partly,,Prefab concrete,,227.37,259.16,190.25,329.28,123.0,273.52,789.96,952.36,1293.57,401.17,"Hnězdenská, Prague - Troja",50.1263568,14.4202859,C,Very good,,,,10 to 30 years,Interior,Distance,,,,,,,,
"CZK 48,645","CZK 16,215",,726073,3+1,9/15/2022,,55 m²,Fully furnished,2,,,158.42,248.82,154.82,246.13,112.68,264.3,390.21,408.3,154.53,114.55,"Řásnovka, Prague - Staré Město",50.0918754,14.4250902,,,,,,,,,,,,,,,,
"CZK 37,500","CZK 12,500",,725775,2+kk,9/11/2022,,60 m²,Fully furnished,4,,1.0,239.73,541.75,45.52,270.79,35.61,285.18,465.63,625.46,639.52,581.38,"Mečislavova, Prague - Nusle",50.0633237,14.4440058,,,,,,,,,,,,,,,,
"CZK 31,875","CZK 10,625",,725887,2 bedroom,9/13/2022,,65 m²,Fully furnished,2,,,181.41,298.0,1.34,322.55,4.35,512.55,359.47,791.01,446.67,323.95,"Karlova, Prague - Staré Město",50.0859967,14.4175762,,,,,,,,,,,,,,,,
"CZK 28,800","CZK 5,800","CZK 45,000",566375,2 bedroom,9/1/2022,Personal,65 m²,Fully furnished,1,Brick,1.0,124.79,451.96,157.36,293.51,128.12,183.56,213.19,293.47,135.81,471.93,"Mánesova, Prague - Vinohrady",50.0779063,14.4417343,G,,1.0,,,,,Gas boiler,,,,,,,,
"CZK 34,650","CZK 11,550",,726077,2 bedroom,9/15/2022,,100 m²,Fully furnished,3,,1.0,47.36,89.7,50.91,353.17,50.36,559.15,144.5,503.29,323.37,346.2,"Plaská, Prague - Malá Strana",50.0806597,14.4049697,,,,,,,,,,,,,,,,
"CZK 36,450","CZK 12,150",,726075,3+kk,10/10/2022,,82 m²,Fully furnished,6,,1.0,101.2,551.63,76.94,167.66,45.43,94.55,322.6,504.78,539.56,607.69,"Rumunská, Prague - Vinohrady",50.0739629,14.4309041,,,,,,,,,,,,,,,,
"CZK 46,530","CZK 15,510",,726063,2 bedroom,9/8/2022,,48 m²,Fully furnished,2,,,158.42,248.82,154.82,246.13,112.68,264.3,390.21,408.3,154.53,114.55,"Řásnovka, Prague - Staré Město",50.0918754,14.4250902,,,,,,,,,,,,,,,,
"CZK 29,925","CZK 9,975",,723520,1 bedroom,9/24/2022,,30 m²,Fully furnished,3,,1.0,22.29,481.37,107.82,95.32,6.34,158.39,351.4,425.94,380.79,468.94,"Legerova, Prague - Vinohrady",50.0749602,14.4305105,,,,,,,,,,,,,,,,
"CZK 21,000","CZK 7,000",,728694,2 bedroom,10/4/2022,,53 m²,Fully furnished,9,,1.0,125.93,351.52,458.39,239.89,349.44,469.18,335.68,124.41,1424.09,330.78,"Arabská, Prague - Vokovice",50.0992269,14.3632307,,,,,,,,,,,,,,,,
"CZK 37,500","CZK 12,500",,720700,2+kk,9/12/2022,,60 m²,Fully furnished,2,,1.0,241.61,542.2,98.71,270.79,176.01,313.55,455.64,821.55,633.96,593.3,"Mečislavova, Prague - Nusle",50.0633237,14.4440058,,,,,,,,,,,,,,,,
"CZK 63,750","CZK 21,250",,729471,3+1,10/10/2022,,120 m²,Fully furnished,3,,1.0,73.01,281.28,58.33,478.54,20.37,379.07,102.37,138.49,668.56,481.36,"Francouzská, Prague - Vinohrady",50.0739894,14.440101,,,,,,,,,,,,,,,,
"CZK 63,413","CZK 21,137",,730189,3+kk,10/16/2022,,62 m²,Fully furnished,3,,1.0,2.22,191.43,20.53,48.07,1.19,48.35,128.16,305.9,208.92,259.31,"Dlouhá, Prague - Staré Město",50.0907943,14.427063,,,,,,,,,,,,,,,,
"CZK 43,500","CZK 14,500",,730187,2 bedroom,10/16/2022,,82 m²,Fully furnished,3,,1.0,153.03,376.72,146.99,646.6,45.07,502.75,147.12,62.23,673.09,485.89,"Jana Masaryka, Prague - Vinohrady",50.0723321,14.4399493,,,,,,,,,,,,,,,,
"CZK 18,000","CZK 6,000",,730186,Studio,10/16/2022,,21 m²,Fully furnished,5,,1.0,343.73,639.29,118.56,534.69,89.23,275.1,341.07,136.6,194.25,439.23,"Polská, Prague - Vinohrady",50.0783707,14.4448312,,,,,,,,,,,,,,,,
"CZK 56,250","CZK 18,750",,730578,2+kk,10/19/2022,,47 m²,Fully furnished,3,,1.0,145.3,409.63,254.35,292.12,59.28,309.45,136.5,419.43,177.03,511.6,"Elišky Krásnohorské, Prague - Josefov",50.0906304,14.4198248,,,,,,,,,,,,,,,,
"CZK 14,000","CZK 3,300","CZK 30,000",730577,Studio,8/31/2022,,37 m²,Unfurnished,,Brick,,104.02,730.89,370.9,1062.59,199.68,739.54,425.64,271.77,238.27,354.71,Prague - Smíchov,50.06514,14.39497,C,Good,,,,,,,,,,,,1.0,,
"CZK 8,000","CZK 1,500",CZK 0,666742,Small studio,8/22/2022,Personal,14 m²,Fully furnished,1,Brick,,63.56,2382.3,502.13,2085.54,453.16,1020.53,1623.0,348.67,951.91,676.91,"Bělohorská, Prague - Břevnov",50.07573,14.33054,A,Good,,1.0,,10 to 30 years,,Central,Standard,,,,,,,
"CZK 8,000","CZK 1,500",CZK 0,729860,Small studio,8/22/2022,,14 m²,Fully furnished,3,Brick,,63.56,2382.3,502.13,2085.54,453.16,1020.53,1623.0,348.67,951.91,676.91,Prague - Břevnov,50.07573,14.33054,G,New-build,,,,Up to 10 years,,,Standard,,,1.0,,,,
"CZK 31,050","CZK 10,350",,730431,3+1,9/3/2022,,111 m²,Fully furnished,1,,,208.61,131.46,936.81,2564.81,336.74,613.32,243.84,2102.93,1889.94,338.05,"K Zámku, Prague - Dolní Počernice",50.0890765,14.5799076,,,1.0,,,,,,,,,,,1.0,,
"CZK 33,750","CZK 11,250",,726019,2+kk,8/24/2022,,75 m²,Fully furnished,6,,1.0,163.79,319.88,110.55,226.38,103.86,407.78,227.16,243.22,785.75,360.1,"Na Zbořenci, Prague - Nové Město",50.0769346,14.4169603,,,1.0,,,,,,,,,,,1.0,,
"CZK 42,120","CZK 14,040",,724853,2+kk,9/12/2022,,45 m²,Fully furnished,4,,1.0,336.41,302.29,48.66,211.39,57.6,35.65,274.52,787.09,193.2,587.05,"Opletalova, Prague - Nové Město",50.0812219,14.4297716,,,,,,,,,,,,,,,,
"CZK 41,625","CZK 13,875",,720848,4+kk,10/2/2022,,112 m²,Fully furnished,4,,1.0,168.35,737.87,30.76,217.13,7.9,216.51,106.1,336.15,114.49,565.37,"Ostrovní, Prague - Nové Město",50.0806286,14.4175374,,,1.0,,,,,,,,,,,1.0,,
"CZK 56,475","CZK 18,825",,723104,3+kk,8/24/2022,,67 m²,Fully furnished,2,,1.0,110.1,273.82,156.66,129.22,76.56,142.67,300.13,496.4,282.11,367.31,"Dlážděná, Prague - Nové Město",50.0865843,14.4323212,,,1.0,,,,,,,,,,,1.0,,
"CZK 14,800","CZK 2,300","CZK 28,000",730553,1 bedroom,10/1/2022,,43 m²,Partly,3,Brick,,401.18,749.85,140.97,350.8,185.5,213.93,310.4,836.12,264.45,209.65,Prague - Karlín,50.09247,14.45611,G,Very good,1.0,1.0,,,,,,,,,,,,
"CZK 27,000","CZK 5,000","CZK 28,000",730552,2 bedroom,8/19/2022,,93 m²,Fully furnished,1,Brick,1.0,117.81,529.81,10.96,245.69,114.6,371.46,233.79,188.42,694.67,259.6,Prague - Vinohrady,50.07558,14.45754,G,Very good,,,,,,,,,,,1.0,,,
"CZK 28,000",CZK 700,"CZK 28,000",730414,2 bedroom,8/18/2022,Personal,86 m²,Fully furnished,3,Brick,1.0,228.51,497.33,58.47,391.83,96.19,311.74,217.56,124.03,354.02,362.52,Prague - Vinohrady,50.07892,14.44711,G,Very good,,,,,Complete,,,,,,,,,
"CZK 12,868","CZK 2,132","CZK 15,000",585948,2+kk,10/1/2022,Personal,36 m²,Partly,12,Prefab concrete,1.0,324.6,243.87,139.2,314.0,51.4,222.46,745.96,951.05,1137.62,350.11,"Olštýnská, Prague - Troja",50.127672,14.420039,C,Good,,,,30 - 50 years,Complete,Central,Standard,,,,,,,
"CZK 16,700","CZK 7,300","CZK 30,000",729190,2+kk,8/22/2022,,53 m²,Partly,4,Brick,1.0,121.92,892.84,110.89,81.84,92.41,239.77,248.85,617.42,394.99,727.14,Prague - Holešovice,50.10062,14.43414,D,Very good,,1.0,,,Complete,Central,Standard,,,,1.0,,,
"CZK 32,000","CZK 6,000","CZK 64,000",729867,3+kk,9/1/2022,,86 m²,Partly,3,Brick,1.0,619.74,957.8,1278.08,1960.39,141.51,1073.98,1363.22,1191.22,343.89,293.25,Prague - Letňany,50.14159,14.52344,B,New-build,1.0,,,,,,,1.0,,,,,,
"CZK 14,900","CZK 2,100","CZK 29,000",730544,Studio,10/1/2022,,40 m²,Fully furnished,1,Low-energy,,238.89,1093.41,192.63,756.92,68.18,369.6,298.96,478.79,220.68,369.05,Prague - Břevnov,50.08357,14.3772,A,New-build,,,,,,,,,,,,1.0,,
"CZK 15,000","CZK 2,700","CZK 22,000",574643,2 bedroom,9/1/2022,Personal,54 m²,Partly,3,Brick,,78.31,270.98,111.86,177.77,220.6,148.23,200.59,169.97,686.53,257.79,"Na Petřinách, Prague - Břevnov",50.088277,14.346283,D,Very good,,,1.0,,Interior,Distance,,,,,,,,
"CZK 13,000","CZK 4,500","CZK 26,000",729825,2+kk,9/15/2022,,46 m²,Partly,1,Prefab concrete,,174.03,594.0,541.65,1059.35,209.58,827.67,730.29,210.17,539.55,220.53,Prague - Záběhlice,50.0534,14.50354,C,Good,,,1.0,,,,,,,,,,,
"CZK 21,000","CZK 6,500","CZK 42,000",607367,2+kk,9/1/2022,Personal,55 m²,Fully furnished,4,Brick,1.0,198.58,426.93,115.73,304.68,64.1,257.35,115.49,281.56,645.2,300.83,"Mlynářská, Prague - Nové Město",50.0920451,14.4340658,E,Very good,,,,Up to 10 years,Interior,Gas boiler,Standard,,,,,,,
"CZK 37,350","CZK 12,450",,730539,2+kk,9/19/2022,,68 m²,Fully furnished,2,,1.0,170.48,421.6,257.32,426.75,52.86,339.7,54.65,63.39,473.33,754.41,"Balbínova, Prague - Vinohrady",50.0795659,14.4357789,,,,,,,,,,,,,,,,
"CZK 18,000","CZK 4,500","CZK 36,000",582936,3+kk,9/1/2022,Personal,56 m²,Unfurnished,1,Brick,,231.73,136.03,189.78,194.29,137.29,225.81,43.12,382.88,71.25,292.35,"Saratovská, Prague - Strašnice",50.075045,14.492493,G,Very good,,,,,Complete,Central,,,,,1.0,,,
"CZK 10,000","CZK 2,000","CZK 10,000",730532,Small studio,9/1/2022,,21 m²,Unfurnished,3,Brick,,158.8,977.15,154.16,694.26,24.31,3.94,370.55,455.77,411.28,343.95,Prague - Strašnice,50.0688,14.49417,G,Very good,,1.0,,,,,,,,,1.0,,,
"CZK 21,200","CZK 4,500","CZK 21,200",487779,2+kk,9/1/2022,Personal,53 m²,Fully furnished,4,Brick,1.0,229.21,413.18,460.16,1578.34,194.59,1206.62,479.48,374.81,377.87,266.78,"Za Hládkovem, Prague - Střešovice",50.0892763,14.3838556,C,Very good,1.0,,,Up to 10 years,Complete,Central,Standard,,,,,,,
"CZK 30,000","CZK 4,000","CZK 50,000",730455,4+kk,9/1/2022,Personal,75 m²,Partly,2,Brick,1.0,247.64,1134.25,797.93,954.31,604.14,1009.82,681.55,1051.65,671.69,96.45,Prague - Řeporyje,50.03934,14.32273,G,Very good,,1.0,,Up to 10 years,,Distance,Standard,,,,1.0,1.0,,
"CZK 12,000",CZK 750,"CZK 12,000",730527,1 bedroom,9/1/2022,,45 m²,Partly,4,Brick,,153.35,303.75,10.45,286.53,24.33,238.01,302.67,247.29,712.85,737.48,Prague - Vinohrady,50.07217,14.43243,G,Good,,,,,,,,,,,,,,
"CZK 25,900","CZK 2,700","CZK 47,800",558740,3+kk,10/1/2022,Personal,94 m²,Partly,1,Brick,,93.85,153.95,23.81,257.54,16.23,257.06,307.72,502.7,285.55,255.73,"Oblouková, Prague - Vršovice",50.0670925,14.4558324,G,Good,1.0,,,Over 50 years,Interior,Gas boiler,Luxurious,,,,1.0,,,
"CZK 39,900","CZK 7,900","CZK 60,000",677432,2+kk,9/29/2022,Personal,96 m²,Fully furnished,3,Low-energy,1.0,166.67,762.32,499.85,585.69,59.37,484.49,448.28,585.57,856.34,214.37,"Kobrova, Prague - Smíchov",50.07381,14.39677,A,New-build,1.0,1.0,,,,,,1.0,,,1.0,,,
"CZK 16,990",CZK 1,CZK 1,598795,2 bedroom,9/1/2022,Personal,50 m²,Fully furnished,1,Brick,1.0,84.28,452.15,71.02,142.91,110.43,317.24,25.0,395.09,493.4,511.97,"Černá, Prague - Nové Město",50.078786,14.418558,C,Good,,,,,,Central,Standard,,,1.0,,,,
"CZK 25,000","CZK 8,000","CZK 50,000",488207,3+kk,10/1/2022,Personal,68 m²,Partly,,Brick,,136.58,210.07,741.46,5420.28,333.42,723.25,620.46,489.5,285.8,101.34,"Velkoosecká, Prague - Vinoř",50.1438182,14.576116,D,Very good,,1.0,,10 to 30 years,,Gas boiler,Standard,1.0,,,,1.0,,
"CZK 22,000","CZK 3,900","CZK 20,000",711232,2+kk,10/1/2022,Personal,52 m²,Fully furnished,6,Brick,1.0,345.18,237.79,213.38,397.33,79.2,429.95,311.53,50.08,190.8,341.51,"Šrobárova, Prague - Vinohrady",50.07588,14.46436,A,Very good,,,,,,Central,,,,,,1.0,,
"CZK 19,000","CZK 3,000","CZK 30,000",606765,2+kk,10/1/2022,Personal,44 m²,Fully furnished,1,Brick,,153.67,252.38,89.29,257.34,87.31,213.75,237.43,556.95,182.55,553.21,"Haškova, Prague - Holešovice",50.10085,14.427857,C,New-build,,1.0,,Up to 10 years,Complete,Electric boiler,Luxurious,,1.0,,1.0,1.0,,
"CZK 11,200","CZK 5,767","CZK 18,000",344341,1 bedroom,9/10/2022,Personal,44 m²,Fully furnished,2,Brick,,199.41,1049.72,59.09,1433.99,85.41,339.91,410.66,208.61,520.05,470.92,"Františka Kadlece, Prague - Libeň",50.1161741,14.4704328,,Very good,,,,Over 50 years,Complete,Gas boiler,Standard,,,,1.0,,,
"CZK 8,000","CZK 3,500","CZK 11,343",544787,Small studio,9/1/2022,Personal,19 m²,Fully furnished,,Brick,,96.72,989.4,234.88,512.51,13.45,358.12,365.95,354.86,328.29,225.86,"Rašínovo nábřeží, Prague - Nové Město",50.0688474,14.415003,,Very good,,,,,,Central,Standard,,,,,,,
"CZK 32,000","CZK 4,604","CZK 64,000",729774,3+kk,8/13/2022,,91 m²,Unfurnished,3,Brick,1.0,326.52,558.95,229.44,287.34,32.38,621.26,339.05,1276.69,241.73,262.25,Prague - Bubeneč,50.10305,14.41876,A,Very good,,,,,,,,,,,1.0,,,
"CZK 24,000","CZK 2,000","CZK 24,000",598744,3+kk,10/2/2022,Personal,85 m²,Fully furnished,4,Brick,1.0,115.53,352.7,188.46,234.83,19.05,250.91,142.2,132.99,357.83,638.91,"Italská, Prague - Vinohrady",50.078966,14.437273,C,Very good,1.0,,,,,Gas boiler,Standard,,,,,,,
"CZK 2,000",CZK 0,CZK 0,369211,Other,8/19/2022,Personal,9 m²,Unfurnished,1,Prefab concrete,,204.31,206.71,126.28,1523.05,151.11,979.08,947.47,574.14,754.43,155.95,"Svitákova, Prague - Stodůlky",50.0472687,14.3039981,,,,1.0,,,,,,1.0,,,,,,
"CZK 11,000","CZK 3,000","CZK 14,000",730511,Studio,8/19/2022,,33 m²,Partly,-1,Brick,,247.83,1398.22,277.02,783.62,330.46,351.91,642.84,510.49,625.7,380.4,Prague - Bubeneč,50.11076,14.39564,G,Very good,,,,,,,,,,,,,,
"CZK 28,425","CZK 9,475",,729524,Studio,8/24/2022,,30 m²,Fully furnished,3,,1.0,210.86,390.29,319.5,985.86,301.65,338.01,858.33,290.45,385.77,539.9,"Strakonická, Prague - Smíchov",50.0643299,14.4102127,,,,,,,,,,,,,,,,
"CZK 12,000","CZK 2,500","CZK 14,000",539826,Studio,8/25/2022,Personal,30 m²,Fully furnished,4,Prefab concrete,1.0,106.69,1004.83,438.32,1080.19,349.56,1069.73,125.65,214.07,1008.93,182.44,"Petržílova, Prague - Modřany",49.9994485,14.4222431,,Very good,,,,10 to 30 years,Complete,Distance,Standard,,,,,,,
"CZK 21,019","CZK 7,006",,729938,Studio,10/1/2022,,32 m²,Fully furnished,1,,,447.58,805.32,396.64,450.11,197.32,945.56,256.47,627.41,458.07,336.59,"Nad Kolčavkou A, Prague - Libeň",50.1080609,14.4828384,,,,,,,,,,,,,,,,
"CZK 26,000","CZK 4,581","CZK 52,000",730507,2+kk,8/19/2022,,51 m²,Partly,3,Brick,1.0,5.5,119.53,144.99,81.0,97.26,280.1,373.91,435.92,558.18,711.41,Prague - Vinohrady,50.07659,14.43543,E,Very good,,,1.0,,,,,,,,1.0,,,
"CZK 14,500","CZK 4,500","CZK 20,000",459179,2+kk,8/15/2022,Personal,41 m²,Partly,8,Other,1.0,202.98,776.1,334.11,511.79,277.82,386.78,173.19,350.18,839.96,141.01,"Litoměřická, Prague - Prosek",50.1188062,14.4937472,C,Very good,,,,10 to 30 years,,Distance,Standard,,,,,,,
"CZK 23,836","CZK 4,100","CZK 47,672",719023,Studio,8/1/2022,Personal,32 m²,Fully furnished,4,Brick,1.0,123.62,331.12,156.76,367.07,102.48,248.42,301.1,639.82,219.3,523.15,"Washingtonova, Prague - Nové Město",50.08065,14.431,G,Very good,,,,Over 50 years,Complete,Electric boiler,Standard,,,,,,,
"CZK 12,500","CZK 4,000","CZK 15,000",572946,2 bedroom,8/19/2022,Personal,50 m²,Partly,2,Brick,,122.27,182.11,97.14,402.41,60.06,61.25,493.68,441.33,743.86,465.99,"Stanislava Kostky Neumanna, Prague - Libeň",50.1199188,14.4584538,,,,,,,,,,,,,,,,
"CZK 18,750","CZK 6,250",,729015,3+1,9/18/2022,,90 m²,Fully furnished,2,,1.0,82.8,397.93,96.94,404.98,135.48,353.78,131.46,217.55,654.74,661.34,"Blanická, Prague - Vinohrady",50.0746503,14.439294,,,,,,,,,,,,,,,,
"CZK 19,575","CZK 6,525",,730496,2 bedroom,9/12/2022,,70 m²,Fully furnished,6,,1.0,73.01,281.28,58.33,478.54,20.37,379.07,102.37,138.49,668.56,481.36,"Francouzská, Prague - Vinohrady",50.0739894,14.440101,,,,,,,,,,,,,,,,
"CZK 33,000","CZK 11,000",,719175,2 bedroom,8/24/2022,,50 m²,Fully furnished,-1,,1.0,210.86,382.06,250.08,989.18,169.53,744.75,811.66,1049.67,387.48,543.22,"Strakonická, Prague - Smíchov",50.0643299,14.4102127,,,,,,,,,,,,,,,,
"CZK 17,000","CZK 4,000","CZK 17,000",728678,2+kk,8/4/2022,,65 m²,Unfurnished,2,Brick,,287.55,835.04,124.2,980.53,396.62,297.16,462.97,263.08,511.43,65.12,Prague - Letňany,50.14089,14.50924,B,Very good,,,,,,,,,,,,,,
"CZK 22,500","CZK 4,280","CZK 45,000",728700,3+kk,8/5/2022,Personal,68 m²,Partly,4,Prefab concrete,1.0,227.19,694.52,292.56,947.84,372.07,273.0,572.29,459.35,1024.68,123.64,Prague - Chodov,50.02741,14.5197,G,Very good,,,1.0,,,Central,,,,,1.0,,,
"CZK 25,000","CZK 4,900","CZK 25,000",197587,2 bedroom,9/1/2022,Personal,61 m²,Unfurnished,3,Brick,1.0,280.18,564.46,136.33,351.39,55.11,370.66,313.06,353.83,691.04,109.51,"Baranova, Prague - Žižkov",50.0797815,14.4578475,,,,,,,,,,,,,,,,
"CZK 57,000","CZK 19,000",,724522,3+1,10/2/2022,,130 m²,Fully furnished,3,,,293.94,358.82,65.34,231.82,29.61,399.45,202.79,623.36,368.2,458.02,"Michalská, Prague - Staré Město",50.0859057,14.4200254,,,,,,,,,,1.0,,,,,,
"CZK 25,808","CZK 8,602",,725069,2 bedroom,9/23/2022,,54 m²,Fully furnished,5,,,221.57,827.75,176.34,604.4,98.94,602.74,417.35,332.18,571.22,245.6,"Bulharská, Prague - Vršovice",50.0720218,14.4618189,,,,,,,,,,,,,,,,
"CZK 45,000","CZK 15,000",,723086,2+kk,8/24/2022,,70 m²,Fully furnished,4,,1.0,285.3,547.87,69.97,206.93,9.84,222.16,245.36,617.77,369.53,523.86,"Ve Smečkách, Prague - Nové Město",50.0795975,14.4273504,,,,,,,,,,,,,,,,
"CZK 15,500","CZK 2,800","CZK 18,300",730481,Studio,8/26/2022,,35 m²,Fully furnished,2,Low-energy,1.0,218.2,368.06,1015.29,927.42,502.93,464.65,756.19,1241.26,506.8,171.4,Prague - Letňany,50.13773,14.51998,B,New-build,,,,,,,,,1.0,,,,,
"CZK 13,000","CZK 3,000","CZK 16,000",427148,Studio,9/5/2022,Personal,30 m²,Fully furnished,4,Brick,1.0,334.17,367.16,72.02,316.07,119.71,569.49,203.31,445.94,904.96,247.86,Prague - Vinohrady,50.0791658,14.4544714,B,,,,,,,,,,,,,,,
"CZK 15,000","CZK 4,500","CZK 15,000",573173,2+kk,9/16/2019,Cooperative,48 m²,Fully furnished,8,Prefab concrete,,202.83,830.23,30.37,642.13,256.73,364.02,470.51,110.03,825.61,111.39,"Šiškova, Prague - Kobylisy",50.1290279,14.4611701,,,1.0,,,,Interior,Central,Standard,,,,,,,
"CZK 16,000","CZK 4,500","CZK 20,500",729781,2 bedroom,9/30/2022,,58 m²,Partly,2,Brick,,110.54,815.17,478.87,513.94,156.65,496.26,497.49,582.69,1174.39,298.25,Prague - Břevnov,50.08736,14.3389,G,Very good,,1.0,,,,,,,,,,,,
"CZK 12,000","CZK 3,500","CZK 15,500",730478,2+kk,9/1/2022,,46 m²,Partly,3,Prefab concrete,,225.43,574.02,73.71,488.02,372.56,473.94,197.36,301.9,1112.72,245.33,Prague - Stodůlky,50.04732,14.34568,G,Very good,,,,,,,,,,,,,,
"CZK 12,000","CZK 1,500","CZK 24,000",730420,2+kk,8/18/2022,,40 m²,Partly,2,Brick,,115.96,702.32,13.42,327.37,67.49,406.91,363.64,153.16,192.59,178.95,Prague - Nusle,50.0608,14.42675,G,Very good,,,,,,,,,,,,,,
"CZK 39,000","CZK 7,500","CZK 78,000",730479,3+1,8/19/2022,,120 m²,Partly,6,Brick,1.0,257.07,413.9,172.69,369.66,65.95,126.45,206.73,296.92,511.52,310.58,Prague - Nové Město,50.07662,14.42275,G,Very good,,,,,,,,,,,,1.0,,
"CZK 44,000","CZK 6,000",CZK 2,358804,4+kk,9/1/2022,Personal,130 m²,Fully furnished,2,Brick,,332.93,544.63,139.18,267.34,39.05,305.02,264.26,587.07,297.42,107.97,"Betlémské náměstí, Prague - Staré Město",50.0840811,14.4176178,,,1.0,,,,Complete,,,1.0,,,,,,
"CZK 37,125","CZK 12,375",,726070,2 bedroom,9/30/2022,,90 m²,Fully furnished,2,,1.0,73.01,281.28,58.33,478.54,20.37,379.07,102.37,138.49,668.56,481.36,"Francouzská, Prague - Vinohrady",50.0739894,14.440101,,,,,,,,,,,,,,,,
"CZK 47,025","CZK 15,675",,726069,3+1,9/18/2022,,90 m²,Fully furnished,2,,1.0,82.8,397.93,96.94,404.98,135.48,353.78,131.46,217.55,654.74,661.34,"Blanická, Prague - Vinohrady",50.0746503,14.439294,,,,,,,,,,,,,,,,
"CZK 16,000","CZK 4,000","CZK 30,000",633016,2+kk,11/1/2022,Cooperative,55 m²,Partly,2,Low-energy,1.0,214.85,111.86,183.29,1264.57,201.57,1099.51,477.0,709.91,746.45,109.54,"Hugo Haase, Prague - Hlubočepy",50.029126,14.363101,B,New-build,1.0,1.0,,,,Central,Luxurious,,1.0,,,,,
"CZK 25,380","CZK 8,460",,723857,2 bedroom,9/5/2022,,35 m²,Fully furnished,5,,,220.05,826.22,174.81,602.88,97.41,601.22,415.82,330.65,569.7,247.12,"Bulharská, Prague - Vršovice",50.0719625,14.461813,,,,,,,,,,,,,,,,
"CZK 34,898","CZK 11,632",,726071,2 bedroom,9/10/2022,,90 m²,Fully furnished,4,,1.0,82.8,397.93,96.94,404.98,135.48,353.78,131.46,217.55,654.74,661.34,"Blanická, Prague - Vinohrady",50.0746503,14.439294,,,,,,,,,,,,,,,,
"CZK 25,500","CZK 8,500",,727015,1 bedroom,9/21/2022,,35 m²,Fully furnished,3,,1.0,97.26,259.91,105.72,291.36,79.07,194.41,340.41,525.24,106.28,298.87,"Koněvova, Prague - Žižkov",50.088447,14.458108,,,,,,,,,,1.0,,,,,,
"CZK 12,000","CZK 5,000","CZK 25,000",730464,2+kk,8/19/2022,,34 m²,Partly,1,Brick,,246.8,554.23,143.24,855.98,293.39,547.38,182.42,375.49,1055.46,494.33,Prague - Košíře,50.07001,14.38251,E,Very good,,,,,,,,,,,,1.0,,
"CZK 23,760","CZK 7,920",,728259,2 bedroom,10/1/2022,,60 m²,Fully furnished,1,,,250.51,417.46,211.46,417.21,207.64,462.73,364.17,360.99,525.54,550.17,"Lublaňská, Prague - Vinohrady",50.0710848,14.4324122,,,,,,,,,,,,,,,,
"CZK 34,500","CZK 11,500",,724514,2 bedroom,9/3/2022,,76 m²,Fully furnished,5,,1.0,173.24,237.07,170.98,194.52,84.53,150.25,482.36,158.74,537.92,88.5,"Slezská, Prague - Vinohrady",50.076837,14.4602531,,,,,,,,,,,,,,,,
"CZK 33,750","CZK 11,250",,727478,1 bedroom,9/25/2022,,43 m²,Fully furnished,4,,1.0,276.64,299.92,82.85,597.17,63.3,447.09,45.77,62.13,794.8,565.99,"Americká, Prague - Vinohrady",50.0718291,14.4385892,,,,,,,,,,,,,,,,
"CZK 60,000","CZK 20,000",,729182,2+kk,10/15/2022,,67 m²,Fully furnished,2,,,81.58,261.82,179.91,165.34,96.05,235.81,210.32,24.34,339.34,418.58,"Zlatnická, Prague - Nové Město",50.0905181,14.4322974,,,,,,,,,,,,,,,,
"CZK 37,620","CZK 12,540",,728258,2 bedroom,10/1/2022,,54 m²,Fully furnished,7,,1.0,379.66,564.73,5.21,191.31,38.84,242.1,65.9,705.75,343.76,422.75,"Michalská, Prague - Staré Město",50.0846396,14.4202484,,,,,,,,,,,,,,,,
"CZK 29,925","CZK 9,975",,728696,2+kk,10/4/2022,,45 m²,Fully furnished,5,,,120.02,538.45,85.43,335.62,47.85,333.62,182.79,195.16,543.36,341.26,"Lípová, Prague - Nové Město",50.0747395,14.424046,,,,,,,,,,,,,,,,
"CZK 17,500","CZK 6,388","CZK 40,000",730433,2 bedroom,8/18/2022,,53 m²,Partly,3,Brick,,126.61,867.92,116.61,599.34,153.68,205.03,423.19,810.05,332.86,236.35,Prague - Strašnice,50.07076,14.48734,C,Good,,,,,,,,,,,1.0,,,
"CZK 18,000","CZK 2,000","CZK 36,000",730427,2 bedroom,8/18/2022,,50 m²,Partly,2,Brick,,45.71,924.4,146.26,646.66,8.7,711.02,847.67,166.72,774.55,203.9,Prague - Smíchov,50.06215,14.38988,G,Very good,,,,,Complete,Electric boiler,,,,,1.0,,,
"CZK 15,200","CZK 2,000","CZK 30,400",730425,2+kk,8/18/2022,,31 m²,Partly,2,Brick,,45.71,924.4,146.26,646.66,8.7,711.02,847.67,166.72,774.55,203.9,Prague - Smíchov,50.06215,14.38988,G,Very good,,,,,Complete,Electric boiler,Standard,,,,,,,
"CZK 15,200","CZK 4,000","CZK 20,000",730424,2+kk,8/18/2022,,42 m²,Partly,1,Brick,,227.15,66.88,146.28,271.17,170.26,203.31,427.6,447.6,1166.67,323.13,Prague - Vokovice,50.09663,14.36195,G,Very good,,,,,,,,,,,1.0,,,
"CZK 12,500","CZK 2,000","CZK 25,000",730422,Studio,8/18/2022,,23 m²,Partly,3,Brick,,45.71,924.4,146.26,646.66,8.7,711.02,847.67,166.72,774.55,203.9,Prague - Smíchov,50.06215,14.38988,G,Very good,,,,,Complete,Electric boiler,Standard,,,,,,,
"CZK 17,990","CZK 5,013","CZK 23,003",730413,3+1,8/23/2022,Personal,67 m²,Partly,8,Prefab concrete,1.0,142.33,1028.73,157.64,1021.39,379.02,436.55,471.91,701.13,557.49,431.47,"Olbramovická, Prague - Kamýk",50.01687861111,14.43642138888,G,Very good,,,1.0,,,,,,,,1.0,,"CZK 23,003",
"CZK 14,000","CZK 3,920","CZK 28,000",730406,2+kk,8/18/2022,,43 m²,Partly,2,Prefab concrete,1.0,287.95,1241.38,478.44,1198.51,674.52,400.63,173.81,607.72,690.23,341.2,Prague - Kamýk,50.01581,14.43237,G,Very good,1.0,,,,,,,,,,1.0,,,
"CZK 16,800","CZK 3,000","CZK 25,000",672157,Studio,10/1/2022,Personal,39 m²,Fully furnished,5,Brick,1.0,214.78,770.16,112.91,542.34,94.12,575.84,358.02,504.27,554.92,114.22,"Eliášova, Prague - Bubeneč",50.10222,14.40304,G,Very good,,,,,,,,,,,1.0,,,
"CZK 20,000",CZK 0,"CZK 40,000",728043,2+kk,8/6/2022,Personal,50 m²,Unfurnished,2,Brick,,472.29,943.14,661.04,1348.71,676.16,989.59,1050.16,1126.49,1467.83,658.23,Prague - Kyje,50.11055,14.56754,A,New-build,1.0,1.0,,,,Central,Standard,,1.0,,,,,
"CZK 13,000","CZK 1,800","CZK 18,000",606075,Studio,10/15/2022,Cooperative,33 m²,Partly,,Brick,1.0,222.73,785.34,68.49,304.09,22.82,400.27,445.1,199.39,498.47,434.16,"Podskalská, Prague - Nové Město",50.071165,14.415031,,Very good,,1.0,,,,,,,,,,,,
"CZK 24,500","CZK 4,000","CZK 36,750",729741,3+1,8/13/2022,,83 m²,Fully furnished,3,Other,1.0,147.89,285.42,46.75,257.02,48.45,141.75,104.95,327.3,312.31,377.4,Prague - Žižkov,50.08542,14.45316,G,Very good,,1.0,,,,,,1.0,,,,,,
"CZK 19,000","CZK 4,000","CZK 46,000",249879,2+kk,10/1/2022,Personal,66 m²,Fully furnished,2,Brick,1.0,372.23,943.38,625.63,1057.02,355.45,903.11,637.89,793.73,557.5,136.86,"Švejcarovo náměstí, Prague - Stodůlky",50.0361776,14.3299157,,Very good,,1.0,1.0,,,Electric boiler,,,,,,,,
"CZK 12,500","CZK 4,200","CZK 20,000",670237,1 bedroom,9/1/2022,Personal,39 m²,Fully furnished,3,Brick,1.0,244.54,899.67,113.74,654.9,134.13,190.73,393.85,541.74,434.58,364.77,"Ke Strašnické, Prague - Strašnice",50.069633,14.494844,G,Very good,,1.0,,,Interior,Central,,,,,1.0,,,
"CZK 30,000","CZK 5,000","CZK 36,000",413976,4+kk,10/1/2022,Personal,111 m²,Partly,2,Brick,1.0,239.09,979.8,527.41,944.98,440.24,499.97,912.62,449.03,393.93,401.17,"Melodická, Prague - Stodůlky",50.0515016,14.3302032,C,,1.0,,,,,Central,,1.0,1.0,,,1.0,,
"CZK 13,000","CZK 2,000","CZK 26,000",566063,Studio,8/19/2022,Personal,35 m²,Fully furnished,2,Prefab concrete,1.0,109.69,700.32,595.59,675.23,618.74,365.46,269.82,158.56,888.13,70.43,"Laudova, Prague - Řepy",50.0683118,14.3123636,D,Very good,,,,30 - 50 years,Interior,Distance,Standard,,,,,,,
"CZK 23,000","CZK 2,000","CZK 44,000",510077,3+1,9/1/2022,Personal,74 m²,Partly,3,Brick,,88.58,653.66,405.19,613.73,454.33,427.44,306.07,248.82,1240.24,316.76,"Novodvorská, Prague - Braník",50.027717,14.4287618,,,,,,,Complete,Central,Standard,,,,1.0,,,
"CZK 10,000",CZK 490,"CZK 16,000",524713,Small studio,9/1/2022,Personal,20 m²,Partly,,Brick,,240.99,682.97,337.4,622.75,264.31,474.4,1014.21,621.31,729.24,115.33,Prague - Dejvice,50.0981882,14.3707895,G,,,,,,Complete,Other,Standard,,,,1.0,,,
"CZK 10,500","CZK 2,000","CZK 13,500",597400,Small studio,9/1/2022,Personal,22 m²,Unfurnished,1,Brick,,95.04,732.43,109.54,315.94,102.2,56.39,560.57,736.83,1049.15,353.35,"Trojská, Prague - Kobylisy",50.121955,14.4518,G,Good,,,,Up to 10 years,Complete,Other,Standard,,,,,,,
"CZK 16,500",CZK 0,"CZK 30,000",730381,1 bedroom,10/1/2022,,46 m²,Fully furnished,5,Brick,,266.48,680.57,341.5,362.64,201.55,370.26,247.51,544.13,680.05,142.75,Prague - Michle,50.04544,14.45215,G,Very good,,,,,,,,,,,1.0,,,
"CZK 25,500","CZK 5,000","CZK 25,500",673369,3+kk,9/1/2022,Personal,77 m²,Unfurnished,2,Brick,1.0,0.0,1088.74,986.61,2536.53,657.22,1183.26,1009.64,1934.96,676.02,856.46,"Stochovská, Prague - Ruzyně",50.0841721,14.3121812,B,New-build,1.0,1.0,,Up to 10 years,,Central,Standard,1.0,1.0,,1.0,,,
"CZK 18,000","CZK 6,000","CZK 16,000",730380,2 bedroom,9/12/2022,,55 m²,Partly,3,Brick,,285.0,683.04,335.12,701.47,175.21,222.72,161.25,136.16,909.99,463.46,Prague - Hloubětín,50.10834,14.54234,G,Very good,1.0,,,,,,,,,,,,,
"CZK 16,500","CZK 5,500","CZK 33,000",554329,2+kk,9/26/2022,Personal,49 m²,Partly,3,Brick,,53.93,1077.26,371.37,1459.79,267.87,601.61,689.56,1888.92,880.79,507.37,Prague - Radotín,49.9771246,14.3504332,B,New-build,1.0,,,Up to 10 years,,Central,Luxurious,,1.0,,,,,
"CZK 15,500","CZK 3,500","CZK 15,500",700035,2+kk,1/21/2022,Personal,50 m²,Fully furnished,7,Brick,1.0,146.6,1885.82,1048.5,1644.68,378.3,1292.34,740.14,1353.48,1244.54,662.27,"Pískařská, Prague - Modřany",50.013,14.40077,D,New-build,,,,,,Distance,,1.0,1.0,,,,,
"CZK 11,999",CZK 1,"CZK 11,999",393325,3+kk,12/1/2021,Other,80 m²,Partly,4,Brick,,223.51,319.98,215.63,105.13,77.74,309.27,96.87,566.4,507.29,77.83,"Nedvědovo náměstí, Prague - Podolí",50.0574231,14.4221377,,,1.0,,,,,,,,,,,,,
"CZK 19,900","CZK 5,000","CZK 39,800",730344,2 bedroom,8/18/2022,,61 m²,Fully furnished,4,Brick,,201.58,1053.15,693.11,1257.44,290.29,956.58,761.47,1370.07,215.61,162.54,Prague - Střešovice,50.09338,14.36867,G,Very good,,,1.0,,,,,,,,,,,
"CZK 15,500","CZK 2,000","CZK 20,000",730343,2 bedroom,8/21/2022,,45 m²,Partly,4,Brick,1.0,253.24,389.63,317.7,416.57,213.66,282.78,439.7,625.37,780.98,303.98,Prague - Smíchov,50.06695,14.40244,C,Very good,,1.0,,,,,,,,,,,,
"CZK 14,500","CZK 3,000","CZK 15,220",730232,2+kk,10/1/2022,,45 m²,Unfurnished,5,Brick,,166.51,799.4,73.38,528.54,200.99,219.13,511.1,608.43,415.69,232.44,Prague - Nusle,50.06562,14.42897,G,Very good,,,,,,,,,,,,,,
"CZK 20,000","CZK 5,000","CZK 45,000",730335,3+1,9/1/2022,,85 m²,Fully furnished,1,Brick,,522.44,2248.42,593.67,1951.67,392.1,1097.7,1041.73,591.18,1043.45,519.84,Prague - Břevnov,50.07852,14.32766,G,Very good,1.0,1.0,,,,,,,,,,,,
"CZK 22,500","CZK 5,500","CZK 28,000",726148,2 bedroom,9/1/2022,Personal,67 m²,Partly,2,Brick,1.0,732.67,524.1,711.78,1524.96,305.51,1047.89,590.4,485.73,128.14,417.23,Prague - Střešovice,50.08958,14.38264,G,Very good,1.0,1.0,,,Complete,Central,,,,,1.0,,,
"CZK 38,000","CZK 4,000","CZK 60,000",730311,3+1,8/22/2022,,135 m²,Unfurnished,1,Brick,,245.95,829.21,271.92,437.76,294.35,431.58,604.69,77.33,429.89,205.19,Prague - Vinohrady,50.08084,14.44272,C,Very good,,,,,,,,,,,,,,
"CZK 19,000","CZK 4,000","CZK 20,000",730300,2+kk,9/1/2022,,70 m²,Partly,4,Brick,,246.08,288.42,5.77,372.0,138.71,577.97,125.8,715.83,535.91,371.62,Prague - Malá Strana,50.07977,14.40686,G,New-build,1.0,,,,,,,,,,,,,
"CZK 22,000","CZK 5,500","CZK 44,000",531774,2+kk,8/1/2022,Personal,57 m²,Fully furnished,2,Brick,,125.6,843.19,329.07,492.47,121.62,345.28,400.13,325.73,977.92,292.95,"Trmická, Prague - Prosek",50.1180113,14.4964518,,Good,,,,,,,,,,,,1.0,,
"CZK 16,500","CZK 4,500","CZK 20,000",443036,2+kk,10/1/2022,Personal,54 m²,Unfurnished,2,Brick,1.0,366.55,1891.02,174.93,1565.56,1164.21,652.38,915.51,1300.32,1003.83,7.27,"Pod Harfou, Prague - Vysočany",50.1033467,14.5114565,C,,1.0,1.0,,10 to 30 years,Interior,,Standard,1.0,,,,,,
"CZK 16,700","CZK 3,000","CZK 30,000",730005,1 bedroom,8/15/2022,,43 m²,Partly,2,Brick,,140.31,577.69,111.66,240.73,76.22,133.51,193.16,217.01,516.54,227.06,Prague - Košíře,50.06889,14.36945,F,Very good,,,,,,,,,,,,,,
"CZK 16,000",CZK 0,"CZK 45,000",520177,2+kk,9/1/2022,Personal,52 m²,Partly,1,Brick,1.0,192.56,288.18,172.3,531.29,189.43,530.81,222.94,399.91,332.18,102.12,"Přípotoční, Prague - Vršovice",50.0652003,14.4562707,C,Very good,,,,Up to 10 years,Interior,Gas boiler,Standard,,,,1.0,,,
"CZK 16,400","CZK 2,500","CZK 25,000",545224,Studio,9/1/2022,Personal,38 m²,Partly,4,Brick,1.0,109.24,1039.06,442.08,846.12,540.6,637.35,35.01,1310.4,767.89,296.17,Prague - Holešovice,50.11065,14.449746,B,New-build,,,,Up to 10 years,,Central,Luxurious,,1.0,,,,,
"CZK 45,000","CZK 5,000","CZK 50,000",729675,2 bedroom,9/1/2022,,52 m²,Fully furnished,3,Brick,,200.51,407.37,72.96,275.48,12.97,109.41,427.03,435.74,261.27,352.53,Prague - Karlín,50.09179,14.44168,G,Very good,,,,,,,,,,,,1.0,,
"CZK 14,990","CZK 2,245","CZK 17,235",730281,Studio,8/22/2022,Personal,32 m²,Unfurnished,4,Other,1.0,94.95,1132.45,103.67,538.53,105.16,438.79,18.24,373.78,179.33,116.36,"Kovářská, Prague - Libeň",50.10573416666,14.49143999999,B,New-build,,,,,,,,,1.0,,,,"CZK 17,235",
"CZK 13,000","CZK 2,700","CZK 10,000",568519,Studio,9/1/2022,Personal,36 m²,Fully furnished,3,Brick,,358.29,1029.27,131.85,658.68,256.45,529.27,501.63,197.91,226.53,237.55,"Jeseniova, Prague - Žižkov",50.0905831,14.4805142,E,Very good,,,,,Interior,Gas boiler,Standard,,,,1.0,,,
"CZK 7,880",CZK 0,"CZK 7,000",727583,4+kk,7/27/2022,,75 m²,Partly,1,Prefab concrete,,420.52,1658.05,1076.45,1709.11,538.55,1279.92,1010.73,544.61,894.08,350.84,Prague - Modřany,50.00685,14.43654,C,Very good,,,1.0,,,,,,,,1.0,,,
"CZK 19,000","CZK 4,500",CZK 19,677694,2+kk,10/1/2022,Personal,60 m²,Partly,,Brick,1.0,356.63,408.97,83.3,339.28,65.34,601.45,235.27,476.95,936.92,258.13,"Lucemburská, Prague - Žižkov",50.07929,14.45599,G,Very good,,,,,Complete,Central,,,,,,,,
"CZK 17,000",CZK 0,"CZK 25,000",646389,2+kk,9/1/2022,Personal,45 m²,Partly,3,Prefab concrete,1.0,229.05,428.91,317.53,743.48,407.24,177.07,644.95,176.06,563.33,55.22,"Heranova, Prague - Stodůlky",50.04552,14.312901,G,Very good,,,,,,,,,,,,,,
"CZK 10,500","CZK 4,590","CZK 15,000",730254,2+kk,8/17/2022,,43 m²,Fully furnished,5,Prefab concrete,1.0,98.34,317.95,96.58,1360.95,209.23,173.01,497.97,369.03,4675.82,15.74,Prague - Zbraslav,49.96752,14.38501,A,Very good,,1.0,,,,,,,,,1.0,,,
"CZK 20,000","CZK 4,000","CZK 8,000",729802,2 bedroom,8/15/2022,,36 m²,Fully furnished,3,Brick,,354.21,737.34,455.75,355.35,376.01,575.19,1043.45,328.66,1016.27,67.61,Prague - Střešovice,50.09684,14.38976,B,Good,,1.0,,,,,,,,,,,,
"CZK 16,490","CZK 1,171","CZK 17,661",730250,2+kk,8/22/2022,Cooperative,44 m²,Partly,4,Brick,1.0,291.46,380.53,115.23,69.0,67.47,276.05,173.81,624.08,397.73,27.54,"Jaselská, Prague - Bubeneč",50.09875527777,14.40048833333,G,Good,,,,,,,,,,,,,"CZK 17,661",
"CZK 19,000","CZK 1,500","CZK 38,000",730244,2+kk,10/1/2022,,56 m²,Partly,5,Brick,1.0,224.14,656.8,214.71,257.03,52.44,140.05,289.35,427.62,159.48,537.34,Prague - Holešovice,50.10079,14.43043,G,Very good,1.0,1.0,,,,,,,,,1.0,,,
"CZK 50,000","CZK 10,610","CZK 50,000",682234,5+kk,9/1/2022,Personal,162 m²,Partly,11,Other,1.0,163.07,1109.71,303.21,956.68,424.05,1002.96,901.98,592.06,631.83,462.98,"Malešická, Prague - Žižkov",50.0870673,14.4834726,C,New-build,,,,,,,,1.0,,,1.0,1.0,,
"CZK 13,000","CZK 3,000","CZK 14,000",716235,Studio,10/1/2022,Personal,33 m²,Partly,8,Brick,1.0,136.53,1155.17,16.79,951.53,631.99,52.01,805.63,686.65,1103.35,483.79,"Hornoměcholupská, Prague - Horní Měcholupy",50.04454,14.56863,B,New-build,1.0,1.0,,,,,,,,,,,,
"CZK 11,000","CZK 3,677","CZK 15,000",730242,Studio,8/17/2022,,33 m²,Partly,2,Prefab concrete,1.0,128.26,735.25,517.29,665.13,353.72,611.59,537.6,901.33,1630.38,341.49,Prague - Bohnice,50.13183,14.41764,G,Very good,,1.0,,,,,,,,,1.0,,,
"CZK 20,000","CZK 3,750","CZK 20,000",730206,2+kk,8/17/2022,Personal,50 m²,Partly,3,Brick,1.0,83.09,656.57,68.92,675.09,133.2,641.46,501.68,569.42,382.05,406.68,Prague - Vinohrady,50.06829,14.4342,G,Very good,,,,,Complete,,,,,,,,,
"CZK 12,000","CZK 4,000","CZK 15,000",730158,Small studio,9/1/2022,,30 m²,Fully furnished,1,Brick,,181.77,836.05,177.05,232.05,126.91,511.38,440.05,285.41,538.27,134.66,Prague - Bubeneč,50.10302,14.40106,G,Very good,,,,,,,,,,,1.0,,,
"CZK 14,900","CZK 3,000","CZK 30,000",657536,Studio,11/1/2022,Personal,39 m²,Partly,7,Other,1.0,54.47,1047.39,47.89,203.63,180.78,183.66,351.8,729.1,319.84,105.46,"Kurta Konráda, Prague - Libeň",50.10375,14.48892,B,New-build,1.0,,1.0,Up to 10 years,,Central,Luxurious,,,,1.0,1.0,,
"CZK 16,500","CZK 5,200","CZK 18,000",730239,2+kk,8/17/2022,,73 m²,Partly,1,Brick,,19.96,1099.92,11.9,951.61,104.15,1277.39,136.39,179.77,484.69,218.49,Prague - Vysočany,50.10057,14.48891,E,Very good,,,,,,,,,,1.0,1.0,,,
"CZK 16,990","CZK 4,517","CZK 21,507",730240,3+kk,8/22/2022,Personal,55 m²,Fully furnished,4,Brick,1.0,260.07,811.21,109.09,802.45,407.57,827.12,901.91,419.98,366.49,369.83,"Vladycká, Prague - Hostivař",50.05422138888,14.52650805555,C,New-build,1.0,1.0,,,,,,1.0,1.0,,,,"CZK 21,507",
"CZK 12,990","CZK 2,312","CZK 15,302",730236,Studio,8/22/2022,Personal,40 m²,Fully furnished,4,Brick,,401.67,411.64,243.31,840.09,193.77,176.83,359.85,359.85,318.49,196.9,"Na hroudě, Prague - Strašnice",50.069900512695,14.480400085449,D,Very good,,,,,,,,,,,,,"CZK 15,302",
"CZK 12,990","CZK 2,312","CZK 15,302",730237,Studio,8/23/2022,Personal,40 m²,Fully furnished,4,Brick,,401.67,411.64,243.31,840.09,193.77,176.83,359.85,359.85,318.49,196.9,"Na hroudě, Prague - Strašnice",50.069900512695,14.480400085449,D,Very good,,,,,,,,,,,,,"CZK 15,302",
"CZK 11,000","CZK 3,000","CZK 28,000",730234,Studio,9/1/2022,,40 m²,Partly,1,Brick,,65.34,218.79,100.4,434.15,28.29,425.13,214.32,91.05,807.08,865.26,Prague - Vinohrady,50.07124,14.43563,G,Good,,,,,,,,,,,,,,
"CZK 12,000","CZK 2,000","CZK 14,000",583096,Small studio,8/20/2022,Personal,27 m²,Fully furnished,3,Prefab concrete,1.0,113.18,386.47,194.66,339.41,263.29,417.1,315.13,448.25,906.99,131.23,"Počernická, Prague - Malešice",50.080924,14.496629,B,Very good,,,,,,,,,,,1.0,,,
"CZK 16,500",CZK 133,"CZK 33,000",730233,Studio,10/14/2022,,25 m²,Fully furnished,3,Other,1.0,,,,,,,,,,,Prague - Stodůlky,50.04595,14.32223,A,Very good,,1.0,,,,,,,1.0,,1.0,1.0,,
"CZK 16,500",CZK 133,"CZK 33,000",730228,Studio,10/14/2022,,30 m²,Fully furnished,3,Other,1.0,,,,,,,,,,,Prague - Stodůlky,50.04595,14.32223,A,Very good,,1.0,,,,,,,1.0,,1.0,1.0,,
"CZK 20,000","CZK 5,000","CZK 25,000",151768,3+1,9/1/2022,Personal,80 m²,Fully furnished,,Brick,,202.88,698.15,61.59,734.78,131.92,675.65,195.73,279.66,675.08,496.05,"Dvouletky, Prague - Strašnice",50.0757297,14.5007619,,,,,,10 to 30 years,,Distance,Standard,,,,,,,
"CZK 17,000","CZK 6,500","CZK 17,000",730057,3+1,8/16/2022,,108 m²,Unfurnished,1,Brick,,138.59,325.23,586.63,2399.76,302.01,1385.97,1143.24,1676.91,1317.12,360.11,Prague - Libuš,50.01141,14.45905,G,Good,,,,,,,,,,1.0,,,,
"CZK 12,000","CZK 2,000","CZK 15,000",730221,Studio,9/1/2022,,27 m²,Partly,2,Brick,,43.39,465.36,39.04,107.52,10.36,258.39,340.32,302.31,247.76,366.7,Prague - Žižkov,50.08752,14.46899,G,Very good,,,,,,,,,,1.0,,,,
"CZK 16,900","CZK 3,000","CZK 30,000",730217,2+kk,10/1/2022,,46 m²,Partly,1,Other,1.0,229.79,293.08,77.08,237.88,34.66,198.17,64.92,281.76,68.07,564.67,Prague - Žižkov,50.08538,14.44998,C,Very good,,,,,,,,,,,,,,
"CZK 10,000",CZK 0,"CZK 20,000",729631,Small studio,8/31/2022,,26 m²,Fully furnished,3,Brick,1.0,137.3,643.4,595.04,2614.11,519.43,871.16,518.14,518.14,131.53,491.64,Prague - Kbely,50.13535,14.54158,C,New-build,,,,,,,,1.0,1.0,,,,,
"CZK 30,000","CZK 5,000","CZK 50,000",730208,3+kk,8/17/2022,,88 m²,Fully furnished,4,Low-energy,1.0,617.6,1263.84,484.11,2402.58,455.18,2080.47,784.66,1309.64,1735.19,224.38,Prague - Dolní Chabry,50.13929,14.4453,G,New-build,,1.0,,,,,,1.0,1.0,,1.0,1.0,,
"CZK 18,000","CZK 3,000","CZK 20,000",730204,2+kk,8/17/2022,,43 m²,Fully furnished,6,Prefab concrete,1.0,429.21,1235.37,367.37,873.84,266.53,904.62,412.98,488.52,959.42,224.87,Prague - Karlín,50.09537,14.4672,E,Very good,,,1.0,,,,,,,1.0,1.0,,,
"CZK 24,000","CZK 3,000","CZK 24,000",730205,3+1,8/17/2022,,76 m²,Partly,1,Prefab concrete,1.0,395.99,509.43,163.26,504.86,440.33,508.9,453.56,279.74,995.17,176.46,Prague - Hlubočepy,50.03685,14.37189,G,Very good,1.0,,,,,,,,,,,,,
"CZK 12,000","CZK 3,000","CZK 15,000",320811,1 bedroom,10/1/2022,Personal,40 m²,Fully furnished,2,Brick,,46.46,410.4,413.35,2912.61,234.75,528.18,470.99,1222.1,885.46,315.84,"Jizerská, Prague - Čakovice",50.1499895,14.5253636,,,,1.0,,Up to 10 years,,Central,Standard,,,,,1.0,,
"CZK 19,500","CZK 4,000","CZK 20,000",593841,2+kk,9/1/2022,Personal,56 m²,Partly,3,Brick,1.0,262.67,736.25,283.72,756.23,562.34,942.85,698.71,478.02,754.83,151.91,"Univerzitní, Prague - Malešice",50.086497,14.503346,G,New-build,1.0,1.0,,Up to 10 years,,Distance,Standard,1.0,1.0,,,,,
"CZK 24,500","CZK 4,000","CZK 28,500",730199,2+kk,8/17/2022,,43 m²,Fully furnished,1,Brick,1.0,357.59,1747.78,1125.9,1506.46,596.44,846.28,429.19,909.76,445.41,393.7,Prague - Motol,50.07465,14.35863,G,Very good,1.0,1.0,,Up to 10 years,Complete,Central,Luxurious,,,,,,,
"CZK 18,000","CZK 5,500","CZK 25,000",730198,3+1,9/1/2022,,65 m²,Partly,5,Prefab concrete,1.0,424.34,939.28,566.26,935.99,424.47,485.28,590.77,533.03,1392.05,59.0,Prague - Braník,50.02708,14.4251,B,Very good,,,1.0,,,Central,,,,,,,,
