Price,Fees,Listing ID,Layout,Avaliable from,Floor space,Fully furnished,Floor,Balcony,Lift,Terrace,public_transport,post,shop,bank,restaurant,pharmacy,school,kindergarten,sports_field,playground,District,Latitude,Longitude,Refundable security deposit,EPC,Condition,Building type,Cellar,Domácí mazlíčci vítáni,Parking,Ownership,Reconstruction,Age,Designe,Enclosed balcony,Heating,New-build,Garage,Administrative fee,Plot type
"CZK 39,000","CZK 13,000",728062,2 bedroom,9/30/2022,92 m²,Fully furnished,7,1.0,1.0,1.0,73.01,281.28,58.33,478.54,20.37,379.07,102.37,138.49,668.56,481.36,"Francouzská, Prague - Vinohrady",50.0739894,14.440101,,,,,,,,,,,,,,,,,
"CZK 27,000","CZK 9,000",729347,Studio,10/10/2022,42 m²,Fully furnished,6,1.0,1.0,1.0,281.75,307.61,213.79,334.55,123.9,263.48,107.78,215.2,467.08,403.1,"Krásova, Prague - Žižkov",50.0830503,14.4473656,,,,,,,,,,,,,,,,,
"CZK 33,750","CZK 11,250",730188,1 bedroom,10/16/2022,45 m²,Fully furnished,3,,1.0,,153.03,376.72,146.99,646.6,45.07,502.75,147.12,62.23,673.09,485.89,"Jana Masaryka, Prague - Vinohrady",50.0723321,14.4399493,,,,,,,,,,,,,,,,,
"CZK 48,435","CZK 16,145",730649,3+1,10/20/2022,108 m²,Fully furnished,3,,1.0,,170.36,424.31,260.04,428.7,73.65,305.75,38.65,29.43,439.38,720.46,"Balbínova, Prague - Vinohrady",50.0795643,14.4361068,,,,,,,,,,,,,,,,,
"CZK 32,918","CZK 10,972",730648,Studio,10/20/2022,35 m²,Fully furnished,2,,,,247.87,258.88,108.69,237.41,65.07,538.8,263.81,273.73,806.33,230.99,"Míšeňská, Prague - Malá Strana",50.0876118,14.4080467,,,,,,,,,,,,,,,,,
"CZK 28,050","CZK 9,350",730647,Studio,10/20/2022,40 m²,Fully furnished,2,1.0,,1.0,87.49,353.69,89.13,198.59,58.79,391.02,424.91,274.28,259.74,601.22,"Zborovská, Prague - Smíchov",50.0730353,14.4083714,,,,,,,,,,,,,,,,,
"CZK 20,000","CZK 5,800",730026,3+kk,8/20/2022,79 m²,Partly,4,1.0,1.0,1.0,123.98,590.32,215.96,3442.71,251.39,175.06,693.48,435.64,573.06,105.37,Prague - Kbely,50.13218,14.5513,"CZK 40,000",B,Very good,Brick,1.0,1.0,1.0,,,,,,,,,,
"CZK 26,000","CZK 7,900",548506,2+kk,8/21/2022,54 m²,Fully furnished,4,,1.0,,196.54,708.6,185.89,175.43,33.46,257.8,76.89,276.1,130.26,252.34,"Vyšehradská, Prague - Nové Město",50.0694781,14.418098,"CZK 50,000",B,,Brick,1.0,,,Personal,Complete,Up to 10 years,Luxurious,,,,,,
"CZK 20,000","CZK 8,000",730639,3+1,10/1/2022,90 m²,Partly,3,,,,44.22,1189.1,576.92,1480.73,532.01,1178.75,1005.21,708.52,1105.27,393.01,Prague - Braník,50.04159,14.42236,"CZK 28,000",G,Good,Brick,,,,,,,,,,,,,
"CZK 18,000","CZK 5,000",552552,2+kk,10/1/2022,63 m²,Partly,3,1.0,,,280.09,1497.21,807.48,1588.99,980.25,1360.6,1441.37,1351.06,2122.56,1106.49,Prague - Uhříněves,50.034912,14.5808621,"CZK 30,000",,Very good,Brick,1.0,,,Personal,,,,,,,,,
"CZK 23,000","CZK 2,091",730638,3+kk,8/20/2022,68 m²,Partly,8,,1.0,,359.8,896.27,372.32,643.41,170.94,405.27,358.15,398.69,688.26,211.72,Prague - Chodov,50.02743,14.52485,"CZK 50,000",C,Very good,Prefab concrete,1.0,,,,,,,1.0,,,,,
"CZK 17,250","CZK 5,750",727831,3+kk,9/15/2022,90 m²,Fully furnished,2,,1.0,,82.8,397.93,96.94,404.98,135.48,353.78,131.46,217.55,654.74,661.34,"Blanická, Prague - Vinohrady",50.0746503,14.439294,,,,,,,,,,,,,,,,,
"CZK 20,000","CZK 5,000",729979,2+kk,8/15/2022,52 m²,Fully furnished,1,1.0,1.0,,147.37,951.08,153.05,538.29,374.51,662.93,209.14,1932.17,914.36,242.91,Prague - Zličín,50.05715,14.28452,"CZK 20,000",G,Very good,Other,,1.0,1.0,,,,,,,,,,
"CZK 10,900","CZK 3,798",730631,2+kk,9/1/2022,43 m²,Partly,8,,,,256.32,973.77,271.19,227.25,271.81,311.37,128.71,282.21,617.34,142.38,Prague - Stodůlky,50.04385,14.31908,"CZK 14,698",G,Good,Prefab concrete,1.0,,,,,,,,,,,,
"CZK 14,000","CZK 7,500",621436,Studio,9/1/2022,40 m²,Fully furnished,1,,,,324.8,935.35,338.0,1038.12,168.04,650.8,580.16,549.31,350.29,231.28,"Nad Závěrkou, Prague - Břevnov",50.082898,14.379058,"CZK 16,000",G,Very good,Brick,1.0,,,Personal,,,,,,,,,
"CZK 18,000",CZK 0,730625,2 bedroom,8/20/2022,70 m²,Partly,1,,,,116.18,1129.79,507.6,1052.84,342.54,826.51,467.99,680.11,864.92,474.26,Prague - Řepy,50.07081,14.30226,"CZK 16,000",G,Good,Brick,,1.0,1.0,,Interior,Over 50 years,,,,,,,
"CZK 11,000","CZK 4,000",730624,Studio,8/20/2022,28 m²,Unfurnished,7,1.0,,,119.98,1168.68,56.38,891.37,188.67,280.53,212.88,125.07,277.81,185.93,Prague - Vokovice,50.09763,14.34768,"CZK 13,800",G,Very good,Prefab concrete,,,,,,,,,,,,,
"CZK 17,000","CZK 3,000",678107,3+1,10/1/2022,82 m²,Partly,4,1.0,1.0,,139.15,489.42,691.61,2969.27,540.85,838.62,952.02,1515.86,1660.06,368.03,"V Rohu, Prague - Libuš",50.01091,14.46631,"CZK 30,000",C,Very good,Prefab concrete,1.0,,,Cooperative,Bathroom unit,,,,Central,,,,
"CZK 12,000","CZK 2,000",653606,Small studio,8/22/2022,27 m²,Partly,5,,1.0,,237.35,1324.02,187.22,827.98,223.46,203.35,395.87,203.45,494.31,112.65,"Písečná, Prague - Troja",50.12429,14.44174,"CZK 14,000",G,Good,Prefab concrete,,,,Personal,,,,1.0,Distance,,,,
"CZK 12,000","CZK 3,000",650716,Small studio,9/1/2022,33 m²,Partly,6,1.0,1.0,,423.15,2168.74,1870.0,2245.52,406.28,2025.04,1219.49,2119.55,370.39,1106.24,"Šífařská, Prague - Hodkovičky",50.020821,14.40306,"CZK 15,000",A,New-build,Brick,,,1.0,Personal,,Up to 10 years,Luxurious,,Distance,1.0,,,
"CZK 19,000","CZK 4,000",514627,2+kk,9/1/2022,53 m²,Partly,8,1.0,1.0,,436.45,482.38,355.27,2168.88,451.43,585.29,902.55,311.64,478.12,124.82,"Kytínská, Prague - Hostivař",50.0529798,14.5443391,"CZK 19,000",,New-build,Other,1.0,,,Personal,,Up to 10 years,Standard,,Distance,1.0,1.0,,
"CZK 14,000","CZK 1,930",437630,Studio,8/20/2022,32 m²,Fully furnished,5,1.0,1.0,,777.75,1515.39,1436.1,2118.41,297.18,1411.22,1521.23,1349.24,501.91,402.89,"Kadečkové, Prague - Letňany",50.1425035,14.5253098,"CZK 31,860",B,New-build,Low-energy,,,,Personal,,Up to 10 years,Luxurious,,Distance,1.0,1.0,,
"CZK 18,000","CZK 4,500",613343,2+kk,10/1/2022,46 m²,,4,1.0,1.0,,526.76,1019.91,431.15,1156.37,479.61,952.31,597.42,464.21,605.37,264.73,"Mírového Hnutí, Prague - Háje",50.037896,14.521034,"CZK 20,000",A,Very good,Brick,,,1.0,Personal,,,,,,,1.0,,
"CZK 9,500","CZK 4,500",326191,2+kk,8/20/2022,45 m²,Partly,,,,,118.21,901.07,270.57,440.14,356.62,402.74,697.18,657.21,541.06,238.94,"Nad Krocínkou, Prague - Prosek",50.1160844,14.5019544,"CZK 16,000",,,Brick,,,,Personal,,,,,,,,,
"CZK 18,500","CZK 4,000",421225,2+kk,10/1/2022,52 m²,Partly,4,1.0,1.0,,324.34,473.47,296.86,224.17,158.4,158.73,795.72,748.5,192.56,232.72,"Nepilova, Prague - Vysočany",50.110728,14.4959744,"CZK 35,000",A,Very good,Brick,,,1.0,Personal,,,,,,,,,
"CZK 16,500","CZK 6,000",730617,2+kk,9/1/2022,57 m²,Partly,4,1.0,1.0,,352.88,459.2,344.74,2082.0,594.17,633.94,971.66,204.9,5317.79,225.18,Prague - Zbraslav,49.96156,14.38226,"CZK 33,000",G,Very good,Brick,1.0,,1.0,,,,,,Distance,,,,
"CZK 16,900","CZK 3,100",617632,2+kk,6/25/2022,44 m²,Partly,2,1.0,1.0,,339.5,258.78,154.1,328.9,36.49,237.37,731.05,965.96,1127.37,353.92,"Olštýnská, Prague - Troja",50.127794,14.42029,"CZK 30,000",B,Very good,Prefab concrete,,,,Personal,Interior,Up to 10 years,Standard,,Distance,,,,
"CZK 15,750","CZK 5,250",730614,1 bedroom,9/1/2022,30 m²,Fully furnished,3,,,,217.38,2062.48,1281.33,4705.18,629.6,1074.91,597.5,3134.16,2915.46,646.77,"Švihovská, Prague - Písnice",49.9954018,14.4704771,,,,,,,,,,,,,,,,,
"CZK 19,900","CZK 3,900",547694,2+kk,9/1/2022,40 m²,Fully furnished,5,,1.0,,247.6,612.03,162.08,212.68,150.4,308.87,373.02,109.89,426.4,395.65,"Pod Slovany, Prague - Nové Město",50.0712083,14.4161981,"CZK 47,600",E,New-build,Brick,,,1.0,Personal,Interior,Up to 10 years,Standard,,Gas boiler,1.0,,,
"CZK 18,000","CZK 2,500",730611,2+kk,9/1/2022,487 m²,Fully furnished,2,,,,432.47,869.51,516.98,547.07,76.89,490.6,587.46,571.61,689.8,392.87,Prague - Stodůlky,50.04872,14.32451,"CZK 15,000",G,Very good,Prefab concrete,1.0,,,,,,,,,,,,
"CZK 21,000","CZK 6,000",730609,3+kk,9/1/2022,63 m²,Partly,2,,,,261.41,912.52,281.87,426.36,218.4,429.59,471.08,561.14,311.81,403.98,Prague - Nusle,50.059,14.43643,"CZK 50,000",G,Very good,Brick,1.0,,,,,,,,,,,,
"CZK 18,000","CZK 5,500",186131,2+kk,8/17/2022,55 m²,Unfurnished,2,,,,195.19,877.98,502.29,700.39,241.47,555.71,968.09,689.81,1187.43,292.12,Prague - Strašnice,50.079646,14.5076921,"CZK 24,000",,Very good,Brick,,,,Personal,,Up to 10 years,Standard,,Central,,,,
"CZK 3,000","CZK 2,500",519288,3+kk,9/1/2022,104 m²,Partly,1,,1.0,,96.33,542.63,85.99,322.57,25.69,320.91,135.51,230.39,466.15,198.39,"Kodaňská, Prague - Vršovice",50.0706748,14.4587171,"CZK 3,000",,Very good,Brick,1.0,,,Personal,Complete,Up to 10 years,Standard,,Gas boiler,,,,
"CZK 12,800","CZK 2,297",448060,Studio,8/21/2022,31 m²,Partly,4,1.0,1.0,1.0,777.75,1515.39,1436.1,2118.41,297.18,1411.22,1521.23,1349.24,501.91,402.89,"Kadečkové, Prague - Letňany",50.1425035,14.5253098,"CZK 12,800",A,New-build,Brick,1.0,,,Personal,,Up to 10 years,Standard,,,1.0,,,
"CZK 28,000","CZK 4,826",730307,3+kk,10/1/2022,91 m²,Partly,5,1.0,1.0,1.0,146.4,1732.33,705.79,1697.51,857.78,1365.7,1665.15,1342.58,942.96,164.01,Prague - Stodůlky,50.0587,14.32951,"CZK 56,000",G,Very good,Brick,1.0,,1.0,,,,,,,,1.0,,
"CZK 12,000","CZK 3,500",462357,Studio,9/1/2022,30 m²,Fully furnished,1,,1.0,,284.43,507.29,365.12,812.22,599.34,727.47,422.24,502.02,543.1,195.13,"Padovská, Prague - Horní Měcholupy",50.0426908,14.550883,"CZK 14,998",,,Brick,1.0,,,Personal,,,,,,,1.0,,
"CZK 17,500","CZK 4,500",177188,2+kk,10/1/2022,50 m²,Fully furnished,4,1.0,1.0,,129.15,496.6,548.8,535.24,652.16,641.56,642.27,943.64,1359.31,423.04,Prague - Stodůlky,50.0619404,14.3107778,"CZK 22,000",,,Brick,,,1.0,Personal,,Up to 10 years,,,Electric boiler,1.0,,,
"CZK 8,000","CZK 2,500",730602,Small studio,8/20/2022,21 m²,Partly,2,,1.0,,21.66,563.57,388.46,96.14,90.12,213.81,275.66,777.19,740.71,286.45,Prague - Smíchov,50.07176,14.4021,"CZK 10,000",G,Good,Brick,,,,,,Over 50 years,,,Electric boiler,,,,
"CZK 14,900","CZK 3,300",570282,Studio,10/1/2022,33 m²,Fully furnished,2,1.0,1.0,,217.82,1579.87,778.68,898.42,525.92,766.94,621.01,720.34,2166.54,559.12,"Štverákova, Prague - Horní Počernice",50.1118599,14.6268181,"CZK 30,000",B,,Brick,,,,Personal,,,,,,1.0,,,
"CZK 24,500","CZK 3,900",647743,2+kk,8/23/2022,52 m²,Fully furnished,6,,1.0,1.0,321.74,272.42,32.18,227.85,42.93,69.06,244.65,812.35,163.33,572.38,"Opletalova, Prague - Nové Město",50.0814214,14.4299039,"CZK 28,400",D,Very good,Brick,,,1.0,Personal,Complete,,Luxurious,,Central,,,,
"CZK 9,500","CZK 3,000",164266,Studio,8/31/2022,33 m²,Unfurnished,2,1.0,,,306.66,1179.67,410.22,1895.33,122.95,1226.13,779.0,1363.02,1258.88,88.64,"Jordánská, Prague - Kyje",50.1100749251,14.560223236,"CZK 12,500",A,Very good,Brick,1.0,,1.0,Personal,,Up to 10 years,,,,1.0,1.0,,
"CZK 14,900","CZK 4,800",305093,2+kk,10/3/2022,48 m²,Fully furnished,2,,,,96.06,765.97,227.0,244.45,116.36,398.12,490.03,484.99,430.44,337.94,"Jeseniova, Prague - Žižkov",50.0878963,14.4653059,"CZK 39,300",,,Brick,,,,Personal,,,,,,,,,
"CZK 29,500","CZK 6,000",730596,3+1,8/23/2022,69 m²,Unfurnished,6,1.0,1.0,,251.15,665.44,128.98,173.17,28.33,148.87,349.95,431.04,163.8,540.76,Prague - Holešovice,50.10039,14.43109,"CZK 29,500",G,Very good,Brick,1.0,,,,,,,1.0,,,,,
"CZK 18,000","CZK 4,124",730266,2+kk,10/1/2022,54 m²,Partly,5,,1.0,1.0,175.3,564.49,102.46,100.04,144.3,390.19,592.06,397.3,382.76,510.05,Prague - Smíchov,50.07141,14.40787,"CZK 18,000",G,Good,Brick,,,,,,,Standard,,,,,,
"CZK 13,000",CZK 0,729911,Studio,9/1/2022,36 m²,Fully furnished,,,,,323.42,1575.2,1109.44,1343.97,1257.51,1799.06,1288.39,1403.21,499.67,448.07,Prague - Hloubětín,50.09394,14.52976,"CZK 13,000",C,Good,Brick,,,,,,,,,,,,,
"CZK 18,500","CZK 3,500",730591,2+kk,8/20/2022,42 m²,Partly,11,,1.0,,225.25,509.23,210.61,197.57,313.05,374.5,333.7,365.29,434.6,205.29,Prague - Háje,50.0292,14.53153,"CZK 37,000",A,Very good,Prefab concrete,1.0,,,,,,,,,,,,
"CZK 20,000","CZK 2,500",577284,2+kk,10/23/2022,62 m²,Partly,1,,1.0,1.0,33.11,987.61,363.88,969.16,628.75,914.45,908.02,958.36,839.36,322.99,"Saarinenova, Prague - Hloubětín",50.1067841,14.5284169,"CZK 22,000",,New-build,Low-energy,,,,Cooperative,,Up to 10 years,Luxurious,,Distance,1.0,,,
"CZK 30,375","CZK 10,125",730589,2 bedroom,9/7/2022,77 m²,Fully furnished,1,,,,362.98,762.3,103.79,363.25,76.62,226.39,253.28,848.57,276.91,306.73,"Březinova, Prague - Karlín",50.0930254,14.4565404,,,,,,,,,,,,,,,,,
"CZK 31,500","CZK 10,500",724600,2+kk,9/5/2022,56 m²,Fully furnished,4,,,,91.98,204.34,98.75,50.9,42.55,154.76,196.57,433.55,409.29,205.78,"náměstí Bratří Synků, Prague - Nusle",50.0640124,14.439955,,,,,,,,,,,,,,,,,
"CZK 26,925","CZK 8,975",730588,Studio,9/23/2022,30 m²,Fully furnished,2,,1.0,,210.86,390.29,319.5,985.86,301.65,338.01,858.33,290.45,385.77,539.9,"Strakonická, Prague - Smíchov",50.0643299,14.4102127,,,,,,,,,,,,,,,,,
"CZK 9,300","CZK 4,500",729762,Studio,8/20/2022,26 m²,Partly,2,1.0,1.0,,114.97,208.62,396.31,1615.36,9.96,1381.57,274.93,170.26,414.89,259.12,Prague - Střešovice,50.08912,14.38529,"CZK 15,000",G,Very good,Brick,,,1.0,,,,,,,,,,
"CZK 21,000","CZK 1,500",697671,2+kk,8/31/2022,64 m²,Partly,,,,,171.69,1015.59,407.1,797.48,264.17,765.75,520.57,495.17,663.79,270.66,"Pod Lázní, Prague - Nusle",50.0586,14.44228,"CZK 21,000",B,Very good,Brick,,,1.0,Personal,Complete,Up to 10 years,Standard,,Gas boiler,1.0,,,
"CZK 12,000","CZK 3,000",275844,1 bedroom,9/1/2022,35 m²,Partly,1,,,,325.63,647.92,361.45,532.99,389.75,462.14,521.63,491.27,1145.53,208.4,"Zachova, Prague - Krč",50.0395754,14.4450065,"CZK 20,000",,Very good,Brick,,,,Personal,Interior,Up to 10 years,Standard,,Gas boiler,,,,
"CZK 14,500",CZK 0,727859,Studio,8/1/2022,42 m²,Fully furnished,1,,1.0,,406.25,992.01,179.15,816.42,163.67,350.4,524.05,477.87,585.78,346.29,Prague - Strašnice,50.07006,14.49794,"CZK 14,500",G,Very good,Prefab concrete,,,,Personal,,,,1.0,,,,,
"CZK 20,000","CZK 3,500",730581,Studio,8/20/2022,30 m²,Fully furnished,3,1.0,,1.0,249.44,775.46,296.54,454.56,346.44,471.4,754.24,623.73,388.52,189.67,Prague - Strašnice,50.07918,14.48536,"CZK 47,000",C,New-build,Brick,,,,,Complete,,Luxurious,,Central,1.0,,,
"CZK 18,000","CZK 4,950",416776,3+kk,9/1/2022,65 m²,Partly,6,1.0,,,265.87,1107.74,271.42,1167.73,433.23,230.71,123.43,710.85,1212.58,94.84,"Tererova, Prague - Chodov",50.0240198,14.5211528,"CZK 25,000",,,Prefab concrete,,,,Personal,Complete,,Standard,,Central,,,,
"CZK 16,200","CZK 3,800",686230,2+kk,10/1/2022,43 m²,Fully furnished,5,1.0,1.0,,443.03,2205.5,1833.24,2208.76,443.04,2061.8,1256.25,2082.8,407.15,1143.0,"Šífařská, Prague - Hodkovičky",50.0204964,14.4029624,"CZK 20,000",B,New-build,Brick,1.0,,,Personal,,,,,,,,,
"CZK 22,500","CZK 5,000",683548,2+kk,10/1/2022,68 m²,Partly,4,1.0,1.0,1.0,231.82,688.19,238.77,396.79,288.67,346.25,666.97,484.38,370.9,167.66,"Janýrova, Prague - Strašnice",50.0792694,14.4866147,"CZK 45,000",D,Very good,Brick,1.0,,1.0,Personal,,,,,Distance,,1.0,,
"CZK 6,800",CZK 500,230685,Studio,9/1/2022,11 m²,Partly,-1,,1.0,,249.54,175.4,287.73,263.55,169.79,370.78,458.32,358.29,820.31,231.69,Prague - Košíře,50.069355,14.3742657,"CZK 8,000",,,Brick,,,,Personal,Interior,Up to 10 years,Standard,,Other,,,,
"CZK 12,250","CZK 2,615",485661,Studio,9/1/2022,50 m²,Partly,,,,,227.37,259.16,190.25,329.28,123.0,273.52,789.96,952.36,1293.57,401.17,"Hnězdenská, Prague - Troja",50.1263568,14.4202859,"CZK 20,000",C,Very good,Prefab concrete,,,,Personal,Interior,10 to 30 years,,,Distance,,,,
"CZK 28,800","CZK 5,800",566375,2 bedroom,9/1/2022,65 m²,Fully furnished,1,1.0,1.0,,124.79,451.96,157.36,293.51,128.12,183.56,213.19,293.47,135.81,471.93,"Mánesova, Prague - Vinohrady",50.0779063,14.4417343,"CZK 45,000",G,,Brick,,,,Personal,,,,,Gas boiler,,,,
"CZK 25,185","CZK 8,395",727016,2+kk,9/21/2022,48 m²,Fully furnished,2,,1.0,,135.11,912.46,214.19,950.58,205.94,453.63,610.43,416.59,742.03,542.67,"Na Neklance, Prague - Smíchov",50.0605987,14.3995526,,,,,,,,,,,,,,,,,
"CZK 34,650","CZK 11,550",726077,2 bedroom,9/15/2022,100 m²,Fully furnished,3,,1.0,,47.36,89.7,50.91,353.17,50.36,559.15,144.5,503.29,323.37,346.2,"Plaská, Prague - Malá Strana",50.0806597,14.4049697,,,,,,,,,,,,,,,,,
"CZK 46,530","CZK 15,510",726063,2 bedroom,9/8/2022,48 m²,Fully furnished,2,,,,158.42,248.82,154.82,246.13,112.68,264.3,390.21,408.3,154.53,114.55,"Řásnovka, Prague - Staré Město",50.0918754,14.4250902,,,,,,,,,,,,,,,,,
"CZK 63,750","CZK 21,250",729471,3+1,10/10/2022,120 m²,Fully furnished,3,,1.0,,73.01,281.28,58.33,478.54,20.37,379.07,102.37,138.49,668.56,481.36,"Francouzská, Prague - Vinohrady",50.0739894,14.440101,,,,,,,,,,,,,,,,,
"CZK 63,413","CZK 21,137",730189,3+kk,10/16/2022,62 m²,Fully furnished,3,,1.0,,2.22,191.43,20.53,48.07,1.19,48.35,128.16,305.9,208.92,259.31,"Dlouhá, Prague - Staré Město",50.0907943,14.427063,,,,,,,,,,,,,,,,,
"CZK 43,500","CZK 14,500",730187,2 bedroom,10/16/2022,82 m²,Fully furnished,3,,1.0,,153.03,376.72,146.99,646.6,45.07,502.75,147.12,62.23,673.09,485.89,"Jana Masaryka, Prague - Vinohrady",50.0723321,14.4399493,,,,,,,,,,,,,,,,,
"CZK 18,000","CZK 6,000",730186,Studio,10/16/2022,21 m²,Fully furnished,5,,1.0,,343.73,639.29,118.56,534.69,89.23,275.1,341.07,136.6,194.25,439.23,"Polská, Prague - Vinohrady",50.0783707,14.4448312,,,,,,,,,,,,,,,,,
"CZK 56,250","CZK 18,750",730578,2+kk,10/19/2022,47 m²,Fully furnished,3,,1.0,,145.3,409.63,254.35,292.12,59.28,309.45,136.5,419.43,177.03,511.6,"Elišky Krásnohorské, Prague - Josefov",50.0906304,14.4198248,,,,,,,,,,,,,,,,,
"CZK 14,000","CZK 3,300",730577,Studio,8/31/2022,37 m²,Unfurnished,,,,1.0,104.02,730.89,370.9,1062.59,199.68,739.54,425.64,271.77,238.27,354.71,Prague - Smíchov,50.06514,14.39497,"CZK 30,000",C,Good,Brick,,,,,,,,,,,,,
"CZK 8,000","CZK 1,500",666742,Small studio,8/22/2022,14 m²,Fully furnished,1,,,,63.56,2382.3,502.13,2085.54,453.16,1020.53,1623.0,348.67,951.91,676.91,"Bělohorská, Prague - Břevnov",50.07573,14.33054,CZK 0,A,Good,Brick,,,1.0,Personal,,10 to 30 years,Standard,,Central,,,,
"CZK 8,000","CZK 1,500",729860,Small studio,8/22/2022,14 m²,Fully furnished,3,,,,63.56,2382.3,502.13,2085.54,453.16,1020.53,1623.0,348.67,951.91,676.91,Prague - Břevnov,50.07573,14.33054,CZK 0,G,New-build,Brick,,1.0,,,,Up to 10 years,Standard,,,,,,
"CZK 33,750","CZK 11,250",726019,2+kk,8/22/2022,75 m²,Fully furnished,6,1.0,1.0,1.0,163.79,319.88,110.55,226.38,103.86,407.78,227.16,243.22,785.75,360.1,"Na Zbořenci, Prague - Nové Město",50.0769346,14.4169603,,,,,,,,,,,,,,,,,
"CZK 42,120","CZK 14,040",724853,2+kk,9/12/2022,45 m²,Fully furnished,4,,1.0,,336.41,302.29,48.66,211.39,57.6,35.65,274.52,787.09,193.2,587.05,"Opletalova, Prague - Nové Město",50.0812219,14.4297716,,,,,,,,,,,,,,,,,
"CZK 56,475","CZK 18,825",723104,3+kk,8/22/2022,67 m²,Fully furnished,2,1.0,1.0,1.0,110.1,273.82,156.66,129.22,76.56,142.67,300.13,496.4,282.11,367.31,"Dlážděná, Prague - Nové Město",50.0865843,14.4323212,,,,,,,,,,,,,,,,,
"CZK 14,800","CZK 2,300",730553,1 bedroom,10/1/2022,43 m²,Partly,3,1.0,,,401.18,749.85,140.97,350.8,185.5,213.93,310.4,836.12,264.45,209.65,Prague - Karlín,50.09247,14.45611,"CZK 28,000",G,Very good,Brick,,,1.0,,,,,,,,,,
"CZK 27,000","CZK 5,000",730552,2 bedroom,8/19/2022,93 m²,Fully furnished,1,,1.0,,117.81,529.81,10.96,245.69,114.6,371.46,233.79,188.42,694.67,259.6,Prague - Vinohrady,50.07558,14.45754,"CZK 28,000",G,Very good,Brick,1.0,,,,,,,,,,,,
"CZK 28,000",CZK 700,730414,2 bedroom,8/18/2022,86 m²,Fully furnished,3,,1.0,,228.51,497.33,58.47,391.83,96.19,311.74,217.56,124.03,354.02,362.52,Prague - Vinohrady,50.07892,14.44711,"CZK 28,000",G,Very good,Brick,,,,Personal,Complete,,,,,,,,
"CZK 12,868","CZK 2,132",585948,2+kk,10/1/2022,36 m²,Partly,12,,1.0,,324.6,243.87,139.2,314.0,51.4,222.46,745.96,951.05,1137.62,350.11,"Olštýnská, Prague - Troja",50.127672,14.420039,"CZK 15,000",C,Good,Prefab concrete,,,,Personal,Complete,30 - 50 years,Standard,,Central,,,,
"CZK 16,700","CZK 7,300",729190,2+kk,8/22/2022,53 m²,Partly,4,,1.0,,121.92,892.84,110.89,81.84,92.41,239.77,248.85,617.42,394.99,727.14,Prague - Holešovice,50.10062,14.43414,"CZK 30,000",D,Very good,Brick,1.0,,1.0,,Complete,,Standard,,Central,,,,
"CZK 32,000","CZK 6,000",729867,3+kk,9/1/2022,86 m²,Partly,3,1.0,1.0,,619.74,957.8,1278.08,1960.39,141.51,1073.98,1363.22,1191.22,343.89,293.25,Prague - Letňany,50.14159,14.52344,"CZK 64,000",B,New-build,Brick,,,,,,,,,,,1.0,,
"CZK 14,900","CZK 2,100",730544,Studio,10/1/2022,40 m²,Fully furnished,1,,,1.0,238.89,1093.41,192.63,756.92,68.18,369.6,298.96,478.79,220.68,369.05,Prague - Břevnov,50.08357,14.3772,"CZK 29,000",A,New-build,Low-energy,,,,,,,,,,,,,
"CZK 15,000","CZK 2,700",574643,2 bedroom,9/1/2022,54 m²,Partly,3,,,,78.31,270.98,111.86,177.77,220.6,148.23,200.59,169.97,686.53,257.79,"Na Petřinách, Prague - Břevnov",50.088277,14.346283,"CZK 22,000",D,Very good,Brick,,,,Personal,Interior,,,1.0,Distance,,,,
"CZK 13,000","CZK 4,500",729825,2+kk,9/15/2022,46 m²,Partly,1,,,,174.03,594.0,541.65,1059.35,209.58,827.67,730.29,210.17,539.55,220.53,Prague - Záběhlice,50.0534,14.50354,"CZK 26,000",C,Good,Prefab concrete,,,,,,,,1.0,,,,,
"CZK 21,000","CZK 6,500",607367,2+kk,9/1/2022,55 m²,Fully furnished,4,,1.0,,198.58,426.93,115.73,304.68,64.1,257.35,115.49,281.56,645.2,300.83,"Mlynářská, Prague - Nové Město",50.0920451,14.4340658,"CZK 42,000",E,Very good,Brick,,,,Personal,Interior,Up to 10 years,Standard,,Gas boiler,,,,
"CZK 37,350","CZK 12,450",730539,2+kk,9/19/2022,68 m²,Fully furnished,2,,1.0,,170.48,421.6,257.32,426.75,52.86,339.7,54.65,63.39,473.33,754.41,"Balbínova, Prague - Vinohrady",50.0795659,14.4357789,,,,,,,,,,,,,,,,,
"CZK 18,000","CZK 4,500",582936,3+kk,9/1/2022,56 m²,Unfurnished,1,,,,231.73,136.03,189.78,194.29,137.29,225.81,43.12,382.88,71.25,292.35,"Saratovská, Prague - Strašnice",50.075045,14.492493,"CZK 36,000",G,Very good,Brick,1.0,,,Personal,Complete,,,,Central,,,,
"CZK 20,000","CZK 1,750",730536,2+kk,8/19/2022,65 m²,Fully furnished,1,,,1.0,467.09,1003.0,522.43,1785.3,521.26,624.12,460.18,394.67,481.92,205.34,Prague - Libuš,50.01273,14.44535,"CZK 40,000",D,Very good,Brick,,,,,,,,,,1.0,,,
"CZK 10,000","CZK 2,000",730532,Small studio,9/1/2022,21 m²,Unfurnished,3,,,,158.8,977.15,154.16,694.26,24.31,3.94,370.55,455.77,411.28,343.95,Prague - Strašnice,50.0688,14.49417,"CZK 10,000",G,Very good,Brick,1.0,,1.0,,,,,,,,,,
"CZK 13,000","CZK 4,000",158878,2 bedroom,9/1/2022,66 m²,Partly,1,1.0,,,244.6,612.83,698.78,287.69,483.23,557.1,533.02,321.29,1208.92,308.84,"Na Beránce, Prague - Dejvice",50.1007645,14.3642129,"CZK 13,000",,Very good,Brick,1.0,,,Personal,,,,,,,,,
"CZK 21,200","CZK 4,500",487779,2+kk,9/1/2022,53 m²,Fully furnished,4,1.0,1.0,,229.21,413.18,460.16,1578.34,194.59,1206.62,479.48,374.81,377.87,266.78,"Za Hládkovem, Prague - Střešovice",50.0892763,14.3838556,"CZK 21,200",C,Very good,Brick,,,,Personal,Complete,Up to 10 years,Standard,,Central,,,,
"CZK 30,000","CZK 4,000",730455,4+kk,9/1/2022,75 m²,Partly,2,,1.0,1.0,247.64,1134.25,797.93,954.31,604.14,1009.82,681.55,1051.65,671.69,96.45,Prague - Řeporyje,50.03934,14.32273,"CZK 50,000",G,Very good,Brick,1.0,,1.0,Personal,,Up to 10 years,Standard,,Distance,,,,
"CZK 12,000",CZK 750,730527,1 bedroom,9/1/2022,45 m²,Partly,4,,,,153.35,303.75,10.45,286.53,24.33,238.01,302.67,247.29,712.85,737.48,Prague - Vinohrady,50.07217,14.43243,"CZK 12,000",G,Good,Brick,,,,,,,,,,,,,
"CZK 25,900","CZK 2,700",558740,3+kk,10/1/2022,94 m²,Partly,1,1.0,,,93.85,153.95,23.81,257.54,16.23,257.06,307.72,502.7,285.55,255.73,"Oblouková, Prague - Vršovice",50.0670925,14.4558324,"CZK 47,800",G,Good,Brick,1.0,,,Personal,Interior,Over 50 years,Luxurious,,Gas boiler,,,,
"CZK 39,900","CZK 7,900",677432,2+kk,9/29/2022,96 m²,Fully furnished,3,1.0,1.0,,166.67,762.32,499.85,585.69,59.37,484.49,448.28,585.57,856.34,214.37,"Kobrova, Prague - Smíchov",50.07381,14.39677,"CZK 60,000",A,New-build,Low-energy,1.0,,1.0,Personal,,,,,,,1.0,,
"CZK 16,990",CZK 1,598795,2 bedroom,9/1/2022,50 m²,Fully furnished,1,,1.0,,84.28,452.15,71.02,142.91,110.43,317.24,25.0,395.09,493.4,511.97,"Černá, Prague - Nové Město",50.078786,14.418558,CZK 1,C,Good,Brick,,1.0,,Personal,,,Standard,,Central,,,,
"CZK 25,000","CZK 8,000",488207,3+kk,10/1/2022,68 m²,Partly,,,,1.0,136.58,210.07,741.46,5420.28,333.42,723.25,620.46,489.5,285.8,101.34,"Velkoosecká, Prague - Vinoř",50.1438182,14.576116,"CZK 50,000",D,Very good,Brick,,,1.0,Personal,,10 to 30 years,Standard,,Gas boiler,,1.0,,
"CZK 22,000","CZK 3,900",711232,2+kk,10/1/2022,52 m²,Fully furnished,6,,1.0,1.0,345.18,237.79,213.38,397.33,79.2,429.95,311.53,50.08,190.8,341.51,"Šrobárova, Prague - Vinohrady",50.07588,14.46436,"CZK 20,000",A,Very good,Brick,,,,Personal,,,,,Central,,,,
"CZK 19,000","CZK 3,000",606765,2+kk,10/1/2022,44 m²,Fully furnished,1,,,1.0,153.67,252.38,89.29,257.34,87.31,213.75,237.43,556.95,182.55,553.21,"Haškova, Prague - Holešovice",50.10085,14.427857,"CZK 30,000",C,New-build,Brick,1.0,,1.0,Personal,Complete,Up to 10 years,Luxurious,,Electric boiler,1.0,,,
"CZK 11,200","CZK 5,767",344341,1 bedroom,9/10/2022,44 m²,Fully furnished,2,,,,199.41,1049.72,59.09,1433.99,85.41,339.91,410.66,208.61,520.05,470.92,"Františka Kadlece, Prague - Libeň",50.1161741,14.4704328,"CZK 18,000",,Very good,Brick,1.0,,,Personal,Complete,Over 50 years,Standard,,Gas boiler,,,,
"CZK 8,000","CZK 3,500",544787,Small studio,9/1/2022,19 m²,Fully furnished,,,,,96.72,989.4,234.88,512.51,13.45,358.12,365.95,354.86,328.29,225.86,"Rašínovo nábřeží, Prague - Nové Město",50.0688474,14.415003,"CZK 11,343",,Very good,Brick,,,,Personal,,,Standard,,Central,,,,
"CZK 32,000","CZK 4,604",729774,3+kk,8/13/2022,91 m²,Unfurnished,3,,1.0,,326.52,558.95,229.44,287.34,32.38,621.26,339.05,1276.69,241.73,262.25,Prague - Bubeneč,50.10305,14.41876,"CZK 64,000",A,Very good,Brick,1.0,,,,,,,,,,,,
"CZK 24,000","CZK 2,000",598744,3+kk,10/2/2022,85 m²,Fully furnished,4,1.0,1.0,,115.53,352.7,188.46,234.83,19.05,250.91,142.2,132.99,357.83,638.91,"Italská, Prague - Vinohrady",50.078966,14.437273,"CZK 24,000",C,Very good,Brick,,,,Personal,,,Standard,,Gas boiler,,,,
"CZK 13,500","CZK 4,000",730513,2 bedroom,9/1/2022,54 m²,Partly,,,,,85.35,397.46,123.74,363.29,405.2,121.79,397.15,493.96,635.68,177.84,Prague - Petrovice,50.0385,14.56096,"CZK 13,500",G,Very good,Brick,,1.0,,,,,,,,,,,
"CZK 2,000",CZK 0,369211,Other,8/19/2022,9 m²,Unfurnished,1,,,,204.31,206.71,126.28,1523.05,151.11,979.08,947.47,574.14,754.43,155.95,"Svitákova, Prague - Stodůlky",50.0472687,14.3039981,CZK 0,,,Prefab concrete,,,1.0,Personal,,,,,,,1.0,,
"CZK 11,000","CZK 3,000",730511,Studio,8/19/2022,33 m²,Partly,-1,,,,247.83,1398.22,277.02,783.62,330.46,351.91,642.84,510.49,625.7,380.4,Prague - Bubeneč,50.11076,14.39564,"CZK 14,000",G,Very good,Brick,,,,,,,,,,,,,
"CZK 12,000","CZK 2,500",539826,Studio,8/25/2022,30 m²,Fully furnished,4,,1.0,,106.69,1004.83,438.32,1080.19,349.56,1069.73,125.65,214.07,1008.93,182.44,"Petržílova, Prague - Modřany",49.9994485,14.4222431,"CZK 14,000",,Very good,Prefab concrete,,,,Personal,Complete,10 to 30 years,Standard,,Distance,,,,
"CZK 24,000","CZK 4,581",730507,2+kk,8/19/2022,51 m²,Partly,3,,1.0,,5.5,119.53,144.99,81.0,97.26,280.1,373.91,435.92,558.18,711.41,Prague - Vinohrady,50.07659,14.43543,"CZK 48,000",E,Very good,Brick,1.0,,,,,,,1.0,,,,,
"CZK 12,500","CZK 4,000",729797,1 bedroom,8/14/2022,32 m²,Unfurnished,2,,,,163.43,376.94,529.84,358.49,140.79,303.78,427.42,269.77,315.68,302.35,Prague - Hloubětín,50.10624,14.53459,"CZK 12,500",G,Very good,Brick,1.0,,,,,,,,,,,,
"CZK 29,900",CZK 0,730506,4+kk,9/1/2022,110 m²,Partly,1,1.0,1.0,,90.95,663.85,103.33,402.38,15.51,371.51,274.26,552.81,289.52,278.14,Prague - Bubeneč,50.10016,14.40303,"CZK 29,900",G,Very good,Brick,1.0,,1.0,,,,,,,,,,
"CZK 14,500","CZK 4,500",459179,2+kk,8/15/2022,41 m²,Partly,8,,1.0,,202.98,776.1,334.11,511.79,277.82,386.78,173.19,350.18,839.96,141.01,"Litoměřická, Prague - Prosek",50.1188062,14.4937472,"CZK 20,000",C,Very good,Other,,,,Personal,,10 to 30 years,Standard,,Distance,,,,
"CZK 18,500","CZK 1,500",729792,2+kk,9/25/2022,51 m²,Fully furnished,2,,,,261.56,616.98,311.68,635.41,171.06,280.43,149.29,70.04,887.23,455.92,Prague - Hloubětín,50.10802,14.54224,"CZK 20,000",G,Very good,Brick,,,1.0,Personal,,,,,,,,,
"CZK 23,836","CZK 4,100",719023,Studio,8/1/2022,32 m²,Fully furnished,4,,1.0,,123.62,331.12,156.76,367.07,102.48,248.42,301.1,639.82,219.3,523.15,"Washingtonova, Prague - Nové Město",50.08065,14.431,"CZK 47,672",G,Very good,Brick,,,,Personal,Complete,Over 50 years,Standard,,Electric boiler,,,,
"CZK 12,500","CZK 4,000",572946,2 bedroom,8/19/2022,50 m²,Partly,2,,,,122.27,182.11,97.14,402.41,60.06,61.25,493.68,441.33,743.86,465.99,"Stanislava Kostky Neumanna, Prague - Libeň",50.1199188,14.4584538,"CZK 15,000",,,Brick,,,,Personal,,,,,,,,,
"CZK 18,750","CZK 6,250",729015,3+1,9/18/2022,90 m²,Fully furnished,2,,1.0,,82.8,397.93,96.94,404.98,135.48,353.78,131.46,217.55,654.74,661.34,"Blanická, Prague - Vinohrady",50.0746503,14.439294,,,,,,,,,,,,,,,,,
"CZK 19,575","CZK 6,525",730496,2 bedroom,9/9/2022,70 m²,Fully furnished,6,,1.0,,73.01,281.28,58.33,478.54,20.37,379.07,102.37,138.49,668.56,481.36,"Francouzská, Prague - Vinohrady",50.0739894,14.440101,,,,,,,,,,,,,,,,,
"CZK 33,000","CZK 11,000",719175,2 bedroom,8/22/2022,50 m²,Fully furnished,-1,,1.0,,210.86,382.06,250.08,989.18,169.53,744.75,811.66,1049.67,387.48,543.22,"Strakonická, Prague - Smíchov",50.0643299,14.4102127,,,,,,,,,,,,,,,,,
"CZK 17,000","CZK 4,000",728678,2+kk,8/4/2022,65 m²,Unfurnished,2,,,,287.55,835.04,124.2,980.53,396.62,297.16,462.97,263.08,511.43,65.12,Prague - Letňany,50.14089,14.50924,"CZK 17,000",B,Very good,Brick,,,,,,,,,,,,,
"CZK 22,500","CZK 4,280",728700,3+kk,8/5/2022,68 m²,Partly,4,,1.0,,227.19,694.52,292.56,947.84,372.07,273.0,572.29,459.35,1024.68,123.64,Prague - Chodov,50.02741,14.5197,"CZK 45,000",G,Very good,Prefab concrete,1.0,,,Personal,,,,1.0,Central,,,,
"CZK 16,000",CZK 0,730493,1 bedroom,8/19/2022,38 m²,Partly,5,,,,40.8,997.29,39.04,502.45,46.2,501.83,345.07,264.88,229.65,99.62,Prague - Libeň,50.10701,14.48859,"CZK 16,000",B,Very good,Brick,,,,,,,,,,,,,
"CZK 25,000","CZK 4,900",197587,2 bedroom,9/1/2022,61 m²,Unfurnished,3,,1.0,,280.18,564.46,136.33,351.39,55.11,370.66,313.06,353.83,691.04,109.51,"Baranova, Prague - Žižkov",50.0797815,14.4578475,"CZK 25,000",,,Brick,,,,Personal,,,,,,,,,
"CZK 57,000","CZK 19,000",724522,3+1,10/2/2022,130 m²,Fully furnished,3,,,,293.94,358.82,65.34,231.82,29.61,399.45,202.79,623.36,368.2,458.02,"Michalská, Prague - Staré Město",50.0859057,14.4200254,,,,,,,,,,,,,,,1.0,,
"CZK 25,808","CZK 8,602",725069,2 bedroom,9/23/2022,54 m²,Fully furnished,5,,,,221.57,827.75,176.34,604.4,98.94,602.74,417.35,332.18,571.22,245.6,"Bulharská, Prague - Vršovice",50.0720218,14.4618189,,,,,,,,,,,,,,,,,
"CZK 45,000","CZK 15,000",723086,2+kk,8/22/2022,70 m²,Fully furnished,4,,1.0,,285.3,547.87,69.97,206.93,9.84,222.16,245.36,617.77,369.53,523.86,"Ve Smečkách, Prague - Nové Město",50.0795975,14.4273504,,,,,,,,,,,,,,,,,
"CZK 12,000","CZK 4,500",729784,2+kk,9/1/2022,50 m²,Fully furnished,2,,1.0,,414.08,771.69,477.5,878.68,3.32,463.98,336.19,409.67,481.2,613.02,Prague - Nusle,50.06307,14.43003,"CZK 16,500",G,Very good,Brick,1.0,,,,,,,,,,,,
"CZK 15,500","CZK 2,800",730481,Studio,8/26/2022,35 m²,Fully furnished,2,,1.0,,218.2,368.06,1015.29,927.42,502.93,464.65,756.19,1241.26,506.8,171.4,Prague - Letňany,50.13773,14.51998,"CZK 18,300",B,New-build,Low-energy,,,,,,,,,,1.0,,,
"CZK 13,000","CZK 3,000",427148,Studio,9/5/2022,30 m²,Fully furnished,4,,1.0,,334.17,367.16,72.02,316.07,119.71,569.49,203.31,445.94,904.96,247.86,Prague - Vinohrady,50.0791658,14.4544714,"CZK 16,000",B,,Brick,,,,Personal,,,,,,,,,
"CZK 15,000","CZK 4,500",573173,2+kk,9/16/2019,48 m²,Fully furnished,8,1.0,,,202.83,830.23,30.37,642.13,256.73,364.02,470.51,110.03,825.61,111.39,"Šiškova, Prague - Kobylisy",50.1290279,14.4611701,"CZK 15,000",,,Prefab concrete,,,,Cooperative,Interior,,Standard,,Central,,,,
"CZK 16,000","CZK 4,500",729781,2 bedroom,9/30/2022,58 m²,Partly,2,,,,110.54,815.17,478.87,513.94,156.65,496.26,497.49,582.69,1174.39,298.25,Prague - Břevnov,50.08736,14.3389,"CZK 20,500",G,Very good,Brick,,,1.0,,,,,,,,,,
"CZK 12,000","CZK 3,500",730478,2+kk,9/1/2022,46 m²,Partly,3,,,,225.43,574.02,73.71,488.02,372.56,473.94,197.36,301.9,1112.72,245.33,Prague - Stodůlky,50.04732,14.34568,"CZK 15,500",G,Very good,Prefab concrete,,,,,,,,,,,,,
"CZK 12,000","CZK 1,500",730420,2+kk,8/18/2022,40 m²,Partly,2,,,,115.96,702.32,13.42,327.37,67.49,406.91,363.64,153.16,192.59,178.95,Prague - Nusle,50.0608,14.42675,"CZK 12,000",G,Very good,Brick,,,,,,,,,,,,,
"CZK 39,000","CZK 7,500",730479,3+1,8/19/2022,120 m²,Partly,6,,1.0,1.0,257.07,413.9,172.69,369.66,65.95,126.45,206.73,296.92,511.52,310.58,Prague - Nové Město,50.07662,14.42275,"CZK 78,000",G,Very good,Brick,,,,,,,,,,,,,
"CZK 14,500","CZK 5,500",605928,1 bedroom,10/1/2022,51 m²,Fully furnished,1,,,1.0,183.47,686.2,229.3,214.79,146.92,354.99,577.44,572.39,517.85,250.6,"Žerotínova, Prague - Žižkov",50.08849,14.464717,"CZK 20,000",B,Very good,Low-energy,,,,Personal,Complete,Up to 10 years,Luxurious,,Electric boiler,,,,
"CZK 44,000","CZK 6,000",358804,4+kk,9/1/2022,130 m²,Fully furnished,2,1.0,,,332.93,544.63,139.18,267.34,39.05,305.02,264.26,587.07,297.42,107.97,"Betlémské náměstí, Prague - Staré Město",50.0840811,14.4176178,CZK 2,,,Brick,,,,Personal,Complete,,,,,,1.0,,
"CZK 19,000","CZK 4,000",730475,2+kk,9/1/2022,64 m²,Fully furnished,3,1.0,1.0,1.0,247.89,1108.36,533.04,847.42,633.42,523.48,669.46,704.58,1693.36,179.03,Prague - Jinonice,50.05701,14.34663,"CZK 30,000",G,New-build,Brick,1.0,,1.0,,,,,1.0,,1.0,1.0,,
"CZK 37,125","CZK 12,375",726070,2 bedroom,9/30/2022,90 m²,Fully furnished,2,,1.0,,73.01,281.28,58.33,478.54,20.37,379.07,102.37,138.49,668.56,481.36,"Francouzská, Prague - Vinohrady",50.0739894,14.440101,,,,,,,,,,,,,,,,,
"CZK 47,025","CZK 15,675",726069,3+1,9/18/2022,90 m²,Fully furnished,2,,1.0,,82.8,397.93,96.94,404.98,135.48,353.78,131.46,217.55,654.74,661.34,"Blanická, Prague - Vinohrady",50.0746503,14.439294,,,,,,,,,,,,,,,,,
"CZK 24,225","CZK 8,075",725228,2+kk,9/22/2022,40 m²,Fully furnished,1,,,,29.42,633.78,151.61,536.89,130.46,316.51,391.7,900.17,984.89,128.97,"Šporkova, Prague - Malá Strana",50.0876289,14.3978335,,,,,,,,,,,,,,,,,
"CZK 16,000","CZK 4,000",633016,2+kk,11/1/2022,55 m²,Partly,2,1.0,1.0,,214.85,111.86,183.29,1264.57,201.57,1099.51,477.0,709.91,746.45,109.54,"Hugo Haase, Prague - Hlubočepy",50.029126,14.363101,"CZK 30,000",B,New-build,Low-energy,,,1.0,Cooperative,,,Luxurious,,Central,1.0,,,
"CZK 25,380","CZK 8,460",723857,2 bedroom,9/5/2022,35 m²,Fully furnished,5,,,,220.05,826.22,174.81,602.88,97.41,601.22,415.82,330.65,569.7,247.12,"Bulharská, Prague - Vršovice",50.0719625,14.461813,,,,,,,,,,,,,,,,,
"CZK 12,000","CZK 5,000",730464,2+kk,8/19/2022,34 m²,Partly,1,,,1.0,246.8,554.23,143.24,855.98,293.39,547.38,182.42,375.49,1055.46,494.33,Prague - Košíře,50.07001,14.38251,"CZK 25,000",E,Very good,Brick,,,,,,,,,,,,,
"CZK 20,250","CZK 6,750",728265,2 bedroom,10/1/2022,48 m²,Fully furnished,1,1.0,,1.0,391.21,523.69,852.19,2051.14,481.77,1805.15,1748.87,917.01,838.92,1086.22,"Nad Kazankou, Prague - Troja",50.1179747,14.4268704,,,,,,,,,,,,,,,,,
"CZK 37,620","CZK 12,540",728258,2 bedroom,10/1/2022,54 m²,Fully furnished,7,,1.0,,379.66,564.73,5.21,191.31,38.84,242.1,65.9,705.75,343.76,422.75,"Michalská, Prague - Staré Město",50.0846396,14.4202484,,,,,,,,,,,,,,,,,
"CZK 28,425","CZK 9,475",728696,2+kk,10/4/2022,45 m²,Fully furnished,5,,,,120.02,538.45,85.43,335.62,47.85,333.62,182.79,195.16,543.36,341.26,"Lípová, Prague - Nové Město",50.0747395,14.424046,,,,,,,,,,,,,,,,,
"CZK 37,500","CZK 12,500",720700,2+kk,9/12/2022,60 m²,Fully furnished,2,,1.0,,241.61,542.2,98.71,270.79,176.01,313.55,455.64,821.55,633.96,593.3,"Mečislavova, Prague - Nusle",50.0633237,14.4440058,,,,,,,,,,,,,,,,,
"CZK 23,624","CZK 7,875",728891,3+kk,9/10/2022,63 m²,Fully furnished,5,,,,205.2,814.61,229.97,533.27,206.46,282.56,446.62,227.35,110.18,111.62,"U školičky, Prague - Libeň",50.1085928,14.4915135,,,,,,,,,,,,,,,,,
"CZK 39,000","CZK 13,000",729613,2 bedroom,10/11/2022,72 m²,Fully furnished,3,,1.0,,73.01,281.28,58.33,478.54,20.37,379.07,102.37,138.49,668.56,481.36,"Francouzská, Prague - Vinohrady",50.0739894,14.440101,,,,,,,,,,,,,,,,,
"CZK 51,656","CZK 17,219",728895,2 bedroom,10/6/2022,60 m²,Fully furnished,4,,1.0,,110.1,392.87,177.02,129.22,79.72,168.29,299.92,497.22,273.67,349.66,"Dlážděná, Prague - Nové Město",50.0865843,14.4323212,,,,,,,,,,,,,,,,,
"CZK 29,250","CZK 9,750",724407,2 bedroom,9/19/2022,65 m²,Fully furnished,4,,1.0,,163.79,319.88,110.55,226.38,103.86,407.78,227.16,243.22,785.75,360.1,"Na Zbořenci, Prague - Nové Město",50.0769346,14.4169603,,,,,,,,,,,,,,,,,
"CZK 48,000","CZK 16,000",717684,3+1,9/18/2022,72 m²,Fully furnished,5,,1.0,,273.55,299.9,80.57,586.7,68.95,312.33,103.27,252.88,792.89,567.68,"Americká, Prague - Vinohrady",50.0718291,14.4385892,,,,,,,,,,,,,,,,,
"CZK 20,175","CZK 6,725",730457,2 bedroom,10/18/2022,45 m²,Fully furnished,2,1.0,,1.0,96.67,37.66,69.14,277.48,76.65,278.13,389.25,493.6,305.5,309.48,"Sportovní, Prague - Vršovice",50.0667869,14.4553047,,,,,,,,,,,,,,,,,
"CZK 36,338","CZK 12,112",728972,5+kk,9/20/2022,180 m²,Fully furnished,1,1.0,,1.0,710.63,2420.81,2011.34,2281.37,826.06,2150.45,2487.2,2253.5,2584.79,783.97,"Ibišková, Prague - Křeslice",50.0183023,14.5625656,,,,,,,,,,,,,,,1.0,,
"CZK 17,500","CZK 6,388",730433,2 bedroom,8/18/2022,53 m²,Partly,3,,,,126.61,867.92,116.61,599.34,153.68,205.03,423.19,810.05,332.86,236.35,Prague - Strašnice,50.07076,14.48734,"CZK 40,000",C,Good,Brick,1.0,,,,,,,,,,,,
"CZK 20,000","CZK 3,500",474374,3+kk,6/1/2022,72 m²,Partly,3,1.0,1.0,,89.61,422.46,487.67,590.76,265.68,426.8,499.48,593.53,271.32,350.7,"Pod Jarovem, Prague - Žižkov",50.0895199,14.4891951,"CZK 40,000",,,Prefab concrete,,,,Cooperative,,,,1.0,,,,,
"CZK 31,050","CZK 10,350",730431,3+1,9/3/2022,111 m²,Fully furnished,1,1.0,,1.0,208.61,131.46,936.81,2564.81,336.74,613.32,243.84,2102.93,1889.94,338.05,"K Zámku, Prague - Dolní Počernice",50.0890765,14.5799076,,,,,,,,,,,,,,,,,
"CZK 18,000","CZK 2,000",730427,2 bedroom,8/18/2022,50 m²,Partly,2,,,,45.71,924.4,146.26,646.66,8.7,711.02,847.67,166.72,774.55,203.9,Prague - Smíchov,50.06215,14.38988,"CZK 36,000",G,Very good,Brick,1.0,,,,Complete,,,,Electric boiler,,,,
"CZK 15,200","CZK 2,000",730425,2+kk,8/18/2022,31 m²,Partly,2,,,,45.71,924.4,146.26,646.66,8.7,711.02,847.67,166.72,774.55,203.9,Prague - Smíchov,50.06215,14.38988,"CZK 30,400",G,Very good,Brick,,,,,Complete,,Standard,,Electric boiler,,,,
"CZK 15,200","CZK 4,000",730424,2+kk,8/18/2022,42 m²,Partly,1,,,,227.15,66.88,146.28,271.17,170.26,203.31,427.6,447.6,1166.67,323.13,Prague - Vokovice,50.09663,14.36195,"CZK 20,000",G,Very good,Brick,1.0,,,,,,,,,,,,
"CZK 12,500","CZK 2,000",730422,Studio,8/18/2022,23 m²,Partly,3,,,,45.71,924.4,146.26,646.66,8.7,711.02,847.67,166.72,774.55,203.9,Prague - Smíchov,50.06215,14.38988,"CZK 25,000",G,Very good,Brick,,,,,Complete,,Standard,,Electric boiler,,,,
"CZK 33,000","CZK 5,500",495695,3+kk,8/26/2022,91 m²,Partly,2,1.0,1.0,1.0,512.42,1076.18,402.55,1285.01,637.46,387.31,486.74,785.09,1276.2,206.27,"Učňovská, Prague - Hrdlořezy",50.0938697,14.5043048,CZK 0,,,Brick,1.0,,1.0,Personal,,Up to 10 years,Luxurious,,Central,1.0,1.0,,
"CZK 17,990","CZK 5,013",730413,3+1,8/21/2022,67 m²,Partly,8,,1.0,,142.33,1028.73,157.64,1021.39,379.02,436.55,471.91,701.13,557.49,431.47,"Olbramovická, Prague - Kamýk",50.01687861111,14.43642138888,"CZK 23,003",G,Very good,Prefab concrete,1.0,,,Personal,,,,1.0,,,,"CZK 23,003",
"CZK 17,500","CZK 2,500",404507,2+kk,8/15/2022,44 m²,Unfurnished,3,1.0,1.0,,314.12,465.35,344.55,234.05,291.91,454.65,173.32,780.57,389.91,135.89,Prague - Podolí,50.0561286,14.4214707,"CZK 25,000",,Very good,Brick,1.0,,1.0,Personal,Complete,,Standard,,Central,,,,
"CZK 29,850","CZK 9,950",728156,2+kk,10/16/2022,50 m²,Fully furnished,3,,1.0,,75.01,890.63,40.68,622.44,47.2,145.83,371.43,242.4,512.42,352.71,"Kubelíkova, Prague - Žižkov",50.0815843,14.4461973,,,,,,,,,,,,,,,,,
"CZK 14,000","CZK 3,920",730406,2+kk,8/18/2022,43 m²,Partly,2,1.0,1.0,,287.95,1241.38,478.44,1198.51,674.52,400.63,173.81,607.72,690.23,341.2,Prague - Kamýk,50.01581,14.43237,"CZK 28,000",G,Very good,Prefab concrete,1.0,,,,,,,,,,,,
"CZK 16,800","CZK 3,000",672157,Studio,10/1/2022,39 m²,Fully furnished,5,,1.0,,214.78,770.16,112.91,542.34,94.12,575.84,358.02,504.27,554.92,114.22,"Eliášova, Prague - Bubeneč",50.10222,14.40304,"CZK 25,000",G,Very good,Brick,1.0,,,Personal,,,,,,,,,
"CZK 19,800","CZK 6,600",726085,3+1,10/4/2022,90 m²,Fully furnished,5,,1.0,,82.8,397.93,96.94,404.98,135.48,353.78,131.46,217.55,654.74,661.34,"Blanická, Prague - Vinohrady",50.0746503,14.439294,,,,,,,,,,,,,,,,,
"CZK 15,000","CZK 5,000",730398,2+kk,9/15/2022,54 m²,Partly,2,,,,60.74,738.0,272.64,1093.95,101.41,576.03,488.78,430.55,388.92,367.0,Prague - Smíchov,50.06497,14.39291,"CZK 30,000",E,Very good,Brick,1.0,1.0,,,,,,,,,,,
"CZK 20,000",CZK 0,728043,2+kk,8/6/2022,50 m²,Unfurnished,2,1.0,,,472.29,943.14,661.04,1348.71,676.16,989.59,1050.16,1126.49,1467.83,658.23,Prague - Kyje,50.11055,14.56754,"CZK 40,000",A,New-build,Brick,,,1.0,Personal,,,Standard,,Central,1.0,,,
"CZK 13,000","CZK 1,800",606075,Studio,10/15/2022,33 m²,Partly,,,1.0,,222.73,785.34,68.49,304.09,22.82,400.27,445.1,199.39,498.47,434.16,"Podskalská, Prague - Nové Město",50.071165,14.415031,"CZK 18,000",,Very good,Brick,,,1.0,Cooperative,,,,,,,,,
"CZK 24,500","CZK 4,000",729741,3+1,8/13/2022,83 m²,Fully furnished,3,,1.0,,147.89,285.42,46.75,257.02,48.45,141.75,104.95,327.3,312.31,377.4,Prague - Žižkov,50.08542,14.45316,"CZK 36,750",G,Very good,Other,,,1.0,,,,,,,,1.0,,
"CZK 5,400","CZK 1,885",297667,Other,9/1/2022,15 m²,Partly,4,,,,44.64,207.7,69.77,7.13,59.63,116.21,224.27,733.3,153.34,317.49,"Bělohorská, Prague - Břevnov",50.0834741,14.3630878,"CZK 7,280",F,,Brick,,,,Personal,Complete,,Standard,,Gas boiler,,,,
"CZK 19,000","CZK 4,000",249879,2+kk,10/1/2022,66 m²,Fully furnished,2,,1.0,,372.23,943.38,625.63,1057.02,355.45,903.11,637.89,793.73,557.5,136.86,"Švejcarovo náměstí, Prague - Stodůlky",50.0361776,14.3299157,"CZK 46,000",,Very good,Brick,,,1.0,Personal,,,,1.0,Electric boiler,,,,
"CZK 30,000","CZK 10,000",718922,Studio,9/11/2022,45 m²,Fully furnished,5,,1.0,,241.61,542.2,98.71,270.79,176.01,313.55,455.64,821.55,633.96,593.3,"Mečislavova, Prague - Nusle",50.0633237,14.4440058,,,,,,,,,,,,,,,,,
"CZK 12,500","CZK 4,200",670237,1 bedroom,9/1/2022,39 m²,Fully furnished,3,,1.0,,244.54,899.67,113.74,654.9,134.13,190.73,393.85,541.74,434.58,364.77,"Ke Strašnické, Prague - Strašnice",50.069633,14.494844,"CZK 20,000",G,Very good,Brick,1.0,,1.0,Personal,Interior,,,,Central,,,,
"CZK 30,000","CZK 5,000",413976,4+kk,10/1/2022,111 m²,Partly,2,1.0,1.0,1.0,239.09,979.8,527.41,944.98,440.24,499.97,912.62,449.03,393.93,401.17,"Melodická, Prague - Stodůlky",50.0515016,14.3302032,"CZK 36,000",C,,Brick,,,,Personal,,,,,Central,1.0,1.0,,
"CZK 13,000","CZK 2,000",566063,Studio,8/19/2022,35 m²,Fully furnished,2,,1.0,,109.69,700.32,595.59,675.23,618.74,365.46,269.82,158.56,888.13,70.43,"Laudova, Prague - Řepy",50.0683118,14.3123636,"CZK 26,000",D,Very good,Prefab concrete,,,,Personal,Interior,30 - 50 years,Standard,,Distance,,,,
"CZK 23,000","CZK 2,000",510077,3+1,9/1/2022,74 m²,Partly,3,,,,88.58,653.66,405.19,613.73,454.33,427.44,306.07,248.82,1240.24,316.76,"Novodvorská, Prague - Braník",50.027717,14.4287618,"CZK 44,000",,,Brick,1.0,,,Personal,Complete,,Standard,,Central,,,,
"CZK 10,000",CZK 490,524713,Small studio,9/1/2022,20 m²,Partly,,,,,240.99,682.97,337.4,622.75,264.31,474.4,1014.21,621.31,729.24,115.33,Prague - Dejvice,50.0981882,14.3707895,"CZK 16,000",G,,Brick,1.0,,,Personal,Complete,,Standard,,Other,,,,
"CZK 10,500","CZK 2,000",597400,Small studio,9/1/2022,22 m²,Unfurnished,1,,,,95.04,732.43,109.54,315.94,102.2,56.39,560.57,736.83,1049.15,353.35,"Trojská, Prague - Kobylisy",50.121955,14.4518,"CZK 13,500",G,Good,Brick,,,,Personal,Complete,Up to 10 years,Standard,,Other,,,,
"CZK 34,500","CZK 11,500",728709,2+kk,10/8/2022,45 m²,Fully furnished,6,,1.0,,73.01,281.28,58.33,478.54,20.37,379.07,102.37,138.49,668.56,481.36,"Francouzská, Prague - Vinohrady",50.0739894,14.440101,,,,,,,,,,,,,,,,,
"CZK 16,500",CZK 0,730381,1 bedroom,10/1/2022,46 m²,Fully furnished,5,,,,266.48,680.57,341.5,362.64,201.55,370.26,247.51,544.13,680.05,142.75,Prague - Michle,50.04544,14.45215,"CZK 30,000",G,Very good,Brick,1.0,,,,,,,,,,,,
"CZK 25,500","CZK 5,000",673369,3+kk,9/1/2022,77 m²,Unfurnished,2,1.0,1.0,,0.0,1088.74,986.61,2536.53,657.22,1183.26,1009.64,1934.96,676.02,856.46,"Stochovská, Prague - Ruzyně",50.0841721,14.3121812,"CZK 25,500",B,New-build,Brick,1.0,,1.0,Personal,,Up to 10 years,Standard,,Central,1.0,1.0,,
"CZK 18,000","CZK 6,000",730380,2 bedroom,9/12/2022,55 m²,Partly,3,1.0,,,285.0,683.04,335.12,701.47,175.21,222.72,161.25,136.16,909.99,463.46,Prague - Hloubětín,50.10834,14.54234,"CZK 16,000",G,Very good,Brick,,,,,,,,,,,,,
"CZK 28,425","CZK 9,475",729524,Studio,8/22/2022,30 m²,Fully furnished,3,,1.0,,210.86,390.29,319.5,985.86,301.65,338.01,858.33,290.45,385.77,539.9,"Strakonická, Prague - Smíchov",50.0643299,14.4102127,,,,,,,,,,,,,,,,,
"CZK 21,019","CZK 7,006",729938,Studio,10/1/2022,32 m²,Fully furnished,1,,,,447.58,805.32,396.64,450.11,197.32,945.56,256.47,627.41,458.07,336.59,"Nad Kolčavkou A, Prague - Libeň",50.1080609,14.4828384,,,,,,,,,,,,,,,,,
"CZK 16,500","CZK 5,500",554329,2+kk,9/26/2022,49 m²,Partly,3,1.0,,,53.93,1077.26,371.37,1459.79,267.87,601.61,689.56,1888.92,880.79,507.37,Prague - Radotín,49.9771246,14.3504332,"CZK 33,000",B,New-build,Brick,,,,Personal,,Up to 10 years,Luxurious,,Central,1.0,,,
"CZK 15,500","CZK 3,500",700035,2+kk,1/21/2022,50 m²,Fully furnished,7,,1.0,,146.6,1885.82,1048.5,1644.68,378.3,1292.34,740.14,1353.48,1244.54,662.27,"Pískařská, Prague - Modřany",50.013,14.40077,"CZK 15,500",D,New-build,Brick,,,,Personal,,,,,Distance,1.0,1.0,,
"CZK 34,920","CZK 11,640",728102,2 bedroom,8/31/2022,52 m²,Fully furnished,5,,1.0,,99.55,314.58,150.34,67.01,34.6,412.05,133.24,331.05,397.28,726.22,"Vinohradská, Prague - Vinohrady",50.0779159,14.4375296,,,,,,,,,,,,,,,,,
"CZK 11,999",CZK 1,393325,3+kk,12/1/2021,80 m²,Partly,4,1.0,,,223.51,319.98,215.63,105.13,77.74,309.27,96.87,566.4,507.29,77.83,"Nedvědovo náměstí, Prague - Podolí",50.0574231,14.4221377,"CZK 11,999",,,Brick,,,,Other,,,,,,,,,
"CZK 21,500","CZK 1,400",729511,2 bedroom,8/11/2022,57 m²,Partly,2,,1.0,,267.75,1301.32,208.94,1122.02,496.69,676.19,348.18,214.56,1000.15,110.09,Prague - Strašnice,50.07119,14.50355,"CZK 43,000",G,Very good,Brick,1.0,,,,,,,,,,,,
"CZK 21,000","CZK 5,500",729722,3+kk,9/15/2022,66 m²,Partly,10,1.0,1.0,,223.77,1415.04,282.97,1508.49,412.06,312.09,282.03,672.86,1553.34,348.25,Prague - Chodov,50.02367,14.51523,"CZK 42,000",C,Very good,Prefab concrete,1.0,,,,,,,,,,,,
"CZK 28,350","CZK 9,450",730350,2 bedroom,8/22/2022,75 m²,Fully furnished,3,,1.0,,286.21,293.35,195.84,193.77,92.11,378.02,243.35,1039.65,522.33,334.73,"Čechova, Prague - Bubeneč",50.1016621,14.4210737,,,,,,,,,,,,,,,,,
"CZK 39,600","CZK 13,200",717648,2+kk,9/23/2022,46 m²,Fully furnished,2,,,,249.05,258.88,108.69,237.41,65.07,536.83,294.74,273.73,806.33,231.2,"Míšeňská, Prague - Malá Strana",50.0876118,14.4080467,,,,,,,,,,,,,,,,,
"CZK 19,725","CZK 6,575",730349,2 bedroom,10/15/2022,90 m²,Fully furnished,6,,1.0,,73.01,281.28,58.33,478.54,20.37,379.07,102.37,138.49,668.56,481.36,"Francouzská, Prague - Vinohrady",50.0739894,14.440101,,,,,,,,,,,,,,,,,
"CZK 19,900","CZK 5,000",730344,2 bedroom,8/18/2022,61 m²,Fully furnished,4,,,,201.58,1053.15,693.11,1257.44,290.29,956.58,761.47,1370.07,215.61,162.54,Prague - Střešovice,50.09338,14.36867,"CZK 39,800",G,Very good,Brick,,,,,,,,1.0,,,,,
"CZK 15,500","CZK 2,000",730343,2 bedroom,8/21/2022,45 m²,Partly,4,,1.0,,253.24,389.63,317.7,416.57,213.66,282.78,439.7,625.37,780.98,303.98,Prague - Smíchov,50.06695,14.40244,"CZK 20,000",C,Very good,Brick,,,1.0,,,,,,,,,,
"CZK 14,500","CZK 3,000",730232,2+kk,10/1/2022,45 m²,Unfurnished,5,,,,166.51,799.4,73.38,528.54,200.99,219.13,511.1,608.43,415.69,232.44,Prague - Nusle,50.06562,14.42897,"CZK 15,220",G,Very good,Brick,,,,,,,,,,,,,
"CZK 20,000","CZK 5,000",730335,3+1,9/1/2022,85 m²,Fully furnished,1,1.0,,,522.44,2248.42,593.67,1951.67,392.1,1097.7,1041.73,591.18,1043.45,519.84,Prague - Břevnov,50.07852,14.32766,"CZK 45,000",G,Very good,Brick,,,1.0,,,,,,,,,,
"CZK 53,510","CZK 17,836",725486,4+1,10/2/2022,110 m²,Fully furnished,7,1.0,1.0,1.0,348.55,940.69,207.03,294.37,97.8,272.7,322.85,445.04,400.99,361.6,"Divadelní, Prague - Staré Město",50.0824664,14.4140344,,,,,,,,,,,,,,,,,
"CZK 42,075","CZK 14,025",726062,2 bedroom,9/26/2022,80 m²,Fully furnished,6,,1.0,,73.01,281.28,58.33,478.54,20.37,379.07,102.37,138.49,668.56,481.36,"Francouzská, Prague - Vinohrady",50.0739894,14.440101,,,,,,,,,,,,,,,,,
"CZK 33,825","CZK 11,275",726076,2 bedroom,9/15/2022,79 m²,Fully furnished,5,,1.0,,270.45,1172.6,186.32,213.17,97.89,229.78,181.65,481.59,415.95,182.56,"Neklanova, Prague - Vyšehrad",50.0667103,14.4200265,,,,,,,,,,,,,,,,,
"CZK 23,625","CZK 7,875",724916,Studio,9/5/2022,35 m²,Fully furnished,1,1.0,1.0,1.0,228.77,340.86,232.94,732.64,115.16,426.24,319.01,539.74,497.03,358.92,"U Nikolajky, Prague - Smíchov",50.0656652,14.3917771,,,,,,,,,,,,,,,1.0,,
"CZK 22,500","CZK 5,500",726148,2 bedroom,9/1/2022,67 m²,Partly,2,1.0,1.0,,732.67,524.1,711.78,1524.96,305.51,1047.89,590.4,485.73,128.14,417.23,Prague - Střešovice,50.08958,14.38264,"CZK 28,000",G,Very good,Brick,1.0,,1.0,Personal,Complete,,,,Central,,,,
"CZK 37,500","CZK 12,500",725775,2+kk,9/11/2022,60 m²,Fully furnished,4,,1.0,,239.73,541.75,45.52,270.79,35.61,285.18,465.63,625.46,639.52,581.38,"Mečislavova, Prague - Nusle",50.0633237,14.4440058,,,,,,,,,,,,,,,,,
"CZK 21,750","CZK 7,250",728426,Studio,10/2/2022,25 m²,Fully furnished,12,,1.0,,228.88,257.2,204.55,166.76,173.2,262.96,328.04,408.55,436.47,292.09,"Freyova, Prague - Vysočany",50.108944,14.501028,,,,,,,,,,,,,,,,,
"CZK 20,625","CZK 6,875",728424,2 bedroom,10/2/2022,45 m²,Fully furnished,10,,1.0,,256.77,316.9,138.95,255.27,129.78,146.97,532.26,445.84,886.9,24.33,"Jablonecká, Prague - Střížkov",50.1245336,14.4947443,,,,,,,,,,,,,,,,,
"CZK 38,040","CZK 12,680",724143,2 bedroom,8/22/2022,70 m²,Fully furnished,5,,,,92.39,704.33,6.31,418.26,11.89,396.59,447.42,561.87,517.82,191.93,"Karoliny Světlé, Prague - Staré Město",50.0841726,14.4139535,,,,,,,,,,,,,,,,,
"CZK 60,000","CZK 20,000",717693,2+kk,8/22/2022,,Fully furnished,3,,,,177.2,646.63,182.16,39.81,37.58,122.34,27.5,101.85,349.84,194.18,"Ječná, Prague - Nové Město",50.0757302,14.4269087,,,,,,,,,,,,,,,,,
"CZK 32,250","CZK 10,750",727477,Studio,9/25/2022,27 m²,Fully furnished,4,,1.0,,275.28,321.52,72.5,617.26,60.27,467.19,25.57,60.76,793.43,562.96,"Americká, Prague - Vinohrady",50.0717643,14.4385436,,,,,,,,,,,,,,,,,
"CZK 29,925","CZK 9,975",723520,1 bedroom,8/22/2022,30 m²,Fully furnished,3,,1.0,,22.29,481.37,107.82,95.32,6.34,158.39,351.4,425.94,380.79,468.94,"Legerova, Prague - Vinohrady",50.0749602,14.4305105,,,,,,,,,,,,,,,,,
"CZK 21,000","CZK 7,000",728694,2 bedroom,10/4/2022,53 m²,Fully furnished,9,,1.0,,125.93,351.52,458.39,239.89,349.44,469.18,335.68,124.41,1424.09,330.78,"Arabská, Prague - Vokovice",50.0992269,14.3632307,,,,,,,,,,,,,,,,,
"CZK 33,000","CZK 11,000",728257,3+kk,10/1/2022,80 m²,Fully furnished,2,,,,156.94,402.05,153.34,284.97,151.52,248.16,393.35,447.14,193.37,153.39,"Anežská, Prague - Staré Město",50.0920126,14.4239059,,,,,,,,,,,,,,,,,
"CZK 29,250","CZK 9,750",725020,2 bedroom,9/19/2022,65 m²,Fully furnished,3,,1.0,,163.79,319.88,110.55,226.38,103.86,407.78,227.16,243.22,785.75,360.1,"Na Zbořenci, Prague - Nové Město",50.0769346,14.4169603,,,,,,,,,,,,,,,,,
"CZK 27,195","CZK 9,065",730051,2+kk,10/15/2022,50 m²,Fully furnished,1,1.0,,1.0,255.31,501.77,459.42,715.23,218.51,523.94,431.76,479.05,374.11,261.13,"Na Balkáně, Prague - Žižkov",50.095259,14.4941569,,,,,,,,,,,,,,,,,
"CZK 25,500","CZK 8,500",730328,2+kk,10/17/2022,67 m²,Fully furnished,2,1.0,1.0,1.0,190.62,1447.15,484.7,1260.45,182.11,737.34,559.67,596.72,660.13,404.95,"V Zahradách, Prague - Libeň",50.1148427,14.4750191,,,,,,,,,,,,,,,1.0,,
"CZK 47,340","CZK 15,780",717682,2+kk,8/22/2022,69 m²,Fully furnished,6,1.0,1.0,1.0,104.56,349.59,143.75,145.93,108.83,150.53,431.56,393.96,289.53,329.01,"Na Maninách, Prague - Holešovice",50.1025661,14.4522431,,,,,,,,,,,,,,,,,
"CZK 38,000","CZK 4,000",730311,3+1,8/22/2022,135 m²,Unfurnished,1,,,,245.95,829.21,271.92,437.76,294.35,431.58,604.69,77.33,429.89,205.19,Prague - Vinohrady,50.08084,14.44272,"CZK 60,000",C,Very good,Brick,,,,,,,,,,,,,
"CZK 17,000","CZK 5,000",730297,Studio,9/1/2022,38 m²,Fully furnished,5,1.0,1.0,,280.58,594.53,280.71,334.69,330.61,408.9,573.31,547.03,561.08,221.57,Prague - Strašnice,50.07897,14.48762,"CZK 34,000",C,Very good,Low-energy,,,1.0,,,,,,,,,,
"CZK 26,363","CZK 8,787",729443,1 bedroom,9/7/2022,46 m²,Fully furnished,2,,,,450.08,851.94,613.97,1216.3,634.57,923.06,534.48,156.81,999.06,301.07,"U Pernikářky, Prague - Smíchov",50.0745289,14.3827184,,,,,,,,,,,,,,,,,
"CZK 29,925","CZK 9,975",717597,1 bedroom,8/28/2022,30 m²,Fully furnished,2,,1.0,,22.29,463.39,80.9,95.69,72.35,158.42,361.29,435.63,383.68,450.56,"Legerova, Prague - Vinohrady",50.0749602,14.4305105,,,,,,,,,,,,,,,,,
"CZK 25,920","CZK 8,640",730156,2+kk,9/1/2022,50 m²,Fully furnished,2,,1.0,,256.88,230.57,115.16,212.72,190.01,251.36,415.49,530.5,578.5,441.78,"Čajkovského, Prague - Žižkov",50.0830128,14.4521943,,,,,,,,,,,,,,,,,
"CZK 27,000","CZK 7,000",601657,3+kk,9/1/2022,92 m²,Fully furnished,1,,,,385.44,258.55,28.35,299.17,17.26,478.16,328.59,513.48,872.36,214.33,"Jagellonská, Prague - Vinohrady",50.079319,14.453,"CZK 30,000",G,Very good,Brick,,,,Personal,Interior,Up to 10 years,Standard,,Gas boiler,,,,
"CZK 18,000","CZK 5,000",730300,2+kk,9/1/2022,70 m²,Partly,4,1.0,,,246.08,288.42,5.77,372.0,138.71,577.97,125.8,715.83,535.91,371.62,Prague - Malá Strana,50.07977,14.40686,"CZK 20,000",G,New-build,Brick,,,,,,,,,,,,,
"CZK 23,000","CZK 3,869",728906,2+kk,9/1/2022,52 m²,Fully furnished,2,,1.0,,100.67,552.16,76.41,168.19,45.96,95.08,323.13,505.31,539.03,607.16,Prague - Vinohrady,50.0739,14.43092,"CZK 40,000",B,Very good,Brick,,,,Personal,Complete,,Standard,,,,,,
"CZK 31,590","CZK 10,530",722787,1 bedroom,9/5/2022,52 m²,Fully furnished,3,,1.0,,194.81,408.3,97.23,765.36,41.67,716.59,415.49,296.07,511.26,224.74,"Rybalkova, Prague - Vinohrady",50.0719171,14.4429188,,,,,,,,,,,,,,,,,
"CZK 41,625","CZK 13,875",720848,4+kk,10/2/2022,112 m²,Fully furnished,4,1.0,1.0,1.0,168.35,737.87,30.76,217.13,7.9,216.51,106.1,336.15,114.49,565.37,"Ostrovní, Prague - Nové Město",50.0806286,14.4175374,,,,,,,,,,,,,,,,,
"CZK 19,800","CZK 6,600",729753,3+1,9/23/2022,90 m²,Fully furnished,5,,1.0,,82.8,397.93,96.94,404.98,135.48,353.78,131.46,217.55,654.74,661.34,"Blanická, Prague - Vinohrady",50.0746503,14.439294,,,,,,,,,,,,,,,,,
"CZK 22,000","CZK 5,500",531774,2+kk,8/1/2022,57 m²,Fully furnished,2,,,1.0,125.6,843.19,329.07,492.47,121.62,345.28,400.13,325.73,977.92,292.95,"Trmická, Prague - Prosek",50.1180113,14.4964518,"CZK 44,000",,Good,Brick,,,,Personal,,,,,,,,,
"CZK 16,500","CZK 4,500",443036,2+kk,10/1/2022,54 m²,Unfurnished,2,1.0,1.0,,366.55,1891.02,174.93,1565.56,1164.21,652.38,915.51,1300.32,1003.83,7.27,"Pod Harfou, Prague - Vysočany",50.1033467,14.5114565,"CZK 20,000",C,,Brick,,,1.0,Personal,Interior,10 to 30 years,Standard,,,,1.0,,
"CZK 31,752","CZK 10,584",726633,2 bedroom,9/2/2022,57 m²,Fully furnished,7,1.0,1.0,1.0,7.74,76.74,105.28,213.89,45.41,117.47,178.45,327.18,381.26,239.99,"Dělnická, Prague - Holešovice",50.1031132,14.4472134,,,,,,,,,,,,,,,,,
"CZK 35,063","CZK 11,687",729576,3+kk,9/14/2022,89 m²,Fully furnished,5,1.0,1.0,1.0,122.69,292.83,150.02,222.27,31.53,246.25,406.08,512.95,283.22,254.06,"Křižíkova a, Prague - Karlín",50.0928722,14.4500782,,,,,,,,,,,,,,,1.0,,
"CZK 16,700","CZK 3,000",730005,1 bedroom,8/15/2022,43 m²,Partly,2,,,,140.31,577.69,111.66,240.73,76.22,133.51,193.16,217.01,516.54,227.06,Prague - Košíře,50.06889,14.36945,"CZK 30,000",F,Very good,Brick,,,,,,,,,,,,,
"CZK 16,000",CZK 0,520177,2+kk,9/1/2022,52 m²,Partly,1,,1.0,,192.56,288.18,172.3,531.29,189.43,530.81,222.94,399.91,332.18,102.12,"Přípotoční, Prague - Vršovice",50.0652003,14.4562707,"CZK 45,000",C,Very good,Brick,1.0,,,Personal,Interior,Up to 10 years,Standard,,Gas boiler,,,,
"CZK 18,500","CZK 4,500",564594,2+kk,10/1/2022,42 m²,Partly,2,1.0,,,194.89,963.05,372.61,353.99,331.39,786.83,758.81,273.24,1119.02,416.56,"Velvarská, Prague - Dejvice",50.099268,14.3842157,"CZK 37,000",,Very good,Brick,,,,Personal,Complete,Up to 10 years,Standard,,Electric boiler,,,,
"CZK 18,000","CZK 3,500",593418,2+kk,10/1/2022,55 m²,,2,,1.0,,294.21,673.31,134.15,695.24,347.37,573.28,168.91,377.15,1505.14,162.74,"Jelínkova, Prague - Kobylisy",50.132785,14.466411,"CZK 45,000",A,New-build,Prefab concrete,,,,Personal,,,,,,,,,
"CZK 16,400","CZK 2,500",545224,Studio,9/1/2022,38 m²,Partly,4,,1.0,,109.24,1039.06,442.08,846.12,540.6,637.35,35.01,1310.4,767.89,296.17,Prague - Holešovice,50.11065,14.449746,"CZK 20,000",B,New-build,Brick,,,,Personal,,Up to 10 years,Luxurious,,Central,1.0,,,
"CZK 20,000","CZK 3,900",718608,2+kk,10/1/2022,72 m²,Partly,1,1.0,,1.0,179.61,210.27,72.02,334.04,55.39,313.69,302.45,395.64,509.36,219.04,"Semanského, Prague - Uhříněves",50.02972,14.60008,"CZK 20,000",G,New-build,Brick,,,,Personal,,,,1.0,,1.0,,,
"CZK 45,000","CZK 5,000",729675,2 bedroom,9/1/2022,52 m²,Fully furnished,3,,,1.0,200.51,407.37,72.96,275.48,12.97,109.41,427.03,435.74,261.27,352.53,Prague - Karlín,50.09179,14.44168,"CZK 50,000",G,Very good,Brick,,,,,,,,,,,,,
"CZK 17,000","CZK 7,500",730280,2 bedroom,8/17/2022,51 m²,Partly,5,,1.0,,174.57,1207.36,174.27,505.0,209.71,126.79,445.15,418.56,527.51,385.81,Prague - Dejvice,50.1077,14.39349,"CZK 34,000",G,Very good,Brick,1.0,,,,,,,,,,,,
"CZK 14,990","CZK 2,245",730281,Studio,8/20/2022,32 m²,Unfurnished,4,,1.0,,94.95,1132.45,103.67,538.53,105.16,438.79,18.24,373.78,179.33,116.36,"Kovářská, Prague - Libeň",50.10573416666,14.49143999999,"CZK 17,235",B,New-build,Other,,,,Personal,,,,,,1.0,,"CZK 17,235",
"CZK 13,000","CZK 2,700",568519,Studio,9/1/2022,36 m²,Fully furnished,3,,,,358.29,1029.27,131.85,658.68,256.45,529.27,501.63,197.91,226.53,237.55,"Jeseniova, Prague - Žižkov",50.0905831,14.4805142,"CZK 10,000",E,Very good,Brick,1.0,,,Personal,Interior,,Standard,,Gas boiler,,,,
"CZK 34,500","CZK 11,500",730277,2+kk,9/1/2022,52 m²,Fully furnished,2,,1.0,,101.2,551.63,76.94,167.66,45.43,94.55,322.6,504.78,539.56,607.69,"Rumunská, Prague - Vinohrady",50.0739629,14.4309041,,,,,,,,,,,,,,,,,
"CZK 7,880",CZK 0,727583,4+kk,7/27/2022,75 m²,Partly,1,,,,420.52,1658.05,1076.45,1709.11,538.55,1279.92,1010.73,544.61,894.08,350.84,Prague - Modřany,50.00685,14.43654,"CZK 7,000",C,Very good,Prefab concrete,1.0,,,,,,,1.0,,,,,
"CZK 19,000","CZK 4,500",677694,2+kk,10/1/2022,60 m²,Partly,,,1.0,,356.63,408.97,83.3,339.28,65.34,601.45,235.27,476.95,936.92,258.13,"Lucemburská, Prague - Žižkov",50.07929,14.45599,CZK 19,G,Very good,Brick,,,,Personal,Complete,,,,Central,,,,
"CZK 13,800","CZK 4,800",341638,Studio,8/17/2022,34 m²,Fully furnished,6,,1.0,,136.45,973.09,67.89,711.09,418.74,835.73,213.02,2078.74,1087.17,96.34,"Míšovická, Prague - Zličín",50.0570375,14.2829647,"CZK 18,000",,Very good,Other,,,,Personal,,10 to 30 years,Standard,,,,,,
"CZK 18,500","CZK 7,500",730267,2+kk,9/2/2022,55 m²,Fully furnished,,,1.0,1.0,134.96,1056.21,507.07,1107.28,363.41,1124.77,648.61,524.6,639.62,315.42,Prague - Modřany,50.00556,14.42918,"CZK 37,000",G,New-build,Other,1.0,1.0,1.0,Personal,,Up to 10 years,Luxurious,,,1.0,1.0,,
"CZK 20,000","CZK 7,000",730261,3+kk,11/1/2022,70 m²,Partly,3,1.0,1.0,,179.41,734.25,199.06,3432.53,206.66,1356.73,829.3,261.64,1918.6,104.41,Prague - Čakovice,50.15711,14.51994,"CZK 40,000",G,Very good,Prefab concrete,,1.0,1.0,,,,,,,,,,
"CZK 16,000","CZK 2,500",730259,Studio,8/17/2022,32 m²,Fully furnished,2,,,1.0,110.17,1151.62,486.69,1390.49,516.43,1141.26,906.6,797.73,1015.03,331.85,Prague - Braník,50.0358252,14.4138519,"CZK 37,000",B,New-build,Brick,,,,,,,,,,,,,
"CZK 17,000",CZK 0,646389,2+kk,9/1/2022,45 m²,Partly,3,,1.0,,229.05,428.91,317.53,743.48,407.24,177.07,644.95,176.06,563.33,55.22,"Heranova, Prague - Stodůlky",50.04552,14.312901,"CZK 25,000",G,Very good,Prefab concrete,,,,Personal,,,,,,,,,
"CZK 10,500","CZK 4,590",730254,2+kk,8/17/2022,43 m²,Fully furnished,5,,1.0,,98.34,317.95,96.58,1360.95,209.23,173.01,497.97,369.03,4675.82,15.74,Prague - Zbraslav,49.96752,14.38501,"CZK 15,000",A,Very good,Prefab concrete,1.0,,1.0,,,,,,,,,,
"CZK 18,000","CZK 3,805",671792,2+kk,10/1/2022,50 m²,Partly,5,,1.0,,255.46,654.83,154.69,311.05,39.3,368.22,507.54,394.6,556.94,265.4,"Sudoměřská, Prague - Žižkov",50.08065,14.45862,"CZK 18,000",,Good,Brick,,1.0,,Personal,Bathroom unit,Over 50 years,Standard,,Electric boiler,,,,
"CZK 20,000","CZK 4,000",729802,2 bedroom,8/15/2022,36 m²,Fully furnished,3,,,,354.21,737.34,455.75,355.35,376.01,575.19,1043.45,328.66,1016.27,67.61,Prague - Střešovice,50.09684,14.38976,"CZK 8,000",B,Good,Brick,,,1.0,,,,,,,,,,
"CZK 16,490","CZK 1,171",730250,2+kk,8/20/2022,44 m²,Partly,4,,1.0,,291.46,380.53,115.23,69.0,67.47,276.05,173.81,624.08,397.73,27.54,"Jaselská, Prague - Bubeneč",50.09875527777,14.40048833333,"CZK 17,661",G,Good,Brick,,,,Cooperative,,,,,,,,"CZK 17,661",
"CZK 19,000","CZK 1,500",730244,2+kk,10/1/2022,56 m²,Partly,5,1.0,1.0,,224.14,656.8,214.71,257.03,52.44,140.05,289.35,427.62,159.48,537.34,Prague - Holešovice,50.10079,14.43043,"CZK 38,000",G,Very good,Brick,1.0,,1.0,,,,,,,,,,
"CZK 50,000","CZK 10,610",682234,5+kk,9/1/2022,162 m²,Partly,11,,1.0,1.0,163.07,1109.71,303.21,956.68,424.05,1002.96,901.98,592.06,631.83,462.98,"Malešická, Prague - Žižkov",50.0870673,14.4834726,"CZK 50,000",C,New-build,Other,1.0,,,Personal,,,,,,,1.0,,
"CZK 13,000","CZK 3,000",716235,Studio,10/1/2022,33 m²,Partly,8,1.0,1.0,,136.53,1155.17,16.79,951.53,631.99,52.01,805.63,686.65,1103.35,483.79,"Hornoměcholupská, Prague - Horní Měcholupy",50.04454,14.56863,"CZK 14,000",B,New-build,Brick,,,1.0,Personal,,,,,,,,,
"CZK 11,000","CZK 3,677",730242,Studio,8/17/2022,33 m²,Partly,2,,1.0,,128.26,735.25,517.29,665.13,353.72,611.59,537.6,901.33,1630.38,341.49,Prague - Bohnice,50.13183,14.41764,"CZK 15,000",G,Very good,Prefab concrete,1.0,,1.0,,,,,,,,,,
"CZK 20,000","CZK 3,750",730206,2+kk,8/17/2022,50 m²,Partly,3,,1.0,,83.09,656.57,68.92,675.09,133.2,641.46,501.68,569.42,382.05,406.68,Prague - Vinohrady,50.06829,14.4342,"CZK 20,000",G,Very good,Brick,,,,Personal,Complete,,,,,,,,
"CZK 12,000","CZK 4,000",730158,Small studio,9/1/2022,30 m²,Fully furnished,1,,,,181.77,836.05,177.05,232.05,126.91,511.38,440.05,285.41,538.27,134.66,Prague - Bubeneč,50.10302,14.40106,"CZK 15,000",G,Very good,Brick,1.0,,,,,,,,,,,,
"CZK 14,900","CZK 3,000",657536,Studio,11/1/2022,39 m²,Partly,7,1.0,1.0,1.0,54.47,1047.39,47.89,203.63,180.78,183.66,351.8,729.1,319.84,105.46,"Kurta Konráda, Prague - Libeň",50.10375,14.48892,"CZK 30,000",B,New-build,Other,1.0,,,Personal,,Up to 10 years,Luxurious,1.0,Central,,,,
"CZK 16,500","CZK 5,200",730239,2+kk,8/17/2022,73 m²,Partly,1,,,,19.96,1099.92,11.9,951.61,104.15,1277.39,136.39,179.77,484.69,218.49,Prague - Vysočany,50.10057,14.48891,"CZK 18,000",E,Very good,Brick,1.0,1.0,,,,,,,,,,,
"CZK 16,990","CZK 4,517",730240,3+kk,8/21/2022,55 m²,Fully furnished,4,1.0,1.0,,260.07,811.21,109.09,802.45,407.57,827.12,901.91,419.98,366.49,369.83,"Vladycká, Prague - Hostivař",50.05422138888,14.52650805555,"CZK 21,507",C,New-build,Brick,,,1.0,Personal,,,,,,1.0,1.0,"CZK 21,507",
"CZK 14,000","CZK 3,500",680477,2+kk,9/1/2021,46 m²,Fully furnished,4,,,,7.74,689.1,123.69,684.43,184.85,22.29,399.14,496.48,410.57,259.22,"Jaromírova, Prague - Nusle",50.06516,14.42953,"CZK 20,000",C,Very good,Brick,1.0,,,Personal,,,,,,,,,
"CZK 12,990","CZK 2,312",730236,Studio,8/21/2022,40 m²,Fully furnished,4,,,,401.67,411.64,243.31,840.09,193.77,176.83,359.85,359.85,318.49,196.9,"Na hroudě, Prague - Strašnice",50.069900512695,14.480400085449,"CZK 15,302",D,Very good,Brick,,,,Personal,,,,,,,,"CZK 15,302",
"CZK 12,990","CZK 2,312",730237,Studio,8/20/2022,40 m²,Fully furnished,4,,,,401.67,411.64,243.31,840.09,193.77,176.83,359.85,359.85,318.49,196.9,"Na hroudě, Prague - Strašnice",50.069900512695,14.480400085449,"CZK 15,302",D,Very good,Brick,,,,Personal,,,,,,,,"CZK 15,302",
"CZK 11,000","CZK 3,000",730234,Studio,9/1/2022,40 m²,Partly,1,,,,65.34,218.79,100.4,434.15,28.29,425.13,214.32,91.05,807.08,865.26,Prague - Vinohrady,50.07124,14.43563,"CZK 28,000",G,Good,Brick,,,,,,,,,,,,,
"CZK 11,200","CZK 3,800",730230,2+kk,8/17/2022,43 m²,Unfurnished,,,,,67.67,505.17,66.53,879.75,114.26,596.76,26.0,196.36,1013.91,346.15,Prague - Košíře,50.07069,14.38098,"CZK 15,000",G,Very good,Brick,,,,,,,,,,,,,
"CZK 12,000","CZK 2,000",583096,Small studio,8/20/2022,27 m²,Fully furnished,3,,1.0,,113.18,386.47,194.66,339.41,263.29,417.1,315.13,448.25,906.99,131.23,"Počernická, Prague - Malešice",50.080924,14.496629,"CZK 14,000",B,Very good,Prefab concrete,1.0,,,Personal,,,,,,,,,
"CZK 16,500",CZK 133,730233,Studio,10/14/2022,25 m²,Fully furnished,3,,1.0,1.0,,,,,,,,,,,Prague - Stodůlky,50.04595,14.32223,"CZK 33,000",A,Very good,Other,1.0,,1.0,,,,,,,1.0,,,
"CZK 16,500",CZK 133,730228,Studio,10/14/2022,30 m²,Fully furnished,3,,1.0,1.0,,,,,,,,,,,Prague - Stodůlky,50.04595,14.32223,"CZK 33,000",A,Very good,Other,1.0,,1.0,,,,,,,1.0,,,
"CZK 20,000","CZK 5,000",151768,3+1,9/1/2022,80 m²,Fully furnished,,,,,202.88,698.15,61.59,734.78,131.92,675.65,195.73,279.66,675.08,496.05,"Dvouletky, Prague - Strašnice",50.0757297,14.5007619,"CZK 25,000",,,Brick,,,,Personal,,10 to 30 years,Standard,,Distance,,,,
"CZK 17,000","CZK 6,500",730057,3+1,8/16/2022,108 m²,Unfurnished,1,,,,138.59,325.23,586.63,2399.76,302.01,1385.97,1143.24,1676.91,1317.12,360.11,Prague - Libuš,50.01141,14.45905,"CZK 17,000",G,Good,Brick,,1.0,,,,,,,,,,,
"CZK 23,500","CZK 4,000",729642,2+kk,9/15/2022,79 m²,Fully furnished,,,1.0,1.0,121.48,1227.99,928.72,1099.69,499.69,876.19,826.93,1182.44,637.73,82.41,Prague - Řeporyje,50.03812,14.32275,"CZK 47,000",C,Very good,Brick,1.0,1.0,1.0,,,10 to 30 years,Luxurious,1.0,Electric boiler,,1.0,,
"CZK 27,999","CZK 3,900",730132,4+1,8/16/2022,94 m²,Fully furnished,3,1.0,,,319.09,325.97,227.01,251.15,242.38,191.69,343.27,530.31,1101.55,143.32,Prague - Vokovice,50.09625,14.35756,"CZK 27,999",G,Good,Brick,,1.0,,Personal,,Over 50 years,Standard,,Central,,,,
"CZK 12,000","CZK 2,000",730221,Studio,9/1/2022,27 m²,Partly,2,,,,43.39,465.36,39.04,107.52,10.36,258.39,340.32,302.31,247.76,366.7,Prague - Žižkov,50.08752,14.46899,"CZK 15,000",G,Very good,Brick,,1.0,,,,,,,,,,,
"CZK 25,000","CZK 5,000",730219,2 bedroom,8/17/2022,74 m²,Fully furnished,1,1.0,,,277.08,786.82,248.92,496.44,271.74,327.01,327.14,612.29,280.72,228.81,Prague - Libeň,50.10861,14.47539,"CZK 35,000",G,Very good,Brick,1.0,,1.0,Personal,,,,,,,,,
"CZK 13,500","CZK 2,000",730217,Studio,10/1/2022,23 m²,Partly,1,,,,229.79,293.08,77.08,237.88,34.66,198.17,64.92,281.76,68.07,564.67,Prague - Žižkov,50.08538,14.44998,"CZK 25,000",C,Very good,Other,,,,,,,,,,,,,
"CZK 33,750","CZK 11,250",718218,2+kk,9/6/2022,45 m²,Fully furnished,2,,1.0,,210.86,382.06,250.08,989.18,169.53,744.75,811.66,1049.67,387.48,543.22,"Strakonická, Prague - Smíchov",50.0643299,14.4102127,,,,,,,,,,,,,,,,,
"CZK 10,000",CZK 0,729631,Small studio,8/31/2022,26 m²,Fully furnished,3,,1.0,,137.3,643.4,595.04,2614.11,519.43,871.16,518.14,518.14,131.53,491.64,Prague - Kbely,50.13535,14.54158,"CZK 20,000",C,New-build,Brick,,,,,,,,,,1.0,1.0,,
"CZK 30,000","CZK 5,000",730208,3+kk,8/17/2022,88 m²,Fully furnished,4,,1.0,1.0,617.6,1263.84,484.11,2402.58,455.18,2080.47,784.66,1309.64,1735.19,224.38,Prague - Dolní Chabry,50.13929,14.4453,"CZK 50,000",G,New-build,Low-energy,1.0,,1.0,,,,,,,1.0,1.0,,
"CZK 18,000","CZK 3,000",730204,2+kk,8/17/2022,43 m²,Fully furnished,6,,1.0,,429.21,1235.37,367.37,873.84,266.53,904.62,412.98,488.52,959.42,224.87,Prague - Karlín,50.09537,14.4672,"CZK 20,000",E,Very good,Prefab concrete,1.0,1.0,,,,,,1.0,,,,,
"CZK 41,250","CZK 13,750",719999,2+kk,10/9/2022,55 m²,Fully furnished,1,,1.0,,76.78,951.56,41.94,296.91,109.07,229.41,371.34,325.8,517.82,388.28,"Rečkova, Prague - Žižkov",50.0904334,14.4705869,,,,,,,,,,,,,,,,,
"CZK 24,000","CZK 3,000",730205,3+1,8/17/2022,76 m²,Partly,1,1.0,1.0,,395.99,509.43,163.26,504.86,440.33,508.9,453.56,279.74,995.17,176.46,Prague - Hlubočepy,50.03685,14.37189,"CZK 24,000",G,Very good,Prefab concrete,,,,,,,,,,,,,
"CZK 37,500","CZK 12,500",718920,2+kk,9/8/2022,60 m²,Fully furnished,3,1.0,1.0,1.0,241.61,542.2,98.71,270.79,176.01,313.55,455.64,821.55,633.96,593.3,"Mečislavova, Prague - Nusle",50.0633237,14.4440058,,,,,,,,,,,,,,,,,
"CZK 12,000","CZK 3,000",320811,1 bedroom,10/1/2022,40 m²,Fully furnished,2,,,1.0,46.46,410.4,413.35,2912.61,234.75,528.18,470.99,1222.1,885.46,315.84,"Jizerská, Prague - Čakovice",50.1499895,14.5253636,"CZK 15,000",,,Brick,,,1.0,Personal,,Up to 10 years,Standard,,Central,,,,
"CZK 19,500","CZK 4,000",593841,2+kk,9/1/2022,56 m²,Partly,3,1.0,1.0,,262.67,736.25,283.72,756.23,562.34,942.85,698.71,478.02,754.83,151.91,"Univerzitní, Prague - Malešice",50.086497,14.503346,"CZK 20,000",G,New-build,Brick,,,1.0,Personal,,Up to 10 years,Standard,,Distance,1.0,1.0,,
"CZK 14,500","CZK 4,000",730200,Studio,9/1/2022,35 m²,Fully furnished,,,,1.0,99.64,1068.06,938.4,1181.5,305.86,786.58,924.01,796.99,416.96,112.49,Prague - Modřany,49.99909,14.41013,"CZK 18,500",A,New-build,Brick,1.0,1.0,1.0,,,,,,,1.0,,,
"CZK 11,000","CZK 1,300",729583,1 bedroom,10/1/2022,35 m²,Fully furnished,3,,,,279.35,498.63,96.94,242.28,106.15,242.06,542.12,582.34,716.81,620.7,Prague - Nusle,50.06462,14.44428,"CZK 21,000",G,Very good,Brick,,,,Personal,,,,,,,,,
"CZK 25,500","CZK 4,000",730199,2+kk,8/17/2022,43 m²,Fully furnished,1,1.0,1.0,,357.59,1747.78,1125.9,1506.46,596.44,846.28,429.19,909.76,445.41,393.7,Prague - Motol,50.07465,14.35863,"CZK 29,500",G,Very good,Brick,,,1.0,,,,,,,,,,
"CZK 18,000","CZK 5,500",730198,3+1,9/1/2022,65 m²,Partly,5,,1.0,,424.34,939.28,566.26,935.99,424.47,485.28,590.77,533.03,1392.05,59.0,Prague - Braník,50.02708,14.4251,"CZK 25,000",B,Very good,Prefab concrete,,,,,,,,1.0,Central,,,,
"CZK 22,000",CZK 1,659396,3+kk,10/1/2022,75 m²,Fully furnished,-1,,,,51.61,489.31,46.18,84.8,159.63,568.15,1042.43,477.78,442.42,240.28,"Kamýcká, Prague - Suchdol",50.13239,14.37724,"CZK 44,000",B,Very good,Brick,1.0,,1.0,Personal,,,Standard,,,,,,
"CZK 37,500","CZK 12,500",717602,2+kk,9/1/2022,56 m²,Fully furnished,5,,1.0,,242.69,541.12,99.79,271.87,177.08,314.62,456.71,820.48,635.04,594.38,"Mečislavova, Prague - Nusle",50.0633339,14.4440155,,,,,,,,,,,,,,,,,
"CZK 13,167","CZK 1,333",728104,Studio,10/1/2022,20 m²,Unfurnished,1,,,,257.3,355.51,136.02,544.38,348.13,356.87,179.85,77.83,658.54,300.0,"Jakutská, Prague - Vršovice",50.0725171,14.47334415,"CZK 29,000",C,Good,Brick,,,,Personal,Complete,,,,Central,,,,
"CZK 18,500",CZK 0,127984,2 bedroom,8/29/2022,75 m²,Partly,1,,,,377.86,952.52,268.88,785.46,427.06,919.2,278.57,123.86,840.54,359.97,"Zdařilá, Prague - Nusle",50.0551428,14.4464394,"CZK 25,000",G,Very good,Brick,,,,Personal,Complete,Over 50 years,Standard,,Central,,,,
"CZK 48,645","CZK 16,215",726073,3+1,9/15/2022,55 m²,Fully furnished,2,,,,158.42,248.82,154.82,246.13,112.68,264.3,390.21,408.3,154.53,114.55,"Řásnovka, Prague - Staré Město",50.0918754,14.4250902,,,,,,,,,,,,,,,,,
"CZK 32,175","CZK 10,725",726162,2+kk,9/16/2022,62 m²,Fully furnished,7,,1.0,,99.26,361.63,490.78,556.87,427.65,345.52,452.0,519.02,404.9,293.38,"Olšanská h, Prague - Žižkov",50.0830187,14.4654473,,,,,,,,,,,,,,,,,
"CZK 15,000","CZK 1,000",697622,1 bedroom,9/1/2022,42 m²,Partly,2,1.0,,1.0,292.69,656.94,498.74,327.69,154.18,1254.37,385.86,685.76,207.05,339.6,"Pod Stárkou, Prague - Michle",50.0576031,14.4536973,"CZK 16,000",B,New-build,Low-energy,,,1.0,Personal,,,Luxurious,1.0,,,,,
"CZK 9,000","CZK 3,000",727085,2 bedroom,9/22/2022,26 m²,Fully furnished,3,,,,240.22,762.14,534.22,521.0,543.1,584.05,536.64,879.96,1049.11,157.74,"U Chmelnice, Prague - Modřany",50.0080579,14.4107768,,,,,,,,,,,,,,,,,
"CZK 34,898","CZK 11,632",726071,2 bedroom,9/10/2022,90 m²,Fully furnished,4,,1.0,,82.8,397.93,96.94,404.98,135.48,353.78,131.46,217.55,654.74,661.34,"Blanická, Prague - Vinohrady",50.0746503,14.439294,,,,,,,,,,,,,,,,,
"CZK 27,000","CZK 9,000",728060,1 bedroom,9/21/2022,50 m²,Fully furnished,2,,,,187.82,338.29,111.0,241.4,39.4,347.76,25.85,486.49,569.58,575.91,"Karmelitská, Prague - Malá Strana",50.08657,14.4033198,,,,,,,,,,,,,,,,,
"CZK 31,875","CZK 10,625",725887,2 bedroom,9/13/2022,65 m²,Fully furnished,2,,,,181.41,298.0,1.34,322.55,4.35,512.55,359.47,791.01,446.67,323.95,"Karlova, Prague - Staré Město",50.0859967,14.4175762,,,,,,,,,,,,,,,,,
"CZK 36,450","CZK 12,150",726075,3+kk,9/15/2022,82 m²,Fully furnished,6,,1.0,,101.2,551.63,76.94,167.66,45.43,94.55,322.6,504.78,539.56,607.69,"Rumunská, Prague - Vinohrady",50.0739629,14.4309041,,,,,,,,,,,,,,,,,
"CZK 23,760","CZK 7,920",728259,2 bedroom,10/1/2022,60 m²,Fully furnished,1,,,,250.51,417.46,211.46,417.21,207.64,462.73,364.17,360.99,525.54,550.17,"Lublaňská, Prague - Vinohrady",50.0710848,14.4324122,,,,,,,,,,,,,,,,,
"CZK 33,750","CZK 11,250",727478,1 bedroom,9/25/2022,43 m²,Fully furnished,4,,1.0,,276.64,299.92,82.85,597.17,63.3,447.09,45.77,62.13,794.8,565.99,"Americká, Prague - Vinohrady",50.0718291,14.4385892,,,,,,,,,,,,,,,,,
"CZK 25,500","CZK 8,500",727015,1 bedroom,9/21/2022,35 m²,Fully furnished,3,,1.0,,97.26,259.91,105.72,291.36,79.07,194.41,340.41,525.24,106.28,298.87,"Koněvova, Prague - Žižkov",50.088447,14.458108,,,,,,,,,,,,,,,1.0,,
"CZK 34,500","CZK 11,500",724514,2 bedroom,9/3/2022,76 m²,Fully furnished,5,,1.0,,173.24,237.07,170.98,194.52,84.53,150.25,482.36,158.74,537.92,88.5,"Slezská, Prague - Vinohrady",50.076837,14.4602531,,,,,,,,,,,,,,,,,
"CZK 51,840","CZK 17,280",728059,3+1,9/30/2022,85 m²,Fully furnished,2,,1.0,,278.51,602.82,173.91,301.83,0.93,288.1,225.94,440.55,233.82,416.1,"Bílkova, Prague - Staré Město",50.0912254,14.4209612,,,,,,,,,,,,,,,,,
"CZK 60,000","CZK 20,000",717694,2+kk,8/22/2022,,Fully furnished,3,,,,177.2,646.63,182.16,39.81,37.58,122.34,27.5,101.85,349.84,194.18,"Ječná, Prague - Nové Město",50.0757302,14.4269087,,,,,,,,,,,,,,,,,
"CZK 41,438","CZK 13,812",728262,Studio,9/11/2022,26 m²,Fully furnished,2,,,,229.1,530.05,122.61,223.26,36.43,222.12,280.75,471.08,466.92,408.11,"Příčná, Prague - Nové Město",50.077834,14.422878,,,,,,,,,,,,,,,,,
"CZK 60,000","CZK 20,000",729182,2+kk,10/15/2022,67 m²,Fully furnished,2,,,,81.58,261.82,179.91,165.34,96.05,235.81,210.32,24.34,339.34,418.58,"Zlatnická, Prague - Nové Město",50.0905181,14.4322974,,,,,,,,,,,,,,,,,
"CZK 41,756","CZK 13,919",728695,4+1,10/4/2022,102 m²,Fully furnished,2,,,,183.27,1023.84,165.5,746.11,195.16,730.27,819.74,259.7,600.66,303.35,"Xaveriova, Prague - Smíchov",50.0626569,14.3913498,,,,,,,,,,,,,,,,,
"CZK 59,250","CZK 19,750",717599,4+kk,8/22/2022,90 m²,Fully furnished,2,,1.0,,140.09,527.92,223.64,125.85,37.89,66.77,510.79,1001.31,1180.94,559.23,"Stroupežnického, Prague - Smíchov",50.0710929,14.4032595,,,,,,,,,,,,,,,,,
"CZK 32,400","CZK 10,800",728253,2 bedroom,10/1/2022,65 m²,Fully furnished,5,,1.0,,163.79,319.88,110.55,226.38,103.86,407.78,227.16,243.22,785.75,360.1,"Na Zbořenci, Prague - Nové Město",50.0769346,14.4169603,,,,,,,,,,,,,,,,,
"CZK 8,900","CZK 3,100",689133,Studio,8/17/2022,28 m²,Partly,4,,1.0,1.0,325.63,279.64,115.51,2177.18,130.11,325.04,2.2,206.21,1466.61,480.39,"Školní, Prague - Braník",50.03722,14.41341,"CZK 16,000",G,Very good,Brick,,,,Personal,,,,,,,,,
"CZK 22,000","CZK 4,000",197779,2+kk,9/1/2022,60 m²,Fully furnished,5,1.0,1.0,,195.44,463.66,233.63,209.44,268.34,316.67,397.32,439.16,752.79,118.29,"Pod Kavalírkou, Prague - Košíře",50.069057434,14.3726345429,"CZK 26,000",,Very good,Low-energy,1.0,,,Personal,,Up to 10 years,Luxurious,,Central,,,,
"CZK 22,000","CZK 3,000",600303,2+kk,9/1/2022,60 m²,Fully furnished,4,1.0,1.0,,209.59,223.23,37.16,194.83,38.85,132.16,95.36,317.71,278.11,367.81,"Štítného, Prague - Žižkov",50.085184,14.452429,"CZK 23,000",A,Very good,Brick,,,,Personal,Complete,Up to 10 years,Standard,,,,,,
"CZK 11,500","CZK 2,580",730161,Studio,9/30/2022,22 m²,Partly,1,,1.0,,313.68,468.15,553.55,2697.95,331.92,485.82,741.2,610.42,1689.93,249.23,Prague - Čimice,50.14157,14.43307,"CZK 15,000",A,Very good,Prefab concrete,,1.0,,,,,,,,,,,
"CZK 32,000","CZK 4,500",694990,3+kk,9/4/2022,70 m²,Fully furnished,3,,1.0,,215.76,469.07,95.13,267.91,25.12,274.76,406.69,365.8,112.66,398.28,"Tusarova, Prague - Holešovice",50.101638767123,14.452644197097,"CZK 32,000",B,New-build,Brick,1.0,,,Personal,,Up to 10 years,,,,1.0,,,
"CZK 16,000","CZK 3,290",730159,2 bedroom,9/30/2022,54 m²,Partly,11,,1.0,,118.09,489.85,20.91,438.5,309.94,459.86,121.07,212.17,710.25,223.59,Prague - Vršovice,50.0723,14.47152,"CZK 19,290",A,Very good,Prefab concrete,,1.0,,,,,,,,,,,
"CZK 4,000","CZK 2,500",547762,4+1,8/17/2022,10 m²,,4,1.0,1.0,,343.53,1075.45,138.13,909.28,382.08,380.0,744.17,1267.9,614.52,46.73,"Hrdličkova, Prague - Chodov",50.0363218,14.4851105,"CZK 7,000",,,Prefab concrete,,,,Personal,,,,1.0,Central,,,,
"CZK 8,000","CZK 1,000",685013,6+kk,9/1/2022,150 m²,Fully furnished,2,1.0,,,293.92,1315.64,723.43,1721.17,455.86,718.94,1138.4,1565.83,1233.41,647.96,"Studnická, Prague - Horní Počernice",50.1088652,14.5988617,"CZK 9,000",G,Very good,Brick,,,,Other,,,,,,,,,
"CZK 21,000","CZK 3,000",730149,2+kk,9/1/2022,45 m²,Partly,5,,1.0,1.0,306.88,153.0,186.74,193.61,149.85,433.62,372.85,468.9,989.51,228.08,Prague - Vinohrady,50.07826,14.45382,"CZK 24,000",C,Very good,Brick,1.0,,,,,,,,,,,,
"CZK 9,990","CZK 3,500",730142,1 bedroom,8/16/2022,31 m²,Fully furnished,5,,1.0,,199.7,286.81,295.47,268.36,312.88,288.62,201.15,159.89,284.84,115.87,Prague - Hloubětín,50.10361,14.53686,"CZK 9,990",D,Good,Brick,,,,,,,,,,,,,
"CZK 20,000","CZK 8,000",729578,3+kk,9/1/2022,60 m²,Partly,7,1.0,,,320.94,543.82,152.65,630.62,46.44,103.62,115.9,621.44,600.12,518.7,Prague - Břevnov,50.08744,14.36686,"CZK 28,000",D,Very good,Prefab concrete,1.0,,,Personal,Complete,,,,Central,,,,
"CZK 35,000","CZK 10,000",729540,3+kk,9/1/2022,136 m²,Fully furnished,5,,1.0,1.0,414.08,771.69,477.5,878.68,3.32,463.98,336.19,409.67,481.2,613.02,"Na Výsledku II, Prague - Nusle",50.05555665,14.44677365,"CZK 35,000",G,Very good,Other,1.0,,,,,,,,,,,,
"CZK 12,500","CZK 1,500",623402,Studio,9/1/2022,26 m²,Partly,1,,1.0,,119.72,253.35,187.66,341.99,59.61,456.47,361.12,422.32,279.07,343.72,"Novákových, Prague - Libeň",50.104372,14.477902,"CZK 20,000",,Very good,Brick,,,,Personal,Complete,Up to 10 years,,,Other,,,,
"CZK 14,500","CZK 3,000",729438,1 bedroom,8/17/2022,48 m²,Unfurnished,5,,,,434.9,655.87,466.9,607.76,169.97,682.28,547.75,382.87,338.16,559.67,Prague - Libeň,50.09945,14.4709,"CZK 20,000",G,Very good,Brick,,,,,,,,,,,,,
"CZK 15,000","CZK 1,000",730119,2+kk,8/16/2022,47 m²,Fully furnished,1,,1.0,,115.52,213.18,87.49,399.12,155.35,260.62,361.69,510.42,495.18,117.86,Prague - Holešovice,50.10328,14.44447,"CZK 15,000",C,Very good,Brick,,1.0,,,,,,,Central,,,,
"CZK 31,000","CZK 6,000",628613,3+1,9/1/2022,89 m²,Fully furnished,1,,1.0,,167.95,912.97,160.16,349.44,164.94,418.89,576.42,448.95,290.35,341.84,"Slavojova, Prague - Nusle",50.064215,14.424948,"CZK 31,000",G,Very good,Brick,,,,Personal,Complete,30 - 50 years,Standard,,Electric boiler,,,,
"CZK 19,500","CZK 5,000",550500,2+kk,9/1/2022,45 m²,Fully furnished,3,,1.0,,88.97,116.24,130.39,148.56,32.83,248.95,470.04,547.81,404.84,162.86,"Sokolovská, Prague - Karlín",50.0933848,14.4494205,"CZK 24,500",,,Brick,,,,Personal,,,,,,,,,
"CZK 15,499","CZK 1,500",540296,Studio,8/1/2022,33 m²,Unfurnished,3,1.0,,,328.87,550.39,296.78,869.14,876.08,495.04,770.6,639.3,895.74,648.15,"Toufarova, Prague - Stodůlky",50.04291025,14.31233705,"CZK 40,000",B,New-build,Brick,,,,Personal,,Up to 10 years,Luxurious,,Central,1.0,,,
"CZK 9,500","CZK 2,500",728735,Small studio,9/1/2022,15 m²,Fully furnished,4,,,,6.13,1142.27,634.69,818.33,746.52,711.11,579.27,699.97,377.71,338.38,Prague - Smíchov,50.07075,14.36128,"CZK 12,000",B,Good,Brick,,,,,,,,,,,,,
"CZK 17,500","CZK 1,500",730111,2+kk,9/1/2022,55 m²,Fully furnished,1,,,,129.88,1069.07,205.53,1004.68,159.66,663.48,615.44,421.6,536.05,467.95,Prague - Smíchov,50.06262,14.39664,"CZK 20,000",A,Very good,Brick,1.0,,,,,,,,,,1.0,,
"CZK 15,800","CZK 3,280",570248,Studio,10/1/2022,42 m²,Partly,3,1.0,1.0,,99.26,361.63,490.78,556.87,427.65,345.52,452.0,519.02,404.9,293.38,"Olšanská, Prague - Žižkov",50.0830187,14.4654473,"CZK 20,000",C,New-build,Low-energy,1.0,,1.0,Personal,,Up to 10 years,Luxurious,,Distance,1.0,,,
"CZK 12,500","CZK 2,500",730113,Small studio,8/16/2022,32 m²,Partly,1,,,1.0,265.54,457.35,516.76,553.64,567.65,606.23,913.09,589.89,1518.52,803.9,Prague - Jinonice,50.05764,14.36741,"CZK 20,000",B,Very good,Brick,,,,,,,,,,,,,
"CZK 46,000","CZK 10,000",607655,4+1,1/15/2022,145 m²,Fully furnished,1,1.0,1.0,,311.3,589.1,133.67,266.28,158.68,250.34,458.19,609.91,273.19,516.0,"Krakovská, Prague - Nové Město",50.079114,14.428088,"CZK 92,000",G,Very good,Brick,,,,Personal,,,,,,,,,
"CZK 16,000","CZK 4,000",730100,2 bedroom,8/16/2022,50 m²,Unfurnished,3,1.0,1.0,,231.98,400.68,81.73,1320.65,181.98,823.91,307.39,297.29,243.53,63.79,Prague - Střešovice,50.08683,14.38424,"CZK 30,000",G,Very good,Brick,,,,,,,,,,,,,
"CZK 20,990","CZK 4,649",730097,3+kk,8/20/2022,70 m²,Partly,4,1.0,,,18.89,637.86,620.35,1804.84,624.01,576.78,115.89,801.14,901.7,732.61,"Vlastina, Prague - Liboc",50.09144722222,14.31673388888,"CZK 25,639",G,Very good,Prefab concrete,1.0,,,Personal,,,,,,,,"CZK 25,639",
"CZK 6,000","CZK 3,000",661029,Small studio,5/3/2021,20 m²,Fully furnished,3,,1.0,,145.71,232.54,165.62,167.34,301.43,310.99,241.66,363.24,523.55,380.64,"Vladivostocká, Prague - Vršovice",50.068585,14.4713735,"CZK 9,000",D,Very good,Other,,,,,,,Standard,,Distance,,,,
"CZK 18,499","CZK 2,900",730088,1 bedroom,9/5/2022,42 m²,Fully furnished,2,,1.0,,340.95,897.63,209.45,320.71,161.41,757.28,575.98,605.27,662.58,647.43,Prague - Žižkov,50.08608,14.44166,CZK 0,G,Very good,Brick,,,,Personal,Complete,,,,,,,,
"CZK 26,500","CZK 3,000",724897,3+1,8/11/2022,99 m²,Partly,2,1.0,,,1.37,432.51,45.59,166.58,20.13,306.96,502.42,265.32,250.78,683.46,Prague - Smíchov,50.07251,14.40769,"CZK 60,000",G,Good,Brick,1.0,,1.0,,,,,,,,,,
"CZK 12,490","CZK 2,637",730086,1 bedroom,8/20/2022,33 m²,Unfurnished,6,1.0,1.0,,394.19,523.99,385.26,1684.42,479.12,787.59,712.33,1152.2,912.59,443.77,"V Štíhlách, Prague - Krč",50.02144527777,14.45602166666,"CZK 15,127",G,Good,Prefab concrete,1.0,,,Personal,,,,1.0,,,,"CZK 15,127",
"CZK 43,000","CZK 7,000",730080,3+kk,9/1/2022,90 m²,Partly,2,,1.0,,78.16,287.71,91.16,102.12,98.71,140.37,133.02,301.56,565.88,477.59,Prague - Nové Město,50.09072,14.4351,"CZK 90,000",G,New-build,Brick,1.0,,,,,,,,,,,,
"CZK 20,500","CZK 5,500",683312,2+kk,9/1/2022,64 m²,Fully furnished,5,,1.0,,54.15,613.56,19.65,25.54,43.7,138.5,276.11,361.15,306.6,378.5,"Jana Želivského, Prague - Žižkov",50.08869,14.46837,"CZK 26,000",E,Very good,Brick,1.0,,,Personal,Complete,,,,,,,,
"CZK 18,000","CZK 4,500",729971,2+kk,8/15/2022,54 m²,Partly,1,,1.0,,125.19,476.66,279.77,479.36,289.08,314.3,666.75,218.94,863.25,151.45,Prague - Hlubočepy,50.029679849841,14.361795168886,"CZK 20,000",B,New-build,Brick,,,,Personal,,Up to 10 years,,1.0,Central,1.0,1.0,,
CZK 1,"CZK 2,000",724123,2 bedroom,8/15/2022,73 m²,Unfurnished,5,,,,261.32,369.9,189.95,760.08,189.22,495.41,255.48,280.96,452.06,238.59,Prague - Vinohrady,50.07363,14.44468,CZK 1,G,Under construction,Brick,,,,Personal,Complete,Over 50 years,,,,,,,
"CZK 28,000","CZK 3,904",729808,4+1,8/14/2022,90 m²,Partly,1,,1.0,,372.64,553.15,87.51,772.99,216.28,446.53,178.69,794.53,458.59,198.12,Prague - Chodov,50.03011,14.48337,"CZK 28,000",G,Good,Prefab concrete,1.0,1.0,,,,,,,Central,,,,
"CZK 23,000","CZK 5,000",723662,2+kk,8/15/2022,42 m²,Fully furnished,5,,1.0,1.0,248.13,434.64,284.68,215.85,302.0,423.93,194.53,888.81,323.92,157.1,Prague - Podolí,50.05603,14.42064,"CZK 60,000",G,Very good,Brick,,,,,,,,,,,,,
"CZK 16,500","CZK 3,000",729907,2 bedroom,9/12/2022,53 m²,Partly,6,,1.0,,154.59,121.63,210.28,406.06,427.2,165.42,331.31,69.33,839.62,83.63,Prague - Veleslavín,50.09015,14.34795,"CZK 25,000",C,Very good,Prefab concrete,,1.0,,Personal,Complete,,Standard,,Distance,,,,
"CZK 20,000","CZK 8,733",730067,Studio,9/12/2022,56 m²,Fully furnished,3,,1.0,,189.18,160.11,178.24,180.32,20.05,230.44,266.64,745.59,557.09,388.8,Prague - Holešovice,50.09921,14.42274,"CZK 20,000",G,Very good,Brick,1.0,,,,,,,,,,,,
"CZK 8,300",CZK 0,730065,4+1,10/10/2022,30 m²,Fully furnished,2,,,,416.15,1119.2,164.68,682.83,309.93,545.96,146.46,1060.0,596.48,112.48,Prague - Karlín,50.09357,14.46052,"CZK 12,000",G,Good,Brick,1.0,,,,,,,,,,,,
"CZK 20,000","CZK 4,808",497125,2+kk,1/24/2021,55 m²,Fully furnished,1,1.0,1.0,,289.31,1030.71,185.29,875.56,580.15,1000.2,374.44,2240.15,1249.45,201.42,"Sazovická, Prague - Zličín",50.0570157,14.2807456,"CZK 25,000",,New-build,Brick,,,1.0,Personal,,Up to 10 years,,,Central,1.0,,,
"CZK 19,000","CZK 4,000",482008,2+kk,8/8/2022,65 m²,Partly,2,1.0,,,249.54,867.43,212.32,1207.06,862.83,292.83,389.82,744.76,1019.91,92.49,"Ústavní, Prague - Bohnice",50.1324367,14.4261315,"CZK 23,000",,,Brick,,,,Personal,,,,,Central,,,,
"CZK 16,000","CZK 4,000",600766,2+kk,8/15/2022,56 m²,Partly,1,,1.0,,115.45,128.96,563.8,755.23,442.46,635.86,384.23,834.07,2003.92,309.41,"U Kříže, Prague - Jinonice",50.054407,14.365663,"CZK 16,000",C,Very good,Brick,,,,Personal,,,,,,,1.0,,
"CZK 23,000","CZK 2,256",727374,2+kk,10/1/2022,50 m²,Partly,5,,1.0,,252.56,453.23,124.71,52.98,100.25,351.5,259.61,431.02,408.03,366.27,"Smolenská, Prague - Vršovice",50.0694328,14.45145165,"CZK 50,512",E,Very good,Brick,1.0,,,Personal,Complete,,,,,,,,
"CZK 10,500","CZK 1,000",414688,2+kk,9/10/2022,38 m²,Fully furnished,4,,,,118.09,371.62,7.97,75.43,20.86,115.04,321.87,702.68,523.32,460.15,"Nuselská, Prague - Nusle",50.0635878,14.4426882,"CZK 12,000",C,,Brick,,,,Personal,,Up to 10 years,,,Central,,,,
"CZK 18,500","CZK 3,296",730004,2+kk,11/1/2022,56 m²,Fully furnished,3,1.0,1.0,,154.0,292.25,263.42,401.63,213.4,265.17,710.68,813.9,917.59,101.49,Prague - Uhříněves,50.02973,14.59703,"CZK 30,000",B,New-build,Brick,1.0,,,,,,,,,1.0,,,
"CZK 13,500","CZK 2,500",729950,Studio,8/22/2022,28 m²,Unfurnished,2,,1.0,,111.85,1169.22,640.68,883.83,539.37,955.29,719.13,425.1,588.16,295.46,Prague - Žižkov,50.08774,14.47907,"CZK 27,000",G,Very good,Brick,,,,Personal,Complete,,,,Electric boiler,,,,
"CZK 20,000","CZK 6,000",729510,2 bedroom,9/1/2022,53 m²,Partly,5,,,,225.96,219.82,222.59,435.53,173.44,235.7,437.33,248.87,717.43,172.35,Prague - Krč,50.04266,14.44284,"CZK 20,000",G,Very good,Prefab concrete,,,,,,,,,,,,,
"CZK 18,500","CZK 3,500",568046,2+kk,8/1/2019,50 m²,Partly,2,,,,115.31,41.79,81.3,214.82,175.84,170.31,293.77,664.87,602.76,201.56,"Vodárenská, Prague - Podolí",50.0585362,14.4205989,"CZK 50,000",,,Brick,,,,Personal,,,,,,,,,
"CZK 17,000","CZK 3,253",730003,3+kk,8/15/2022,48 m²,Partly,13,,1.0,,90.35,334.37,180.12,161.08,60.98,190.91,204.53,131.75,1042.05,295.0,Prague - Vokovice,50.0981,14.35827,"CZK 34,000",C,Very good,Prefab concrete,1.0,,1.0,,,,,1.0,,,,,
"CZK 16,000","CZK 4,000",436544,Studio,9/1/2022,39 m²,Fully furnished,7,,1.0,,214.84,1026.55,103.54,289.25,12.02,147.06,348.71,303.17,388.13,427.28,"Biskupcova, Prague - Žižkov",50.090125,14.473597,"CZK 32,000",,Very good,Brick,,,,Personal,,,,,Gas boiler,,,,
"CZK 15,000","CZK 3,500",660950,Studio,10/1/2022,37 m²,Fully furnished,1,,1.0,,58.78,415.44,123.63,280.09,0.14,348.3,97.19,129.32,470.2,310.79,"Soukenická, Prague - Nové Město",50.09157,14.43123,"CZK 30,000",D,Very good,Brick,1.0,,1.0,Personal,Interior,,Standard,,Distance,,,,
"CZK 17,500","CZK 3,000",729455,2+kk,8/10/2022,56 m²,Fully furnished,3,1.0,1.0,,248.28,1144.48,375.04,1366.78,712.61,394.22,1609.11,747.87,1063.69,167.62,Prague - Michle,50.0574,14.46782,"CZK 30,000",A,New-build,Brick,1.0,,1.0,,,,,,,1.0,1.0,,
"CZK 20,000","CZK 3,000",729985,2+kk,9/1/2022,66 m²,Partly,2,,1.0,,305.27,730.44,204.38,440.06,215.35,355.2,355.33,555.91,337.08,262.6,Prague - Libeň,50.10809,14.47559,"CZK 40,000",G,New-build,Other,,,,,,,,1.0,,1.0,1.0,,
"CZK 17,500","CZK 1,000",730007,2+kk,9/1/2022,46 m²,Fully furnished,2,,,,81.36,725.52,62.05,501.8,69.69,500.51,315.12,191.96,431.0,242.32,Prague - Vršovice,50.07118,14.4607,"CZK 40,000",G,Very good,Brick,1.0,,,Personal,,,,,Electric boiler,,,,
"CZK 14,000","CZK 3,000",729996,2+kk,8/15/2022,39 m²,Fully furnished,5,1.0,,,258.84,486.12,220.91,478.78,179.92,155.7,177.17,233.12,838.22,137.98,Prague - Braník,50.02421,14.42841,"CZK 14,000",G,Good,Prefab concrete,,,,,,,,,,,,,
"CZK 21,000","CZK 4,000",729997,3+kk,8/31/2022,84 m²,Partly,10,,,,260.8,329.52,209.48,127.19,366.26,427.71,303.69,423.48,487.81,373.54,Prague - Háje,50.0303,14.53306,"CZK 21,000",G,Very good,Prefab concrete,,,,,,,,1.0,,,,,
"CZK 17,000","CZK 5,500",666580,3+1,9/1/2022,70 m²,Partly,4,,,,223.93,440.21,127.34,594.23,354.73,535.09,506.22,227.2,639.45,171.86,"Vrátkovská, Prague - Strašnice",50.07767,14.49751,"CZK 22,500",D,Good,Prefab concrete,,,,Cooperative,,,,1.0,,,,,
"CZK 25,000","CZK 5,000",672188,4+kk,10/1/2022,75 m²,Partly,6,,1.0,,347.99,1372.18,309.17,1447.54,319.26,1437.07,229.32,179.55,810.33,112.39,"Pertoldova, Prague - Modřany",50.00133,14.43075,"CZK 30,000",G,Very good,Prefab concrete,1.0,,1.0,Personal,,,,1.0,,,,,
"CZK 9,800",CZK 600,729995,Small studio,8/15/2022,23 m²,Partly,2,,,,88.55,218.51,87.34,265.33,101.22,363.34,431.17,555.65,409.01,250.43,Prague - Vršovice,50.067,14.4571,"CZK 9,800",G,Very good,Brick,,,,,,,,,,,,,
"CZK 16,400","CZK 2,919",729992,Studio,8/15/2022,38 m²,Fully furnished,1,1.0,1.0,,432.29,869.99,174.64,599.8,284.14,257.83,648.15,747.88,800.5,599.28,Prague - Libeň,50.1045744,14.4729762,"CZK 19,319",B,New-build,Brick,1.0,,1.0,Personal,Complete,Up to 10 years,Luxurious,,,1.0,,,
"CZK 25,000","CZK 7,000",726082,1 bedroom,7/17/2022,46 m²,Fully furnished,-1,,,,175.91,451.22,76.55,200.12,61.87,336.74,535.56,596.58,855.68,467.15,Prague - Nové Město,50.07405,14.4145,"CZK 50,000",E,New-build,Brick,,,,Personal,Complete,Over 50 years,Luxurious,,,,,,
"CZK 40,000","CZK 7,000",726083,2 bedroom,7/17/2022,75 m²,Fully furnished,4,,,,175.91,451.22,76.55,200.12,61.87,336.74,535.56,596.58,855.68,467.15,Prague - Nové Město,50.07405,14.4145,"CZK 80,000",E,Very good,Brick,,,,,Complete,,Luxurious,,,,,,
"CZK 13,000","CZK 2,000",729987,1 bedroom,8/15/2022,33 m²,Partly,3,,,,45.71,924.4,146.26,646.66,8.7,711.02,847.67,166.72,774.55,203.9,Prague - Smíchov,50.06215,14.38988,"CZK 26,000",G,Very good,Brick,,,,,Complete,,Standard,,Electric boiler,,,,
"CZK 17,000","CZK 4,000",697632,2 bedroom,9/1/2022,50 m²,Partly,2,,1.0,,202.75,626.69,131.47,235.42,366.83,797.87,96.63,608.21,504.06,68.68,"náměstí Na Balabence, Prague - Libeň",50.10566,14.48235,"CZK 20,000",G,Very good,Brick,1.0,,,Personal,Complete,,Standard,1.0,Electric boiler,,,,
"CZK 12,000","CZK 2,950",729371,1 bedroom,8/10/2022,47 m²,Partly,5,,1.0,,130.79,263.27,264.44,291.93,331.26,284.1,242.5,421.78,447.15,239.98,Prague - Stodůlky,50.04378,14.32841,"CZK 24,000",G,Good,Prefab concrete,1.0,,,Other,,,,1.0,,,,,
"CZK 17,900","CZK 3,000",255108,2+kk,10/1/2022,55 m²,Partly,2,,1.0,,232.03,881.46,24.72,712.58,417.16,837.22,211.45,2077.16,1086.46,149.0,"Sazovická, Prague - Zličín",50.0577682148,14.2825120987,"CZK 35,800",,New-build,Brick,1.0,,1.0,Personal,,Up to 10 years,Luxurious,1.0,Central,1.0,1.0,,
"CZK 14,000","CZK 2,880",729823,1 bedroom,8/14/2022,32 m²,Partly,1,,,1.0,1183.93,1684.93,1612.87,2153.03,1884.46,1989.34,1758.52,1694.5,1317.94,184.88,Prague - Malá Chuchle,50.02254,14.3885,"CZK 28,000",G,Very good,Brick,,,1.0,,,,,,,,,,
"CZK 25,000","CZK 3,000",729476,3+kk,8/11/2022,69 m²,Partly,8,,1.0,,41.41,357.85,168.15,189.94,112.9,141.5,627.05,443.81,695.08,98.67,Prague - Žižkov,50.0786,14.46037,"CZK 25,000",B,Very good,Low-energy,1.0,1.0,,,,,,,,,,,
"CZK 14,000","CZK 3,500",685886,2+kk,10/1/2022,45 m²,Partly,6,,,,197.45,440.22,120.51,932.98,220.12,436.92,166.15,398.05,246.08,109.28,"Borovanského, Prague - Stodůlky",50.03862,14.34002,"CZK 20,000",G,Very good,Prefab concrete,1.0,,,Cooperative,,,,,,,,,
"CZK 17,000","CZK 3,500",465918,1 bedroom,8/21/2022,37 m²,Fully furnished,3,,,,200.72,600.92,144.24,145.95,138.78,399.64,679.4,511.11,496.57,377.77,"Na Celné, Prague - Smíchov",50.0715092,14.409671,"CZK 20,000",,,Brick,,,,Personal,Complete,,,,Electric boiler,,,,
"CZK 8,000","CZK 3,700",729966,Small studio,8/15/2022,20 m²,Partly,4,,,,111.65,608.86,74.16,512.01,358.21,419.05,256.16,331.17,552.81,125.13,Prague - Vršovice,50.07329,14.47054,"CZK 16,000",G,Good,Brick,,,,,,,,,,,,,
"CZK 13,500","CZK 1,000",729961,Small studio,9/1/2022,28 m²,Partly,4,,,,131.52,150.96,141.36,93.73,15.42,210.61,143.91,438.79,121.75,419.4,Prague - Vršovice,50.06817,14.45449,"CZK 15,000",G,Good,Brick,1.0,1.0,,,,,,,,,,,
"CZK 28,000","CZK 1,860",632286,2 bedroom,11/13/2020,99 m²,Partly,2,,,,478.8,591.92,370.65,828.73,398.29,798.26,428.22,378.25,620.85,677.83,"Perucká, Prague - Vinohrady",50.068862,14.438625,"CZK 35,000",G,Good,Brick,,,1.0,Personal,,Over 50 years,Standard,,,,,,
"CZK 18,000","CZK 4,000",422289,3+kk,9/1/2022,62 m²,Partly,1,,,,349.4,572.95,463.03,504.55,608.98,829.85,376.29,223.35,863.97,146.24,"Borošova, Prague - Háje",50.0303216,14.5380942,"CZK 25,000",,Very good,Prefab concrete,,,,Cooperative,Interior,,Standard,1.0,Central,,,,
"CZK 27,000","CZK 2,800",729947,3+kk,9/1/2022,80 m²,Unfurnished,3,1.0,,,123.73,504.08,88.34,166.22,168.28,331.46,520.43,300.11,897.27,383.33,Prague - Žižkov,50.07838,14.45734,"CZK 54,000",G,Very good,Brick,,,,,,,,,,,,,
"CZK 18,000","CZK 4,000",670896,Studio,9/1/2022,40 m²,Fully furnished,5,,,,10.59,665.3,5.26,495.41,14.16,424.06,265.3,603.82,239.39,165.01,"Táborská, Prague - Nusle",50.06129,14.43673,"CZK 18,000",D,Very good,Brick,,,,Personal,,,,,,,,,
"CZK 13,500",CZK 500,729944,Studio,10/1/2022,38 m²,Fully furnished,5,,1.0,,233.84,1275.59,229.74,1315.56,318.64,307.71,443.89,133.99,1126.09,128.62,Prague - Hostivař,50.04662,14.51884,"CZK 15,000",B,Very good,Prefab concrete,1.0,,,,Interior,10 to 30 years,Standard,,,,,,
"CZK 14,000","CZK 2,500",612251,Studio,9/1/2022,25 m²,,1,,,,211.15,237.15,355.34,868.62,194.77,283.9,145.14,177.97,611.03,466.53,"Omská, Prague - Vršovice",50.072914,14.478114,"CZK 25,000",B,New-build,Brick,,,,Personal,,,,,,,,,
"CZK 18,900","CZK 5,400",481187,3+1,6/28/2022,70 m²,Partly,3,,1.0,,76.93,257.89,345.98,1178.12,200.24,544.99,283.38,110.64,707.91,152.52,"Valentova, Prague - Chodov",50.0323705,14.5050402,"CZK 19,000",,,Prefab concrete,1.0,,1.0,Personal,Interior,,,1.0,,,,,
"CZK 24,000","CZK 5,000",729939,3+kk,8/15/2022,80 m²,Fully furnished,3,1.0,1.0,,404.22,627.09,484.92,932.02,709.91,847.27,542.04,621.82,662.9,305.7,Prague - Horní Měcholupy,50.04295,14.54968,"CZK 75,000",G,New-build,Brick,1.0,,1.0,,Complete,10 to 30 years,,,Central,1.0,1.0,,
"CZK 16,240","CZK 4,760",598253,3+kk,9/1/2022,62 m²,Fully furnished,2,1.0,,,43.9,1481.21,321.11,1214.55,271.5,1639.89,581.9,182.8,842.09,733.21,"Jeremenkova, Prague - Podolí",50.045654,14.419161,"CZK 21,000",E,Good,Brick,1.0,,,Cooperative,,,,,,,,,
"CZK 12,900","CZK 5,100",711589,Studio,9/15/2022,40 m²,Fully furnished,1,1.0,1.0,,438.88,940.13,77.75,747.77,397.2,513.24,157.25,742.38,1542.92,450.79,"Schwarzenberská, Prague - Jinonice",50.05468,14.35292,"CZK 18,000",G,Good,Brick,,,,Personal,,10 to 30 years,Standard,,Electric boiler,,,,
"CZK 25,500","CZK 4,200",656580,3+kk,10/15/2022,79 m²,Partly,3,,1.0,,165.26,428.49,81.56,324.24,167.43,267.04,108.89,330.95,485.95,263.54,Prague - Žižkov,50.0827042,14.455385,"CZK 51,000",G,Very good,Brick,1.0,,,Personal,,,,,,,,,
"CZK 12,000","CZK 3,000",666043,Studio,9/1/2022,29 m²,Partly,8,,1.0,,297.87,147.25,573.29,1497.54,55.44,856.83,652.11,201.35,235.95,80.18,"Bukolská, Prague - Bohnice",50.13068,14.43328,"CZK 23,000",D,Very good,Prefab concrete,,,1.0,Personal,Bathroom unit,,Standard,,Electric boiler,,,,
"CZK 25,900","CZK 4,500",577288,2+kk,9/1/2022,60 m²,Fully furnished,6,1.0,1.0,,183.97,1118.9,5.8,558.34,121.65,425.24,124.13,356.18,285.18,98.76,"Drahobejlova, Prague - Libeň",50.1060756,14.4904958,"CZK 40,000",C,Very good,Brick,1.0,,1.0,Personal,,,,,Gas boiler,,,,
"CZK 18,000","CZK 1,300",718466,2+kk,8/15/2022,56 m²,Fully furnished,5,,1.0,,531.4,1050.41,259.34,1026.34,766.86,666.48,549.97,580.86,1348.22,125.03,"Zakšínská, Prague - Střížkov",50.1307421,14.4956911,"CZK 15,000",G,Very good,Brick,,,,Personal,,Up to 10 years,Standard,1.0,Distance,,,,
"CZK 14,000",CZK 600,538941,Studio,9/1/2022,32 m²,Partly,5,,,,172.71,932.23,143.93,381.62,49.0,314.45,235.06,275.0,282.85,68.91,Prague - Nové Město,50.0684511,14.4165468,"CZK 14,000",,,Brick,,,,Personal,Complete,,,,Electric boiler,,,,
"CZK 17,000","CZK 4,000",713312,2+kk,9/1/2022,65 m²,Partly,2,,,,320.54,804.25,643.24,6158.2,842.45,668.33,418.35,358.48,633.23,430.5,"Moravanská, Prague - Vinoř",50.1484241,14.58219925,"CZK 21,000",B,Very good,Brick,,,1.0,Personal,Complete,Up to 10 years,Luxurious,,Electric boiler,,,,
"CZK 12,500","CZK 1,500",729925,Studio,10/1/2022,22 m²,Partly,5,1.0,,,121.93,541.11,118.49,181.69,179.17,561.9,303.13,231.52,434.09,517.31,Prague - Žižkov,50.08574,14.44495,"CZK 20,000",C,Very good,Other,,,,,,,,,,,,,
"CZK 15,000","CZK 3,600",488212,Other,10/1/2022,50 m²,Fully furnished,1,,,,70.79,525.09,35.11,155.92,83.28,67.83,136.08,296.99,57.09,406.71,Prague - Holešovice,50.0992805,14.4298792,"CZK 15,000",B,,Brick,1.0,,,Personal,,,,,Other,,,,
"CZK 21,500","CZK 3,500",729492,2+kk,9/1/2022,47 m²,Partly,4,,1.0,1.0,134.46,669.35,190.02,469.25,90.59,366.62,360.94,239.34,574.35,331.79,Prague - Žižkov,50.08208,14.44511,"CZK 30,000",G,Very good,Brick,,,1.0,,Complete,,,,,,,,
"CZK 17,500","CZK 4,000",729918,Small studio,9/1/2022,46 m²,Partly,4,,1.0,,429.47,593.72,439.47,420.44,320.34,450.26,320.19,168.85,825.59,243.46,Prague - Vokovice,50.09832,14.35548,"CZK 17,500",B,Very good,Low-energy,1.0,,,,,,,,,,1.0,,
"CZK 14,000","CZK 3,200",519071,Studio,8/26/2022,35 m²,Fully furnished,1,,,1.0,270.8,465.97,462.71,505.95,362.97,524.87,359.82,260.66,144.15,249.62,Prague - Hostivař,50.0514172,14.5222681,"CZK 30,000",B,New-build,Brick,,,,Personal,,Up to 10 years,Standard,,Distance,,,,
"CZK 21,900","CZK 3,783",728853,2+kk,10/1/2022,65 m²,Fully furnished,9,,1.0,1.0,187.61,796.91,219.72,789.56,413.49,693.0,349.3,774.1,429.2,512.14,Prague - Kamýk,50.01897,14.43788,"CZK 40,000",G,New-build,Brick,,,1.0,,,,,,,,,,
"CZK 26,000",CZK 700,515108,2 bedroom,9/10/2022,86 m²,Fully furnished,3,,1.0,,265.77,542.68,147.13,453.32,30.41,219.17,236.4,243.59,121.47,388.34,"Polská, Prague - Vinohrady",50.0784326,14.4433314,"CZK 26,000",,Very good,Brick,,,,Personal,Interior,,,,Gas boiler,,,,
"CZK 18,000","CZK 3,000",705090,Studio,7/15/2022,31 m²,Fully furnished,1,,,,113.34,289.06,83.65,400.81,17.89,95.25,270.37,279.09,374.04,331.65,"Sokolovská, Prague - Karlín",50.0925008,14.4438167,"CZK 12,000",C,Very good,Brick,,,,Cooperative,Complete,Up to 10 years,Luxurious,,Central,,,,
"CZK 13,500","CZK 3,700",729900,Studio,8/15/2022,28 m²,Fully furnished,2,,1.0,,303.19,807.71,152.21,787.08,450.7,811.76,945.04,463.1,409.62,412.95,Prague - Hostivař,50.05456,14.52654,"CZK 13,000",B,New-build,Brick,1.0,,,,,,,,,1.0,,,
"CZK 21,000","CZK 3,000",703730,2+kk,9/1/2022,47 m²,Fully furnished,5,1.0,1.0,,138.12,339.19,73.34,545.9,50.64,130.55,131.69,140.41,506.35,322.32,"Vítkova, Prague - Karlín",50.09182,14.44512,"CZK 21,000",C,Very good,Brick,1.0,,,Cooperative,Complete,10 to 30 years,Standard,,Central,,,,
"CZK 14,900","CZK 2,900",521605,Studio,9/1/2022,31 m²,Fully furnished,1,,1.0,1.0,413.56,1896.45,194.15,1197.72,368.34,363.51,849.69,364.87,435.02,700.34,"Lindleyova, Prague - Dejvice",50.1126353,14.3907162,"CZK 17,800",B,,Brick,1.0,,,Personal,,,,,,1.0,,,
"CZK 17,000","CZK 4,000",729326,2+kk,8/9/2022,55 m²,Partly,3,1.0,1.0,,244.31,1139.36,535.55,3749.24,225.17,512.26,929.55,3171.89,1088.17,286.69,Prague - Dolní Měcholupy,50.06691,14.55204,"CZK 34,000",G,New-build,Prefab concrete,,,,,,Up to 10 years,,,Central,1.0,,,
"CZK 22,200","CZK 3,800",657252,2+kk,11/1/2022,50 m²,Fully furnished,4,,1.0,,133.15,481.82,43.42,82.77,46.47,54.1,409.65,568.09,3.58,537.27,"Křižíkova, Prague - Karlín",50.09258,14.45368,"CZK 26,000",G,Very good,Brick,1.0,,,Cooperative,,,,,,,,,
