Listing ID,Price,Latitude,Longitude,District,Layout,Condition,Floor Space,Fees,Refundable security deposit,Administration fee,Ownership Type,Building Type,Furnishing and Fittings,Floor,Balcony,Terrace,Cellar,Loggia,Parking,Lift,Garage,PENB,Public transport stop,Post office,Shop,Bank,Restaurant,Pharmacy,School,Kindergarten,Sports field,Playground,Available from,Age,Design,Heating,Total number of floors,New building,Renovation,Front garden,Developer name,Project name,Kód jednotky
707694,"CZK 12,490",50.05653277777,14.43214805555,"Dačického, Prague - Nusle",1 bedroom with open-plan kitchen,Excellent,58 m²,"CZK 2,399","CZK 14,889","CZK 14,889

                                
                                
                
i",Personal,Brick building,Unfurnished,3,No,No,Yes,No,No,Yes,No,D,129,955,179,262,173,390,730,456,162,260,,,,,,,,,,,
714474,"CZK 37,500",50.0822245,14.4146349,"Krocínova, Prague - Staré Město",2 bedroom with open-plan kitchen,,102 m²,"CZK 12,500",,,,,Furnished,2,Yes,Yes,No,No,No,Yes,No,,258,962,181,204,1,145,392,348,304,385,17. 06. 2022,,,,,,,,,,
694287,"CZK 12,800",50.03456,14.38521,"Silurská, Prague - Hlubočepy",2 bedroom,Excellent,50 m²,"CZK 4,500","CZK 17,200",,Personal,Prefab concrete building,Partially furnished,1,No,No,Yes,No,No,Yes,Yes,G,220,848,375,756,278,814,980,966,934,501,01. 12. 2021,10 to 30 years years,Standard materials and solutions,District heating,Raised ground floor,,,,,,
710905,"CZK 19,000",50.1316367,14.5540352,"Martinická, Prague - Kbely",1 bedroom with open-plan kitchen,Excellent,46 m²,"CZK 4,000","CZK 30,000",,Personal,Brick building,Furnished,1,No,Yes,No,No,No,Yes,Yes,C,166,764,230,176,215,908,641,780,101,,30. 04. 2022,,,District heating,Raised ground floor,Yes,,,,,
715545,"CZK 16,500",50.05976,14.42668,"Mikuláše z Husi, Prague - Nusle",1 bedroom with open-plan kitchen,Excellent,45 m²,"CZK 3,500","CZK 30,000",,Personal,Brick building,Furnished,4,Yes,No,Yes,No,No,No,No,F,44,588,142,353,88,446,506,192,83,300,01. 05. 2022,,,,,,,,,,
714357,"CZK 17,000",50.04343,14.51484,"Rižská, Prague - Hostivař",1 bedroom with open-plan kitchen,Excellent,50 m²,"CZK 3,500","CZK 34,000",,Personal,Brick building,Furnished,4,No,No,Yes,Yes,Yes,Yes,Yes,B,,,,,,,,,,,11. 07. 2022,1 to 10 years years,Premium materials and solutions,District heating,Middle floor,Yes,,,,,
615620,"CZK 25,000",50.057222,14.492372,"Za Slatinami, Prague - Záběhlice",3 bedroom with open-plan kitchen,New build,105 m²,"CZK 4,150","CZK 50,000",,Personal,Brick building,Partially furnished,1,No,No,No,No,No,No,No,A,187,896,332,"1,186",379,330,411,902,160,424,30. 04. 2022,1 to 10 years years,Standard materials and solutions,Gas boiler,Middle floor,Yes,Overall,,,,
715542,"CZK 12,000",50.08492,14.37106,"Junácká, Prague - Břevnov",Studio,Excellent,37 m²,"CZK 3,500","CZK 12,000",,Personal,Brick building,Furnished,5,No,Yes,No,No,Yes,Yes,No,G,277,511,235,326,235,313,341,162,516,501,25. 04. 2022,,,,,,,,,,
619958,"CZK 25,000",50.036541,14.383217,"Pražského, Prague - Hlubočepy",4 bedroom,Excellent,90 m²,"CZK 5,000","CZK 24,000",,Personal,Other,Furnished,2,Yes,No,No,No,No,Yes,No,G,123,683,567,597,584,628,588,578,540,293,01. 06. 2022,10 to 30 years years,,District heating,Middle floor,,Interior,,,,
715537,"CZK 18,000",50.13944,14.44911,"K Beranovu, Prague - Dolní Chabry",Studio,New build,95 m²,"CZK 4,500","CZK 36,000",,Personal,Low-energy building,Partially furnished,1,No,Yes,No,No,Yes,Yes,No,A,282,"1,007",164,736,583,"1,091",136,,,,01. 05. 2022,,,,,,,,,,
639060,"CZK 24,500",50.08376,14.455893,"Lupáčova, Prague - Žižkov",1 bedroom with open-plan kitchen,New build,50 m²,"CZK 2,500","CZK 49,000",,Personal,Brick building,Furnished,8,No,No,No,No,No,Yes,No,A,207,451,138,317,99,309,112,228,402,163,01. 02. 2022,,,,,,,,,,
713473,"CZK 31,425",50.0643299,14.4102127,"Strakonická, Prague - Smíchov",Studio,,30 m²,"CZK 10,475",,,,,Furnished,2,No,No,No,No,No,Yes,No,,211,382,250,989,170,745,812,"1,050",387,543,19. 05. 2022,,,,,,,,,,
644163,"CZK 12,600",50.103357,14.512565,"Podkovářská, Prague - Vysočany",Studio,Excellent,39 m²,"CZK 2,300","CZK 14,900",,Personal,Brick building,Furnished,2,No,No,No,Yes,No,Yes,Yes,G,101,296,"1,266",916,410,648,"1,168",891,270,,01. 06. 2022,10 to 30 years years,,Central heating,Middle floor,,,,,,
408757,"CZK 17,000",50.055196715629,14.437190215344,"Sevřená, Prague - Nusle",2 bedroom,Excellent,63 m²,"CZK 6,200","CZK 30,000",,Personal,Brick building,Partially furnished,3,Yes,No,Yes,No,No,No,No,G,181,"1,036",258,385,220,237,720,21,368,346,01. 07. 2022,1 to 10 years years,,Gas boiler,Middle floor,,Overall,236 m²,,,
714456,"CZK 16,500",50.10826,14.48571,"Kovanecká, Prague - Libeň",1 bedroom with open-plan kitchen,Excellent,50 m²,"CZK 2,800","CZK 25,000",,Personal,Brick building,Partially furnished,4,Yes,No,No,No,No,Yes,No,C,,,,,,,,,,,17. 04. 2022,1 to 10 years years,,District heating,,,,,,,
290365,"CZK 9,000",50.0248707,14.4253578,"Údolní, Prague - Braník",Small studio,Excellent,29 m²,"CZK 4,000","CZK 13,000",,Personal,Prefab concrete building,Furnished,1,No,No,No,No,No,No,No,,136,725,218,718,65,178,358,369,"1,176",252,01. 06. 2022,1 to 10 years years,Standard materials and solutions,District heating,Raised ground floor,,,,,,
32214,"CZK 18,000",50.0641982,14.4446428,"Čestmírova, Prague - Nusle",1 bedroom with open-plan kitchen,,58 m²,"CZK 4,500","CZK 22,500",,Personal,Brick building,Furnished,5,No,No,No,No,No,No,No,A,263,485,26,228,236,235,526,764,731,637,15. 05. 2022,1 to 10 years years,Standard materials and solutions,Central heating,Middle floor,,Interior,,,,
715525,"CZK 12,490",50.05364583333,14.50818555555,"Práčská, Prague - Záběhlice",2 bedroom,Good,52 m²,"CZK 3,260","CZK 15,750","CZK 15,750

                                
                                
                
i",Personal,Prefab concrete building,Partially furnished,4,No,No,Yes,No,No,Yes,No,D,68,751,597,699,336,747,690,570,"1,168",464,,,,,,,,,,,
713206,"CZK 19,000",50.07059,14.30566,"Španielova, Prague - Řepy",3 bedroom,Good,74 m²,"CZK 6,500","CZK 30,000",,Personal,Prefab concrete building,Furnished,7,Yes,No,No,No,No,Yes,No,G,234,969,215,931,184,497,172,364,"1,327",453,01. 05. 2022,30 to 50 years years,Standard materials and solutions,,Middle floor,,Exterior,,,,
226603,"CZK 17,790",50.1010663,14.3658334,Prague - Dejvice,2 bedroom,Excellent,55 m²,"CZK 3,180","CZK 20,000",,Personal,Brick building,Partially furnished,1,No,No,No,Yes,No,No,No,,371,778,804,414,512,679,906,703,"1,121",189,01. 06. 2022,,Standard materials and solutions,District heating,Middle floor,,Overall,,,,
715088,"CZK 19,000",50.04660745,14.306405720331,Prague - Stodůlky,1 bedroom with open-plan kitchen,New build,49 m²,"CZK 3,885","CZK 19,000",,Personal,Brick building,Partially furnished,4,Yes,No,No,No,Yes,Yes,Yes,B,21,194,102,"1,275",85,710,807,412,573,208,26. 05. 2022,,,,,,,,,,
715522,"CZK 17,990",50.07701277777,14.47691861111,"Hollarovo náměstí, Prague - Vinohrady",1 bedroom with open-plan kitchen,Good,46 m²,"CZK 2,845","CZK 20,835","CZK 20,835

                                
                                
                
i",Personal,Brick building,Partially furnished,5,No,No,Yes,No,No,No,No,G,166,882,124,472,188,154,741,797,310,110,,,,,,,,,,,
715519,"CZK 13,500",50.0660067,14.4024876,"Bieblova, Prague - Smíchov",2 bedroom,Excellent,50 m²,"CZK 1,500","CZK 10,000",,Personal,Brick building,Furnished,2,No,No,No,No,No,No,No,B,283,525,257,548,331,428,318,494,756,379,29. 04. 2022,,,Other,Middle floor,,Overall,70 m²,,,
715518,"CZK 11,900",50.07613,14.42899,"Sokolská, Prague - Nové Město",Small studio,Excellent,19 m²,"CZK 2,700","CZK 23,400",,Personal,Brick building,Furnished,4,No,No,No,No,No,Yes,No,G,129,554,102,144,63,36,234,309,162,133,22. 04. 2022,,,,,,,,,,
715517,"CZK 16,000",50.0661714,14.3996763,"Bieblova, Prague - Smíchov",1 bedroom with open-plan kitchen,Excellent,60 m²,"CZK 1,000","CZK 12,000",,Personal,Brick building,Furnished,3,No,Yes,No,No,No,No,No,B,66,308,50,655,250,368,101,287,549,218,29. 04. 2022,,Standard materials and solutions,Other,Top floor,,Overall,,,,
657007,"CZK 11,000",50.0291787,14.4506539,Prague - Krč,Studio,Excellent,27 m²,"CZK 3,200","CZK 22,000",,Personal,Prefab concrete building,Partially furnished,10,No,No,No,No,Yes,Yes,No,C,69,"1,240",280,57,704,788,"1,119",504,325,,01. 03. 2022,,,District heating,,,Interior,,,,
214652,"CZK 14,000",50.0948449,14.4643843,"Molákova, Prague - Karlín",Small studio,Excellent,35 m²,"CZK 2,000","CZK 14,000",,Personal,Low-energy building,Furnished,2,Yes,No,No,No,No,No,No,B,347,"1,409",373,"1,019",284,883,160,697,933,328,01. 05. 2022,30 to 50 years years,Standard materials and solutions,Central heating,Middle floor,,Overall,,,,
715514,"CZK 9,990",50.07209666666,14.46993805555,"28. pluku, Prague - Vršovice",Studio,Good,29 m²,"CZK 2,874","CZK 12,864","CZK 12,864

                                
                                
                
i",Personal,Brick building,Furnished,5,No,No,Yes,No,No,Yes,No,D,65,536,127,372,178,141,442,314,717,100,,,,,,,,,,,
706562,"CZK 27,000",50.08773,14.40913,"U Lužického semináře, Prague - Malá Strana",3 bedroom with open-plan kitchen,Excellent,70 m²,"CZK 6,000","CZK 33,000",,Personal,Brick building,Partially furnished,1,No,No,No,No,No,No,No,G,,,,,,,,,,,11. 05. 2022,,,,,Yes,,,Luka Residential s.r.o.,Luka Living Rental apartments,DČ1
712480,"CZK 22,000",50.04595,14.32223,"Mukařovského, Prague - Stodůlky",2 bedroom,Excellent,42 m²,CZK 133,"CZK 44,000",,Personal,Other,Furnished,13,No,No,Yes,No,Yes,Yes,Yes,A,,,,,,,,,,,22. 07. 2022,,,,,Yes,,,Luka Residential s.r.o.,Luka Living Rental apartments,1301
714237,"CZK 36,000",50.04595,14.32223,"Mukařovského, Prague - Stodůlky",2 bedroom with open-plan kitchen,Excellent,94 m²,CZK 133,"CZK 72,000",,Personal,Other,Furnished,11,No,Yes,Yes,No,Yes,Yes,Yes,A,,,,,,,,,,,10. 07. 2022,,,,,Yes,,,Luka Residential s.r.o.,Luka Living Rental apartments,1115
714245,"CZK 15,900",50.04595,14.32223,"Mukařovského, Prague - Stodůlky",Studio,Excellent,31 m²,CZK 133,"CZK 31,800",,Personal,Other,Unfurnished,11,Yes,No,Yes,No,Yes,Yes,No,A,,,,,,,,,,,25. 06. 2022,,,,,Yes,,,Luka Residential s.r.o.,Luka Living Rental apartments,1103
714255,"CZK 30,000",50.07202,14.44518,"Francouzská, Prague - Vinohrady",Studio,Excellent,40 m²,CZK 133,"CZK 60,000",,Personal,Brick building,Unfurnished,1,No,Yes,No,No,No,No,No,A,,,,,,,,,,,14. 04. 2022,,,,,Yes,,,Luka Residential s.r.o.,Luka Living Rental apartments,F003
715044,"CZK 21,000",50.14019,14.44547,"Poštova, Prague - Dolní Chabry",2 bedroom with open-plan kitchen,New build,82 m²,"CZK 5,000","CZK 30,000",,Personal,Brick building,Partially furnished,3,Yes,No,Yes,No,Yes,Yes,No,B,655,"1,299",492,988,874,725,"1,250",395,,,25. 04. 2022,,,,,,,,,,
715510,"CZK 11,000",50.13562,14.50983,"Bohumínská, Prague - Letňany",Studio,Excellent,41 m²,"CZK 3,500","CZK 14,500",,Personal,Prefab concrete building,Partially furnished,7,No,No,No,No,No,No,No,G,67,664,234,512,199,143,220,630,273,371,25. 04. 2022,,,,,,,,,,
693943,"CZK 10,990",50.07832805555,14.48644305555,"Názovská, Prague - Strašnice",Studio,New build,38 m²,"CZK 2,223","CZK 13,213","CZK 13,213

                                
                                
                
i",Personal,Brick building,Furnished,4,Yes,No,No,No,No,Yes,No,C,190,611,267,287,136,220,599,802,515,31,,,,,,Yes,,,,,
288880,"CZK 18,900",50.1022043,14.4276994,"Umělecká, Prague - Holešovice",1 bedroom,,40 m²,"CZK 5,232","CZK 25,000",,Personal,Brick building,Furnished,3,No,No,No,No,No,No,No,,155,636,117,335,211,192,65,126,503,,23. 04. 2022,,,,,,,,,,
671752,"CZK 13,850",50.10608,14.4905,"Drahobejlova, Prague - Libeň",Studio,Excellent,30 m²,CZK 950,"CZK 25,000",,Personal,Brick building,Partially furnished,2,No,No,No,No,No,Yes,No,C,184,143,6,326,135,425,130,356,84,98,17. 04. 2022,,,,,,,,,,
715505,"CZK 15,500",50.05001,14.48432,"Střimelická, Prague - Záběhlice",3 bedroom,Excellent,69 m²,"CZK 8,400","CZK 60,000",,Personal,Brick building,Furnished,3,Yes,No,Yes,No,No,Yes,No,G,102,553,211,495,293,"1,490",341,109,904,40,01. 07. 2022,,,,,,,,,,
628099,"CZK 35,000",50.067668,14.359419,"U tenisu, Prague - Košíře",5 bedroom,Excellent,110 m²,"CZK 2,500","CZK 70,000",,Personal,Brick building,Furnished,1,No,No,No,No,No,No,Yes,A,272,"1,304",826,960,438,853,675,696,462,761,01. 06. 2022,1 to 10 years years,,Gas boiler,Middle floor,,Overall,95 m²,,,
715009,"CZK 17,000",50.06318,14.42534,"Krokova, Prague - Nusle",2 bedroom,Excellent,50 m²,"CZK 5,000","CZK 22,000",,Personal,Brick building,Furnished,4,No,No,No,No,No,Yes,No,G,354,700,335,370,357,497,364,241,366,274,02. 05. 2022,,,,,,,,,,
498022,"CZK 12,000",50.047703,14.431007,"Kaplická, Prague - Podolí",Studio,Excellent,34 m²,"CZK 2,500","CZK 20,000",,Personal,Prefab concrete building,Partially furnished,3,No,No,No,Yes,No,Yes,No,C,279,919,252,610,314,691,295,384,662,117,18. 04. 2022,,Premium materials and solutions,District heating,Middle floor,,Overall,,,,
661112,"CZK 11,000",50.07518,14.41415,"Rašínovo nábřeží, Prague - Nové Město",1 bedroom with open-plan kitchen,Good,69 m²,"CZK 1,000","CZK 15,000",,Personal,Brick building,Furnished,-1,No,No,No,No,No,No,No,,81,379,150,407,21,469,292,486,780,413,01. 05. 2022,,,,,,,,,,
715500,"CZK 29,000",50.04711,14.30195,"Svitákova, Prague - Stodůlky",3 bedroom with open-plan kitchen,New build,100 m²,"CZK 9,000","CZK 40,000",,Personal,Other,Partially furnished,1,No,No,No,No,No,No,No,B,334,243,49,247,"1,107","1,075",702,863,160,,08. 08. 2022,,,,,,,,,,
715495,"CZK 55,660",50.0928722,14.4500782,"Křižíkova a, Prague - Karlín",5 bedroom,,142 m²,"CZK 18,553",,,,,Furnished,4,Yes,Yes,No,No,No,Yes,Yes,,123,293,167,222,66,246,411,"1,258",283,254,01. 05. 2022,,,,,,,,,,
715493,"CZK 10,000",50.00929,14.40772,"Darwinova, Prague - Modřany",Small studio,Excellent,32 m²,"CZK 2,000","CZK 12,000",,Personal,Brick building,Partially furnished,2,No,No,No,No,No,No,No,G,132,"1,099",639,"1,002",591,882,363,847,364,,01. 06. 2022,,,,,,,,,,
715490,"CZK 20,000",50.05126,14.34434,"Petržílkova, Prague - Stodůlky",1 bedroom with open-plan kitchen,Excellent,54 m²,"CZK 3,500","CZK 20,000",,Personal,Low-energy building,Partially furnished,3,Yes,No,No,No,No,Yes,No,C,165,345,77,309,101,208,134,246,"1,098",142,23. 04. 2022,,,,,,,,,,
260594,"CZK 17,000",50.12283,14.456009,"Ke Stírce, Prague - Kobylisy",1 bedroom with open-plan kitchen,Excellent,54 m²,"CZK 3,300","CZK 30,000",,Personal,Brick building,Furnished,4,Yes,No,Yes,No,No,Yes,Yes,,10,584,2,59,48,246,142,467,918,500,,1 to 10 years years,,Central heating,Middle floor,Yes,,,,,
705725,"CZK 150,000",50.09114,14.41807,"Pařížská, Prague - Josefov",6 bedroom with open-plan kitchen,Excellent,322 m²,"CZK 15,000","CZK 165,000",,Personal,Brick building,Unfurnished,6,No,Yes,No,No,No,Yes,No,G,50,344,274,458,40,435,343,586,60,470,09. 02. 2022,,,,,,,,,,
715215,"CZK 15,000",50.10818115,14.5556455,"Za černým mostem, Prague - Hloubětín",Studio,New build,32 m²,"CZK 2,000","CZK 10,000",,Personal,Low-energy building,Furnished,1,No,Yes,Yes,No,No,No,No,A,127,650,224,136,604,370,"1,173","1,288",627,,21. 04. 2022,,,,,,,,,,
715046,"CZK 11,000",50.12411,14.48791,"Rumburská, Prague - Střížkov",Studio,Excellent,29 m²,"CZK 2,000","CZK 13,000",,Personal,Prefab concrete building,Furnished,4,No,No,Yes,No,No,Yes,No,G,315,968,325,907,472,397,437,183,267,200,01. 05. 2022,,,,,,,,,,
606047,"CZK 10,500",50.110155,14.5084,"Pod Strojírnami, Prague - Vysočany",1 bedroom,Excellent,26 m²,"CZK 1,600","CZK 15,000",,Personal,Brick building,Partially furnished,1,No,No,Yes,No,No,No,No,E,57,661,180,477,156,597,380,438,553,560,01. 05. 2022,,,,,,,,,,
664265,"CZK 18,900",50.06704,14.40011,"Na Skalce, Prague - Smíchov",1 bedroom with open-plan kitchen,Excellent,67 m²,"CZK 1,000","CZK 50,000",,Personal,Brick building,Unfurnished,3,No,No,Yes,No,No,Yes,No,G,139,265,85,595,216,348,220,415,677,200,04. 07. 2022,,,Gas boiler,Middle floor,,,,,,
715481,"CZK 35,175",50.0769346,14.4169603,"Na Zbořenci, Prague - Nové Město",2 bedroom,,65 m²,"CZK 11,725",,,,,Furnished,3,No,No,No,No,No,Yes,No,,168,319,99,227,101,409,227,243,632,429,14. 05. 2022,,,,,,,,,,
705981,"CZK 13,500",50.08524,14.44984,"Štítného, Prague - Žižkov",Studio,Excellent,30 m²,CZK 830,"CZK 25,000",,Personal,Other,Partially furnished,3,No,No,No,No,No,Yes,No,C,255,222,50,211,7,189,62,278,94,553,25. 04. 2022,1 to 10 years years,Standard materials and solutions,Other,Middle floor,,Overall,,,,
454348,CZK 17,50.0693943,14.3832932,"Vrchlického, Prague - Košíře",1 bedroom with open-plan kitchen,,46 m²,CZK 590,,,Personal,Brick building,Furnished,2,No,No,No,No,No,Yes,No,,293,575,258,859,377,967,377,817,991,447,25. 04. 2022,,,,,,,,,,
87340,"CZK 28,000",50.0734871,14.3916435,"Zapova, Prague - Smíchov",4 bedroom,Excellent,112 m²,CZK 987,"CZK 56,000",,Personal,Brick building,Partially furnished,3,No,No,No,No,No,No,Yes,,287,"1,211",218,902,58,993,297,739,"1,200",129,,,Standard materials and solutions,Gas boiler,Middle floor,,Overall,,,,
715474,"CZK 11,000",50.10275,14.47574,"Heydukova, Prague - Libeň",Small studio,Excellent,25 m²,"CZK 3,500","CZK 14,500",,Personal,Brick building,Furnished,-1,No,No,No,No,No,No,No,G,77,112,140,202,47,87,183,267,291,550,01. 05. 2022,,,,,,,,,,
453637,"CZK 14,500",50.1412404,14.510172,"Kuželova, Prague - Letňany",1 bedroom with open-plan kitchen,Excellent,43 m²,"CZK 4,000","CZK 29,000",,Personal,Brick building,Partially furnished,8,Yes,No,No,No,No,Yes,No,,389,777,192,"1,061",400,377,543,309,551,81,22. 04. 2022,,Standard materials and solutions,Electric boiler,Top floor,,,,,,
712024,"CZK 9,500",50.1264302,14.4948993,"Varnsdorfská, Prague - Střížkov",Studio,Excellent,27 m²,"CZK 3,000","CZK 20,000",,Personal,Prefab concrete building,Partially furnished,3,No,No,No,No,No,Yes,No,G,370,556,168,455,236,213,284,138,999,94,01. 04. 2022,,,,,,,,,,
714462,"CZK 14,900",50.0483074,14.3124035,Prague - Stodůlky,Studio,Excellent,37 m²,"CZK 3,000","CZK 29,800",,Personal,Brick building,Partially furnished,1,No,Yes,No,No,No,Yes,Yes,G,,,,,,,,,,,01. 05. 2022,,,,,,,40 m²,,,
599575,"CZK 27,000",50.092552,14.44379,"Sokolovská, Prague - Karlín",2 bedroom with open-plan kitchen,Excellent,46 m²,"CZK 3,500","CZK 30,000",,Cooperative,Brick building,Furnished,6,No,No,No,No,No,Yes,No,C,113,295,84,293,18,292,279,"1,016",374,318,01. 05. 2022,1 to 10 years years,Premium materials and solutions,Electric boiler,Middle floor,,Overall,,,,
223403,"CZK 15,500",50.1331108,14.4861759,"Roudnická, Prague - Střížkov",1 bedroom with open-plan kitchen,Good,45 m²,"CZK 3,000",CZK 2,,Personal,Prefab concrete building,Furnished,4,Yes,No,Yes,No,No,No,No,C,574,822,443,815,518,917,"1,422",168,,,01. 05. 2022,,Premium materials and solutions,District heating,Middle floor,,Overall,,,,
710879,"CZK 19,000",50.08726,14.40593,"Mostecká, Prague - Malá Strana",1 bedroom with open-plan kitchen,Excellent,70 m²,"CZK 7,000","CZK 25,000",,Personal,Other,Partially furnished,1,No,No,No,No,No,No,No,G,136,135,21,108,13,355,165,470,644,326,15. 04. 2022,,,,,,,,,,
715441,"CZK 18,000",50.06916,14.36792,"Pod Školou, Prague - Košíře",1 bedroom with open-plan kitchen,Excellent,56 m²,"CZK 2,500","CZK 36,000",,Personal,Brick building,Furnished,3,Yes,No,No,No,No,Yes,Yes,G,142,695,184,351,187,244,61,"1,044",415,338,01. 05. 2022,10 to 30 years years,Standard materials and solutions,Central heating,Middle floor,,,,,,
713920,"CZK 86,625",50.0882058,14.4262315,"Rybná, Prague - Staré Město",3 bedroom with open-plan kitchen,,150 m²,"CZK 28,875",,,,,Furnished,4,No,No,No,No,No,No,No,,281,192,58,183,11,368,315,297,289,305,11. 06. 2022,,,,,,,,,,
714092,"CZK 23,195",50.0719625,14.461813,"Bulharská, Prague - Vršovice",Studio,,35 m²,"CZK 7,731",,,,,Furnished,5,No,No,No,No,No,No,No,,220,827,175,604,97,602,416,334,726,246,12. 06. 2022,,,,,,,,,,
714359,"CZK 21,000",50.107989,14.3791722,"Šárecká, Prague - Dejvice",1 bedroom with open-plan kitchen,,60 m²,"CZK 7,000",,,,,Furnished,1,No,No,No,No,No,No,No,,423,672,"1,367",598,865,490,316,584,300,,15. 06. 2022,,,,,,,,,,
376757,"CZK 28,000",50.0705246,14.4147691,"Trojická, Prague - Nové Město",3 bedroom,,95 m²,"CZK 3,500",,,Personal,Brick building,Furnished,3,No,No,No,No,No,Yes,No,,242,783,35,302,54,64,420,177,473,401,01. 04. 2021,,,,,,,,,,
526565,"CZK 14,900",50.0428927,14.5489151,Prague - Horní Měcholupy,Studio,Excellent,48 m²,"CZK 3,000","CZK 30,000",,Personal,Brick building,Partially furnished,3,Yes,No,Yes,No,No,Yes,No,,458,678,536,983,807,902,586,673,760,344,01. 06. 2022,10 to 30 years years,Standard materials and solutions,District heating,Middle floor,,,,,,
715449,"CZK 17,000",50.04386,14.42527,"Nad Cihelnou, Prague - Podolí",Studio,New build,40 m²,"CZK 3,500","CZK 34,000",,Personal,Other,Unfurnished,1,No,Yes,No,No,No,Yes,Yes,A,72,"1,331",217,"1,367",582,"1,432",668,893,848,795,01. 05. 2022,1 to 10 years years,Standard materials and solutions,Central heating,Raised ground floor,,Overall,40 m²,,,
691358,"CZK 12,990",50.02901,14.36168,"Vítové, Prague - Hlubočepy",Studio,New build,29 m²,"CZK 2,000","CZK 12,990",,Cooperative,Prefab concrete building,Furnished,5,Yes,No,No,No,No,Yes,No,G,437,"1,318",559,"1,298",301,"1,336",529,769,854,542,21. 04. 2022,1 to 10 years years,,,Middle floor,,,,,,
586683,"CZK 17,000",50.05174,14.543651,"Horolezecká, Prague - Hostivař",1 bedroom with open-plan kitchen,New build,58 m²,"CZK 5,000","CZK 22,000",,Personal,Brick building,Furnished,6,Yes,No,Yes,No,No,Yes,Yes,A,235,288,192,226,389,754,172,512,293,,15. 02. 2020,1 to 10 years years,Premium materials and solutions,District heating,Middle floor,Yes,,,,,
626750,"CZK 25,900",50.038775,14.395989,"Na Srpečku, Prague - Hlubočepy",3 bedroom,Excellent,83 m²,"CZK 4,500","CZK 25,900",,Personal,Brick building,Partially furnished,1,No,Yes,Yes,No,Yes,No,No,B,138,776,733,795,620,578,654,,,,01. 06. 2022,,,Gas boiler,Raised ground floor,,Overall,50 m²,,,
715440,"CZK 15,000",50.064779,14.5525555,"Františka Jansy, Prague - Dolní Měcholupy",1 bedroom with open-plan kitchen,New build,48 m²,"CZK 3,000","CZK 15,000",,Cooperative,Brick building,Furnished,4,No,No,No,Yes,No,Yes,No,C,150,845,468,387,639,"1,165",809,100,,,16. 05. 2022,,,,,,,,,,
708594,"CZK 14,500",50.07206,14.38986,"Plzeňská, Prague - Smíchov",2 bedroom,Excellent,55 m²,"CZK 1,000","CZK 19,000",,Personal,Brick building,Partially furnished,1,No,No,No,No,Yes,No,No,F,194,"1,231",107,823,149,953,414,909,"1,140",247,01. 03. 2022,,,,,,,,,,
714011,"CZK 22,350",50.0799163,14.4476377,"Slavíkova, Prague - Žižkov",Studio,,29 m²,"CZK 7,450",,,,,Furnished,5,No,Yes,No,No,No,Yes,No,,472,536,115,535,55,394,404,513,675,431,10. 06. 2022,,,,,,,,,,
691645,"CZK 39,000",50.09069,14.42032,"Dušní, Prague - Josefov",3 bedroom with open-plan kitchen,Excellent,93 m²,"CZK 1,900","CZK 40,900",,Personal,Brick building,Partially furnished,3,Yes,No,No,No,Yes,Yes,No,E,101,447,205,252,70,269,137,380,248,453,01. 05. 2022,,,,,,,,,,
715436,"CZK 27,504",50.0925119,14.4502616,"Křižíkova, Prague - Karlín",Studio,,40 m²,"CZK 9,168",,,,,Furnished,6,Yes,Yes,No,No,No,Yes,Yes,,81,251,125,181,24,205,369,"1,216",241,212,03. 06. 2022,,,,,,,,,,
713527,"CZK 22,950",50.0719498,14.4319499,"Koubkova, Prague - Nové Město",1 bedroom,,39 m²,"CZK 7,650",,,,,Furnished,2,No,No,No,No,No,Yes,No,,203,332,57,333,25,268,328,262,694,682,01. 06. 2022,,,,,,,,,,
713969,"CZK 35,175",50.0769346,14.4169603,"Na Zbořenci, Prague - Nové Město",2 bedroom,,65 m²,"CZK 11,725",,,,,Furnished,4,No,No,No,No,No,Yes,No,,168,319,99,227,101,409,227,243,632,429,01. 06. 2022,,,,,,,,,,
713472,"CZK 41,250",50.0643299,14.4102127,"Strakonická, Prague - Smíchov",2 bedroom,,50 m²,"CZK 13,750",,,,,Furnished,-1,No,No,No,No,No,Yes,No,,211,382,250,989,170,745,812,"1,050",387,543,16. 05. 2022,,,,,,,,,,
565490,"CZK 11,800",50.0658614,14.4029299,"Radlická, Prague - Smíchov",1 bedroom,,33 m²,CZK 800,"CZK 12,600",,Personal,Brick building,Partially furnished,2,No,No,No,No,No,No,No,G,326,520,320,541,324,421,381,562,824,433,22. 04. 2022,,,,,,,,,,
713515,"CZK 36,338",50.0183023,14.5625656,"Ibišková, Prague - Křeslice",4 bedroom with open-plan kitchen,,180 m²,"CZK 12,112",,,,,Furnished,1,Yes,Yes,No,No,No,No,Yes,,695,843,921,,,,,,,,01. 06. 2022,,,,,,,,,,
438948,"CZK 11,600",50.0721195,14.4055053,"Lidická, Prague - Smíchov",Studio,Good,34 m²,"CZK 1,500","CZK 13,100",,Personal,Brick building,Partially furnished,4,No,No,No,No,No,No,No,,137,484,128,84,86,369,577,"1,058","1,252",720,22. 04. 2022,,,,,,,,,,
715422,"CZK 18,000",50.07828,14.5085,"Limuzská, Prague - Strašnice",1 bedroom with open-plan kitchen,New build,49 m²,"CZK 3,500","CZK 45,000",,Personal,Other,Unfurnished,3,Yes,No,Yes,No,Yes,No,No,C,53,915,509,892,124,768,934,"1,058","1,195",526,06. 05. 2022,,,,,,,,,,
712290,"CZK 12,900",50.09887,14.3966,"Kafkova, Prague - Dejvice",Studio,Good,34 m²,,,,Personal,Brick building,Furnished,4,No,No,No,No,No,Yes,No,G,134,30,92,131,64,76,507,422,357,257,01. 05. 2022,,,,,,,,,,
715421,"CZK 20,000",50.072378,14.4381562,Prague - Vinohrady,Studio,Excellent,29 m²,"CZK 3,395","CZK 40,000",,Personal,Brick building,,,No,No,No,No,No,Yes,No,B,405,238,158,504,45,406,185,285,859,638,01. 06. 2022,,,,,,,,,,
713501,"CZK 33,750",50.0718291,14.4385892,"Americká, Prague - Vinohrady",1 bedroom,,43 m²,"CZK 11,250",,,,,Furnished,4,No,No,No,No,No,Yes,No,,274,300,81,587,69,312,103,253,793,568,16. 05. 2022,,,,,,,,,,
713502,"CZK 59,100",50.0882082,14.4262296,"Rybná, Prague - Staré Město",2 bedroom with open-plan kitchen,,86 m²,"CZK 19,700",,,,,Furnished,2,Yes,No,No,No,No,No,No,,281,192,58,183,11,369,315,297,289,305,29. 05. 2022,,,,,,,,,,
691626,"CZK 16,000",50.05961,14.42653,"Mikuláše z Husi, Prague - Nusle",1 bedroom with open-plan kitchen,Excellent,46 m²,"CZK 4,000","CZK 28,000",,Personal,Brick building,Furnished,1,Yes,No,No,No,No,No,No,G,64,568,161,372,108,466,526,212,103,319,25. 04. 2022,,,,,,,,,,
213488,"CZK 15,000",50.0686763,14.3091212,"Žufanova, Prague - Řepy",1 bedroom with open-plan kitchen,,72 m²,"CZK 4,500","CZK 20,000",,Other,Prefab concrete building,Furnished,1,No,No,No,Yes,No,No,No,,227,598,447,816,474,336,342,438,"1,207",51,01. 06. 2022,10 to 30 years years,Premium materials and solutions,District heating,Raised ground floor,,Overall,,,,
715418,"CZK 14,500",50.0367596,14.5056446,Prague - Chodov,Studio,New build,34 m²,"CZK 3,000","CZK 14,500",,Personal,Other,Partially furnished,1,Yes,No,No,No,No,Yes,Yes,B,221,601,232,"1,420",43,398,201,201,38,102,23. 05. 2022,,,,,,,,,,
713512,"CZK 33,000",50.0747395,14.424046,"Lípová, Prague - Nové Město",1 bedroom with open-plan kitchen,,45 m²,"CZK 11,000",,,,,Furnished,5,No,No,No,No,No,No,No,,120,534,85,337,48,344,183,195,543,341,02. 05. 2022,,,,,,,,,,
656514,"CZK 13,000",50.08298,14.45354,"Bořivojova, Prague - Žižkov",1 bedroom with open-plan kitchen,Excellent,50 m²,"CZK 3,000","CZK 15,000",,Personal,Brick building,Furnished,5,No,No,No,No,No,Yes,No,D,161,133,103,297,14,246,314,447,599,333,01. 05. 2022,,Standard materials and solutions,Gas boiler,Middle floor,,,,,,
150740,"CZK 13,000",50.070043,14.3676817,"Plzeňská, Prague - Smíchov",1 bedroom,Excellent,36 m²,"CZK 2,000","CZK 15,000",,Personal,Brick building,Partially furnished,1,No,No,No,No,No,No,No,C,281,584,176,286,42,178,350,"1,363",693,362,,1 to 10 years years,Standard materials and solutions,Gas boiler,,,,,,,
713119,"CZK 19,000",50.0758076,14.419087,"Karlovo náměstí, Prague - Nové Město",1 bedroom with open-plan kitchen,New build,58 m²,"CZK 1,900","CZK 19,000",,Personal,Brick building,Partially furnished,1,No,No,No,No,No,No,No,C,64,90,87,106,154,99,118,495,711,218,06. 04. 2022,,,,,,,,,,
603343,"CZK 42,500",50.085203,14.428022,"Nekázanka, Prague - Nové Město",Other,Excellent,114 m²,"CZK 5,000","CZK 47,500",,Personal,Brick building,Furnished,5,No,No,No,No,No,Yes,No,G,232,136,116,213,140,227,297,701,403,667,01. 05. 2022,30 to 50 years years,Premium materials and solutions,Central heating,Top floor,,Overall,,,,
711694,"CZK 14,300",50.06918,14.43767,"Perucká, Prague - Vinohrady",Studio,New build,46 m²,"CZK 2,980","CZK 20,000",,Personal,Prefab concrete building,Furnished,3,No,Yes,Yes,No,No,Yes,No,C,699,818,597,886,615,859,685,606,752,906,15. 04. 2022,1 to 10 years years,Premium materials and solutions,Central heating,,Yes,Overall,,,,
715415,"CZK 20,543",50.0735628,14.4373343,"Uruguayská, Prague - Vinohrady",Studio,,26 m²,"CZK 6,848",,,,,Furnished,1,No,No,No,No,No,Yes,No,,193,168,131,353,18,256,47,213,857,690,01. 06. 2022,,,,,,,,,,
715414,"CZK 35,532",50.0928722,14.4500782,"Křižíkova a, Prague - Karlín",2 bedroom with open-plan kitchen,,80 m²,"CZK 11,844",,,,,Furnished,4,Yes,Yes,No,No,No,Yes,Yes,,123,293,167,222,66,246,411,"1,258",283,254,04. 05. 2022,,,,,,,,,,
715189,"CZK 23,900",50.01932,14.51961,"Pastevců, Prague - Újezd u Průhonic",2 bedroom with open-plan kitchen,Excellent,96 m²,"CZK 5,000","CZK 65,000",,Personal,Brick building,Partially furnished,3,No,Yes,Yes,No,No,No,Yes,G,314,649,761,860,954,"1,326",115,,,,25. 04. 2022,,,,,,,,,,
202467,"CZK 13,500",50.1312109,14.4961073,"Desenská, Prague - Střížkov",1 bedroom with open-plan kitchen,New build,44 m²,"CZK 2,700","CZK 27,000",,Personal,Brick building,Furnished,3,No,No,No,No,No,No,No,,646,"1,092",301,"1,068",898,804,591,688,"1,485",219,01. 06. 2022,1 to 10 years years,Standard materials and solutions,Other,Attic,Yes,,30 m²,,,
577064,"CZK 17,100",50.1027788,14.3748352,"U Hadovky, Prague - Dejvice",2 bedroom,Excellent,63 m²,"CZK 2,850","CZK 18,000",,Cooperative,Brick building,Partially furnished,1,No,No,Yes,No,No,No,No,D,261,"1,397",338,"1,034",337,306,502,635,535,425,11. 04. 2022,over 50 years years,Standard materials and solutions,Gas boiler,Raised ground floor,,Interior,,,,
501700,"CZK 7,500",50.093780231613,14.532926958722,"Třešňová, Prague - Hloubětín",Small studio,,25 m²,"CZK 3,500","CZK 8,000",,Personal,Brick building,Furnished,1,No,No,No,No,No,No,No,,327,713,"1,048","1,028","1,391","1,207","1,334",722,591,,ihned,1 to 10 years years,,,,Yes,,,,,
715409,"CZK 16,000",50.102,14.43331,"Veletržní, Prague - Holešovice",1 bedroom with open-plan kitchen,Excellent,52 m²,CZK 600,"CZK 16,000",,Personal,Brick building,Partially furnished,1,No,No,No,No,No,No,No,G,124,628,3,140,85,176,395,470,848,,25. 04. 2022,,,,,,,,,,
484160,"CZK 13,900",50.1040098,14.4465769,"Osadní, Prague - Holešovice",1 bedroom,Excellent,40 m²,"CZK 3,100","CZK 17,000",,Cooperative,Brick building,Furnished,2,Yes,No,No,No,No,Yes,No,,74,140,28,286,62,53,280,432,375,327,01. 08. 2021,1 to 10 years years,Standard materials and solutions,Electric boiler,Middle floor,,Overall,,,,
714371,"CZK 10,000",50.05974,14.2945,"Na Radosti, Prague - Zličín",Studio,New build,30 m²,"CZK 4,800","CZK 12,000",,Personal,Brick building,Furnished,3,No,No,No,No,No,No,No,E,91,898,798,906,80,"1,016",679,"1,166",92,520,01. 05. 2022,,,,,,,,,,
715397,"CZK 16,000",50.064779,14.5525555,"Františka Jansy, Prague - Dolní Měcholupy",1 bedroom with open-plan kitchen,New build,52 m²,"CZK 4,600","CZK 32,000",,Cooperative,Brick building,Partially furnished,4,Yes,No,No,No,No,Yes,Yes,C,150,845,468,387,639,"1,165",809,100,,,01. 05. 2022,,,,,,,,,,
581360,"CZK 22,000",50.026392,14.417815,"Údolní, Prague - Braník",2 bedroom with open-plan kitchen,Excellent,70 m²,"CZK 5,000","CZK 44,000",,Personal,Brick building,Partially furnished,1,No,No,No,No,No,No,No,G,68,"1,050",606,"1,042",457,531,531,682,"1,290",640,01. 06. 2022,,Premium materials and solutions,,Raised ground floor,,Interior,,,,
715399,"CZK 15,000",50.1019936,14.4276943,"Umělecká, Prague - Holešovice",1 bedroom,Excellent,40 m²,"CZK 1,430","CZK 15,000",,Personal,Brick building,Furnished,4,No,No,No,No,No,Yes,No,G,167,333,116,287,185,263,93,125,520,,01. 05. 2022,,,,,,,,,,
697963,"CZK 13,000",50.07486,14.42255,"Salmovská, Prague - Nové Město",Studio,Excellent,21 m²,"CZK 1,200","CZK 14,000",,Personal,Brick building,Furnished,2,No,Yes,No,No,No,Yes,No,B,150,397,110,388,95,207,304,316,662,421,24. 04. 2022,1 to 10 years years,Premium materials and solutions,District heating,Middle floor,,Overall,5 m²,,,
713182,"CZK 21,000",50.0733476,14.3959227,"Grafická, Prague - Smíchov",1 bedroom with open-plan kitchen,New build,57 m²,"CZK 5,000","CZK 40,000",,Personal,Other,Unfurnished,4,Yes,No,Yes,No,No,Yes,Yes,G,200,816,148,507,122,598,93,"1,141",864,357,22. 04. 2022,1 to 10 years years,,,Middle floor,Yes,,,,,
630457,"CZK 16,000",50.071753,14.431997,"Lublaňská, Prague - Nové Město",Small studio,Good,25 m²,"CZK 2,000",,,Other,Brick building,Furnished,2,No,No,No,No,No,No,No,E,216,344,70,346,22,280,306,274,647,724,12. 10. 2020,,,,,,,,,,
692107,"CZK 21,300",50.07592,14.40553,"Arbesovo náměstí, Prague - Smíchov",Studio,Excellent,28 m²,"CZK 3,200","CZK 25,000",,Personal,Brick building,Furnished,1,No,No,No,No,No,No,No,C,77,64,152,107,11,143,97,"1,032",852,494,01. 08. 2022,,,,,,,,,,
713756,"CZK 16,000",50.0440154,14.517211,"Bratislavská, Prague - Hostivař",1 bedroom with open-plan kitchen,Excellent,57 m²,"CZK 4,400","CZK 15,000",,Personal,Brick building,Partially furnished,2,Yes,No,Yes,No,No,Yes,Yes,G,195,134,201,190,"1,004",212,"1,215",157,,,01. 05. 2022,,,,,,,,,,
653705,"CZK 19,900",50.10566,14.48235,"náměstí Na Balabence, Prague - Libeň",2 bedroom,Excellent,51 m²,"CZK 3,400","CZK 35,000",,Personal,Brick building,Partially furnished,6,No,No,Yes,Yes,No,Yes,No,G,121,603,138,235,361,720,117,622,486,75,01. 05. 2022,,,,,,,,,,
405008,"CZK 21,950",50.0407835,14.5684987,"Modenská, Prague - Horní Měcholupy",2 bedroom with open-plan kitchen,,109 m²,"CZK 4,520","CZK 51,000",,Personal,Brick building,Partially furnished,7,Yes,No,Yes,Yes,No,Yes,Yes,C,235,881,488,693,612,396,520,552,"1,321",430,21. 04. 2022,1 to 10 years years,Standard materials and solutions,Central heating,,Yes,,,,,
715359,"CZK 15,000",50.10092,14.42454,"Sochařská, Prague - Bubeneč",1 bedroom with open-plan kitchen,Excellent,60 m²,"CZK 1,300","CZK 15,000",,Personal,Brick building,Partially furnished,1,No,No,No,No,No,No,No,D,159,213,91,142,78,97,386,255,394,,21. 04. 2022,,,,,,,,,,
714363,"CZK 27,000",50.09478,14.50282,"Nad Smetankou, Prague - Hrdlořezy",2 bedroom with open-plan kitchen,Excellent,106 m²,"CZK 7,000","CZK 54,000",,Personal,Brick building,Furnished,2,No,Yes,No,No,Yes,Yes,Yes,D,536,"1,045",460,"1,370",670,507,943,824,"1,203",196,19. 04. 2022,,,,,,,,,,
715370,"CZK 13,000",50.0615746,14.3810292,"Mikšovského, Prague - Košíře",1 bedroom,Good,46 m²,"CZK 2,000","CZK 15,000",,Cooperative,Brick building,Partially furnished,2,No,No,No,No,No,No,No,G,279,"1,182",553,969,542,"1,483","1,143",291,"1,166",645,01. 05. 2022,,,,,,,,,,
681424,"CZK 12,000",50.0674282,14.4599684,"Moskevská, Prague - Vršovice",1 bedroom with open-plan kitchen,Excellent,37 m²,"CZK 4,350","CZK 24,000",,Personal,Brick building,Partially furnished,1,No,No,Yes,No,No,Yes,No,D,73,498,59,298,0,406,497,344,282,295,01. 05. 2022,,,,,,,,,,
715358,"CZK 15,000",50.00861,14.42885,"Rilská, Prague - Modřany",2 bedroom with open-plan kitchen,Excellent,68 m²,"CZK 7,000","CZK 30,000",,Personal,Prefab concrete building,Furnished,10,Yes,No,Yes,No,No,Yes,No,C,299,934,97,923,125,"1,013",314,360,338,165,01. 06. 2022,10 to 30 years years,,District heating,,,,,,,
715355,"CZK 12,500",50.09042,14.36469,"U Čtvrté baterie, Prague - Břevnov",1 bedroom with open-plan kitchen,Excellent,51 m²,"CZK 3,200","CZK 12,500",,Personal,Brick building,Partially furnished,,No,No,No,No,No,No,No,G,82,936,530,"1,021",622,179,662,"1,081",928,637,21. 04. 2022,,,,,,,,,,
640912,"CZK 12,300",50.035171,14.411621,"Zelinářská, Prague - Braník",1 bedroom with open-plan kitchen,Excellent,48 m²,CZK 800,"CZK 19,000",,Personal,Brick building,Partially furnished,1,No,No,No,No,No,No,No,G,125,412,167,101,268,349,144,"1,229",260,,20. 04. 2022,,,,,,,,,,
630147,"CZK 19,000",50.089428,14.466015,"Roháčova, Prague - Žižkov",2 bedroom,Excellent,60 m²,"CZK 1,000","CZK 38,000",,Personal,Brick building,Furnished,5,No,No,Yes,No,No,Yes,No,G,147,748,74,154,55,224,526,550,496,244,19. 04. 2022,1 to 10 years years,Premium materials and solutions,Electric boiler,Middle floor,,Overall,,,,
715335,"CZK 14,900",50.08444,14.56321,"U Hostavického potoka, Prague - Hostavice",1 bedroom with open-plan kitchen,New build,49 m²,"CZK 2,800","CZK 14,900",,Personal,Brick building,Furnished,1,No,Yes,Yes,No,No,Yes,Yes,G,506,537,644,379,,,,,,,01. 06. 2022,,,,,,,,,,
25959,"CZK 12,600",50.1335671,14.4751987,"Kubíkova, Prague - Kobylisy",1 bedroom with open-plan kitchen,,48 m²,"CZK 2,350","CZK 20,000",,,Prefab concrete building,Partially furnished,2,No,No,Yes,No,No,Yes,No,C,242,978,430,"1,107",305,922,324,445,"1,248",356,25. 04. 2022,,Standard materials and solutions,District heating,Middle floor,,,,,,
715353,"CZK 10,000",50.09062,14.49658,"Pod Lipami, Prague - Žižkov",Small studio,Good,21 m²,"CZK 2,500","CZK 10,000",,Personal,Brick building,Partially furnished,1,No,No,No,No,No,No,No,B,210,503,154,806,104,534,837,154,752,237,25. 04. 2022,,,,,,,,,,
623922,"CZK 11,000",50.064342,14.442252,"Čestmírova, Prague - Nusle",Studio,New build,25 m²,"CZK 1,000","CZK 12,000",,Personal,Brick building,Partially furnished,2,Yes,No,Yes,No,No,No,No,C,90,311,92,91,15,61,367,597,576,437,01. 05. 2022,1 to 10 years years,Premium materials and solutions,Central heating,Middle floor,,Overall,,,,
714295,"CZK 14,925",50.0710265,14.4467659,"Kozácká, Prague - Vršovice",Studio,,28 m²,"CZK 4,975",,,,,Furnished,4,No,No,No,No,No,No,No,,127,652,122,516,74,627,486,462,303,227,14. 06. 2022,,,,,,,,,,
713918,"CZK 22,313",50.0630016,14.4450348,"Mojmírova, Prague - Nusle",Studio,,35 m²,"CZK 7,437",,,,,Furnished,2,Yes,No,No,No,No,Yes,No,,238,572,103,275,180,318,460,822,638,598,11. 06. 2022,,,,,,,,,,
545400,"CZK 8,500",50.036559,14.4172471,Prague - Braník,Small studio,,25 m²,"CZK 2,500","CZK 3,000",,Other,Brick building,Furnished,,No,No,No,No,No,No,No,,514,627,473,447,573,399,312,784,,,21. 04. 2022,,,,,,,,,,
715349,"CZK 12,000",50.07293,14.44124,"Jana Masaryka, Prague - Vinohrady",1 bedroom,Excellent,33 m²,"CZK 3,000","CZK 20,000",,Other,Brick building,Unfurnished,1,No,No,No,No,No,No,No,G,42,256,34,612,69,568,247,441,558,371,21. 04. 2022,,,Gas boiler,Middle floor,,,,,,
715350,"CZK 41,438",50.077834,14.422878,"Příčná, Prague - Nové Město",Studio,,26 m²,"CZK 13,812",,,,,Furnished,2,No,No,No,No,No,No,No,,224,529,123,232,36,222,310,471,467,408,20. 06. 2022,,,,,,,,,,
715336,"CZK 16,500",50.13101,14.4791,"Frýdlantská, Prague - Kobylisy",3 bedroom,Excellent,64 m²,"CZK 3,500","CZK 30,000",,Personal,Prefab concrete building,Partially furnished,8,No,No,No,Yes,No,Yes,No,G,194,907,381,"1,037",170,445,156,237,"1,322",118,01. 05. 2022,,,District heating,,,,,,,
119868,"CZK 13,000",50.1108959,14.4470802,"U pergamenky, Prague - Holešovice",1 bedroom with open-plan kitchen,,40 m²,"CZK 2,500","CZK 15,000",,Cooperative,Brick building,Partially furnished,5,No,No,Yes,No,No,No,No,,72,898,292,831,445,529,271,"1,259",760,193,,,,Other,Top floor,,,,,,
715329,"CZK 12,800",50.07177,14.46983,"28. pluku, Prague - Vršovice",Studio,Excellent,34 m²,"CZK 3,200","CZK 12,800",,Personal,Brick building,Partially furnished,4,Yes,No,Yes,No,No,Yes,No,G,79,577,159,372,245,172,344,221,749,210,20. 04. 2022,,,,Middle floor,,Interior,,,,
715328,"CZK 13,500",50.04276,14.49314,"Klapálkova, Prague - Chodov",Studio,New build,32 m²,"CZK 2,000","CZK 27,000",,Personal,Brick building,Unfurnished,1,Yes,No,No,No,No,Yes,No,G,33,832,168,877,517,"1,461",395,"1,201","1,083",262,01. 05. 2022,,,,,,,,,,
715324,"CZK 15,000",50.10471,14.48725,"Drahobejlova, Prague - Libeň",Small studio,New build,37 m²,"CZK 3,000","CZK 15,000",,Personal,Brick building,Furnished,5,Yes,No,Yes,No,No,Yes,Yes,G,210,150,189,176,93,336,406,635,250,105,01. 05. 2022,,,,,,,,,,
713484,"CZK 70,875",50.0822886,14.4155231,"Karoliny Světlé, Prague - Staré Město",2 bedroom with open-plan kitchen,,90 m²,"CZK 23,625",,,,,Furnished,3,No,No,No,No,No,Yes,No,,462,817,70,468,89,510,489,683,411,400,01. 06. 2022,,,,,,,,,,
715316,"CZK 20,000",50.0471,14.30405,"Svitákova, Prague - Stodůlky",1 bedroom with open-plan kitchen,Excellent,47 m²,"CZK 4,000","CZK 40,000",,Personal,Brick building,Furnished,5,Yes,No,No,No,Yes,Yes,No,G,176,168,143,114,939,958,584,745,127,,20. 04. 2022,,,,,,,,,,
324902,"CZK 16,000",50.0382085,14.4821882,"Kloboukova, Prague - Chodov",2 bedroom with open-plan kitchen,,68 m²,"CZK 3,168","CZK 32,000",,Personal,Prefab concrete building,Partially furnished,4,No,No,Yes,No,No,No,No,,508,"1,316",388,"1,150",409,"1,202",928,"1,233",373,131,15. 04. 2022,,,,,,,,,,
715028,"CZK 11,000",50.1069435,14.4464819,"Osadní, Prague - Holešovice",1 bedroom with open-plan kitchen,Excellent,31 m²,"CZK 2,000","CZK 11,000",,Personal,Brick building,Unfurnished,5,No,No,No,No,No,Yes,No,G,130,405,238,418,163,273,315,758,329,243,20. 04. 2022,,Standard materials and solutions,,,,,,,,
713522,"CZK 56,250",50.0766855,14.4294035,"Sokolská, Prague - Nové Město",1 bedroom with open-plan kitchen,,45 m²,"CZK 18,750",,,,,Furnished,4,No,No,No,No,No,No,No,,212,525,185,151,68,162,317,392,109,262,24. 04. 2022,,,,,,,,,,
713524,"CZK 60,000",50.0757302,14.4269087,"Ječná, Prague - Nové Město",1 bedroom with open-plan kitchen,,,"CZK 20,000",,,,,Furnished,3,No,No,No,No,No,No,No,,177,647,182,40,38,122,28,102,350,194,29. 05. 2022,,,,,,,,,,
713497,"CZK 38,625",50.0895308,14.4237131,"Masná, Prague - Staré Město",1 bedroom,,38 m²,"CZK 12,875",,,,,Furnished,4,No,No,No,No,No,Yes,No,,69,269,125,89,15,106,70,52,156,144,17. 05. 2022,,,,,,,,,,
713490,"CZK 39,600",50.0876118,14.4080467,"Míšeňská, Prague - Malá Strana",1 bedroom with open-plan kitchen,,46 m²,"CZK 13,200",,,,,Furnished,2,No,No,No,No,No,No,No,,249,259,109,237,65,537,295,274,806,231,16. 05. 2022,,,,,,,,,,
282676,"CZK 15,000",50.0686763,14.3091212,"Žufanova, Prague - Řepy",1 bedroom with open-plan kitchen,Excellent,45 m²,"CZK 3,000","CZK 25,000",,Personal,Prefab concrete building,Furnished,4,No,No,No,No,No,Yes,No,B,227,598,447,816,474,336,342,438,"1,207",51,10. 05. 2022,,,Central heating,,,,,,,
573326,"CZK 14,000",50.0641277,14.2874444,"Hevlínská, Prague - Zličín",Studio,Excellent,48 m²,"CZK 3,500","CZK 28,000",,Personal,Brick building,Furnished,3,Yes,No,Yes,No,No,Yes,No,,232,176,"1,056",792,818,"1,086",493,,,,01. 07. 2022,1 to 10 years years,Premium materials and solutions,Gas boiler,Middle floor,,,,,,
456849,"CZK 17,000",50.03156,14.60085,"Nové náměstí, Prague - Uhříněves",1 bedroom with open-plan kitchen,,64 m²,"CZK 1,500","CZK 34,000",,Personal,Brick building,Partially furnished,1,No,Yes,Yes,No,No,No,No,D,162,214,323,149,183,163,492,629,548,301,01. 05. 2022,10 to 30 years years,Standard materials and solutions,Gas boiler,Raised ground floor,,,90 m²,,,
510434,"CZK 8,700",50.0781421,14.3026439,"Pod Karlovarskou silnicí, Prague - Ruzyně",Small studio,,22 m²,"CZK 2,700","CZK 11,400",,Personal,Brick building,Partially furnished,2,No,No,No,No,No,No,No,F,262,963,691,842,,,,,,,,,Standard materials and solutions,Central heating,Middle floor,,,,,,
610174,"CZK 12,000",50.049054,14.345899,"V Hůrkách, Prague - Stodůlky",1 bedroom with open-plan kitchen,Excellent,33 m²,"CZK 2,700","CZK 15,000",,Personal,Prefab concrete building,Partially furnished,2,No,No,No,No,No,Yes,No,,355,487,115,288,179,351,99,317,"1,176",18,01. 05. 2022,,,,Middle floor,,Overall,,,,
715307,"CZK 24,500",50.08709,14.46381,"V Kapslovně, Prague - Žižkov",3 bedroom,Excellent,98 m²,"CZK 3,000","CZK 25,000",,Personal,Brick building,Partially furnished,2,No,Yes,No,No,No,Yes,Yes,C,238,742,121,386,39,564,646,641,563,455,21. 04. 2022,,,,,,,,,,
715306,"CZK 20,000",50.06326,14.28874,"Křivatcová, Prague - Zličín",2 bedroom with open-plan kitchen,New build,70 m²,"CZK 5,000","CZK 25,000",,Personal,Brick building,Partially furnished,1,Yes,No,No,Yes,Yes,Yes,No,A,185,129,"1,122","1,370",544,"1,481",680,838,446,,21. 04. 2022,,,,,,,,,,
711233,"CZK 14,990",50.1085429,14.5254683,"Granitova, Prague - Hloubětín",Studio,New build,44 m²,"CZK 2,990",,,Personal,Low-energy building,Partially furnished,5,No,Yes,Yes,No,Yes,Yes,No,A,280,"1,320",719,"1,302","1,077","1,144","1,212","1,015","1,196",524,21. 03. 2022,1 to 10 years years,Premium materials and solutions,District heating,,Yes,,,,,
713528,"CZK 41,250",50.0912734,14.4238585,"Haštalské náměstí, Prague - Staré Město",2 bedroom,,50 m²,"CZK 13,750",,,,,Furnished,-1,No,Yes,No,No,No,No,No,,55,370,51,238,66,242,352,396,158,122,26. 05. 2022,,,,,,,,,,
713483,"CZK 53,550",50.090911,14.4295366,"Soukenická, Prague - Nové Město",1 bedroom with open-plan kitchen,,50 m²,"CZK 17,850",,,,,Furnished,4,Yes,No,No,No,No,Yes,Yes,,144,325,176,152,60,230,49,259,388,439,24. 04. 2022,,,,,,,,,,
554738,"CZK 17,000",50.0694,14.4840287,Prague - Strašnice,1 bedroom with open-plan kitchen,New build,42 m²,"CZK 4,500","CZK 34,000",,Personal,Brick building,Partially furnished,5,Yes,No,Yes,No,No,No,No,,341,748,429,494,264,420,647,692,482,532,16. 05. 2022,,,District heating,,Yes,,,,,
576460,"CZK 13,500",50.0807978,14.4844751,"Nad Vodovodem, Prague - Strašnice",1 bedroom,Excellent,40 m²,"CZK 3,500","CZK 27,000",,Personal,Brick building,Furnished,1,No,No,No,No,No,No,No,G,90,950,192,680,234,537,972,610,92,319,01. 12. 2019,,,Central heating,Raised ground floor,,Overall,,,,
621379,"CZK 9,000",50.056553,14.495605,"Jabloňová, Prague - Záběhlice",Small studio,Excellent,25 m²,"CZK 3,200","CZK 18,000",,Personal,Prefab concrete building,Furnished,8,No,No,No,No,No,Yes,No,,59,616,149,989,200,50,166,658,166,283,20. 04. 2022,,,,,,,,,,
715302,"CZK 12,941",50.1028023,14.4794456,"Turnovská, Prague - Libeň",1 bedroom,Good,38 m²,"CZK 2,719","CZK 15,660","CZK 1,941",Personal,Other,,2,No,No,No,No,No,No,No,,219,232,116,442,295,421,444,266,75,492,15. 05. 2022,,,,,,,,,,
714338,"CZK 63,413",50.0907943,14.427063,"Dlouhá, Prague - Staré Město",2 bedroom with open-plan kitchen,,62 m²,"CZK 21,137",,,,,Furnished,3,No,No,No,No,No,Yes,No,,2,191,16,48,1,127,128,306,209,259,28. 05. 2022,,,,,,,,,,
713495,"CZK 49,650",50.0882058,14.4262315,"Rybná, Prague - Staré Město",1 bedroom with open-plan kitchen,,53 m²,"CZK 16,550",,,,,Furnished,3,No,No,No,No,No,Yes,No,,281,192,58,183,11,368,315,297,289,305,02. 05. 2022,,,,,,,,,,
713073,"CZK 16,000",50.07784,14.49749,"Vrátkovská, Prague - Strašnice",2 bedroom,Excellent,52 m²,"CZK 5,756","CZK 40,000",,Cooperative,Prefab concrete building,Partially furnished,2,No,No,Yes,No,No,No,No,D,242,489,146,575,314,529,552,469,"1,195",154,01. 05. 2022,,,District heating,Middle floor,,,,,,
401143,"CZK 12,500",50.0544343,14.5127755,"Práčská, Prague - Záběhlice",2 bedroom,Good,52 m²,"CZK 3,600","CZK 24,000",,Personal,Prefab concrete building,Partially furnished,2,No,No,No,No,Yes,Yes,No,C,214,442,432,483,306,438,648,903,831,140,17. 03. 2022,,Standard materials and solutions,District heating,,,Exterior,,,,
713470,"CZK 32,175",50.0643299,14.4102127,"Strakonická, Prague - Smíchov",Studio,,30 m²,"CZK 10,725",,,,,Furnished,3,No,No,No,No,No,Yes,No,,211,382,250,989,170,745,812,"1,050",387,543,16. 05. 2022,,,,,,,,,,
713467,"CZK 23,625",50.0984636,14.4253146,"Ovenecká, Prague - Holešovice",1 bedroom with open-plan kitchen,,55 m²,"CZK 7,875",,,,,Furnished,5,No,No,No,No,No,Yes,No,,220,310,47,185,156,218,202,"1,485",496,451,01. 06. 2022,,,,,,,,,,
615846,"CZK 5,800",50.069998,14.488557,"Gutova, Prague - Strašnice",Small studio,New build,16 m²,"CZK 1,400","CZK 10,000",,Personal,Brick building,,1,No,No,No,No,No,No,No,G,82,992,477,622,89,295,355,776,318,249,25. 04. 2022,,,,,,,,,,
714330,"CZK 18,490",50.10238,14.44509,"Tovární, Prague - Holešovice",1 bedroom with open-plan kitchen,Good,71 m²,"CZK 2,999","CZK 18,490",,Personal,Brick building,Furnished,4,No,No,Yes,No,No,Yes,No,C,161,207,201,445,174,111,139,291,567,90,15. 04. 2022,,,,,,,,,,
514992,"CZK 15,900",50.0806407,14.4498808,Prague - Žižkov,1 bedroom with open-plan kitchen,,51 m²,CZK 750,"CZK 18,000",,Personal,Brick building,Partially furnished,5,No,No,No,No,No,Yes,No,,445,404,200,508,85,305,377,491,664,352,01. 05. 2018,,,,,,,,,,
713465,"CZK 31,725",50.0795659,14.4357789,"Balbínova, Prague - Vinohrady",1 bedroom with open-plan kitchen,,60 m²,"CZK 10,575",,,,,Furnished,3,No,No,No,No,No,Yes,No,,134,417,252,351,68,251,205,205,457,712,21. 06. 2022,,,,,,,,,,
713459,"CZK 51,225",50.090911,14.4295366,"Soukenická, Prague - Nové Město",1 bedroom with open-plan kitchen,,50 m²,"CZK 17,075",,,,,Furnished,4,No,No,No,No,No,Yes,Yes,,144,325,176,152,60,230,49,259,388,439,09. 05. 2022,,,,,,,,,,
713454,"CZK 31,875",50.0902753,14.4260311,"Rybná, Prague - Staré Město",Studio,,40 m²,"CZK 10,625",,,,,Furnished,1,No,No,No,No,No,No,No,,124,153,54,67,17,194,209,158,151,202,26. 05. 2022,,,,,,,,,,
713455,"CZK 22,313",50.0699993,14.3820262,"Hlaváčkova, Prague - Košíře",Studio,,35 m²,"CZK 7,437",,,,,Furnished,6,Yes,No,No,No,No,Yes,Yes,,202,523,119,828,248,936,219,756,"1,073",529,08. 06. 2022,,,,,,,,,,
709962,"CZK 13,000",50.09935,14.42987,"Milady Horákové, Prague - Holešovice",Studio,Excellent,30 m²,"CZK 2,500","CZK 20,000",,Personal,Brick building,Furnished,2,Yes,No,Yes,No,No,No,No,G,75,523,33,158,86,70,139,60,409,,22. 04. 2022,,,,,,,,,,
401195,"CZK 16,000",50.04012221879,14.499368130164,"Babická, Prague - Chodov",1 bedroom with open-plan kitchen,New build,55 m²,"CZK 4,000","CZK 32,000",,Personal,Brick building,Partially furnished,3,Yes,No,No,No,No,No,No,,196,"1,174",651,"1,436",184,802,562,758,424,245,25. 04. 2022,1 to 10 years years,,,Middle floor,Yes,,,,,
715256,"CZK 16,000",50.09179,14.44168,"Sokolovská, Prague - Karlín",Studio,Excellent,18 m²,"CZK 2,500","CZK 18,500",,Personal,Brick building,Furnished,2,No,Yes,No,No,No,No,No,G,170,423,142,168,13,109,427,891,261,225,25. 04. 2022,,,,,,,,,,
369890,"CZK 15,000",50.107010860053,14.388327912828,"Zelená, Prague - Dejvice",1 bedroom with open-plan kitchen,Good,42 m²,"CZK 3,500","CZK 20,000",,Personal,Brick building,Unfurnished,3,No,No,No,No,No,No,No,,30,"1,308",15,715,145,169,358,259,631,360,,,Premium materials and solutions,,,,,,,,
286300,"CZK 13,500",50.033422754,14.610529887,"Václava Trojana, Prague - Uhříněves",1 bedroom with open-plan kitchen,Excellent,52 m²,"CZK 4,000","CZK 35,000",,Personal,Brick building,Furnished,3,Yes,No,Yes,No,Yes,Yes,Yes,C,134,"1,224",357,"1,233",731,"1,177",749,"1,252",894,164,14. 05. 2022,1 to 10 years years,Standard materials and solutions,District heating,Middle floor,,Overall,,,,
367899,"CZK 16,000",50.0854072,14.3740317,"Mládeže, Prague - Břevnov",1 bedroom with open-plan kitchen,Excellent,49 m²,"CZK 2,500","CZK 32,000",,Personal,Brick building,Partially furnished,5,No,Yes,No,No,No,No,No,B,150,720,240,430,225,133,161,345,438,321,,,,Gas boiler,,,Overall,,,,
171484,"CZK 12,000",50.0854629,14.4478081,"Blahníkova, Prague - Žižkov",1 bedroom,,40 m²,"CZK 1,000","CZK 13,000",,Personal,Brick building,Partially furnished,2,No,No,No,No,No,No,No,,224,319,86,372,109,340,100,129,237,616,,,,,,,,,,,
197464,"CZK 16,500",50.0622616,14.4358444,"Petra Rezka, Prague - Nusle",2 bedroom with open-plan kitchen,,69 m²,"CZK 4,500","CZK 20,000",,Personal,Brick building,Partially furnished,1,No,No,No,No,No,No,No,,214,595,198,509,101,430,91,426,428,251,,,,Central heating,Raised ground floor,,,,,,
715268,"CZK 20,000",50.06891,14.40011,"Kováků, Prague - Smíchov",1 bedroom with open-plan kitchen,Excellent,48 m²,"CZK 3,000","CZK 20,000",,Personal,Brick building,Partially furnished,1,No,No,Yes,No,Yes,Yes,Yes,G,70,130,118,310,54,23,349,625,840,192,01. 05. 2022,,,,,,,,,,
715263,"CZK 13,000",50.05605,14.29156,"Do Zahrádek Ⅰ, Prague - Třebonice",Studio,New build,31 m²,"CZK 2,242","CZK 26,000",,Personal,Low-energy building,Partially furnished,3,Yes,No,Yes,No,Yes,Yes,Yes,B,172,"1,088",446,414,726,524,524,748,364,,01. 05. 2022,,,,,,,,,,
715259,"CZK 13,000",50.03184,14.52061,"Podjavorinské, Prague - Chodov",1 bedroom with open-plan kitchen,New build,44 m²,"CZK 3,500","CZK 25,000",,Personal,Prefab concrete building,Partially furnished,9,No,No,No,No,Yes,Yes,No,C,194,251,168,691,110,92,353,283,607,236,21. 04. 2022,,,,,,,,,,
713968,"CZK 22,575",50.0769346,14.4169603,"Na Zbořenci, Prague - Nové Město",1 bedroom,,48 m²,"CZK 7,525",,,,,Furnished,1,No,Yes,No,No,No,Yes,No,,168,319,99,227,101,409,227,243,632,429,21. 05. 2022,,,,,,,,,,
714443,"CZK 33,675",50.0749602,14.4305105,"Legerova, Prague - Vinohrady",Studio,,30 m²,"CZK 11,225",,,,,Furnished,6,No,No,No,No,No,Yes,No,,22,463,81,96,72,158,361,436,384,451,21. 05. 2022,,,,,,,,,,
489303,"CZK 8,500",50.0646836,14.3965606,"Nad Santoškou, Prague - Smíchov",Studio,Excellent,40 m²,"CZK 4,000","CZK 18,000",,Personal,Brick building,Furnished,,No,No,No,No,No,No,No,D,248,604,356,947,320,690,303,148,340,266,03. 05. 2022,1 to 10 years years,Standard materials and solutions,Gas boiler,Ground floor,,Overall,,,,
652153,"CZK 15,000",50.071528,14.430216,"Fügnerovo náměstí, Prague - Nové Město",Studio,Excellent,20 m²,"CZK 4,500","CZK 3,000",,Personal,Brick building,Furnished,3,No,No,No,No,Yes,Yes,Yes,C,210,499,175,346,159,239,220,429,661,519,19. 04. 2022,1 to 10 years years,Premium materials and solutions,Central heating,Middle floor,,Overall,,,,
715254,"CZK 12,000",50.1027335,14.4359765,"U Smaltovny, Prague - Holešovice",1 bedroom with open-plan kitchen,Excellent,55 m²,"CZK 3,140","CZK 24,000",,Personal,Brick building,Partially furnished,1,No,No,No,No,No,No,No,D,298,853,88,365,43,284,479,423,923,,01. 05. 2022,,,,,,,,,,
163681,"CZK 11,500",50.1401102,14.548523,"Herlíkovická, Prague - Kbely",Small studio,,46 m²,"CZK 2,500",,,Personal,Brick building,Partially furnished,1,No,Yes,No,No,No,No,No,A,161,959,773,812,"1,109","1,042",711,"1,130",142,,,10 to 30 years years,Standard materials and solutions,District heating,Ground floor,,,42 m²,,,
35209,"CZK 16,400",50.0709893,14.5034918,"Sečská 21, Prague - Strašnice",2 bedroom,,65 m²,"CZK 3,000","CZK 20,000",,Cooperative,Prefab concrete building,Partially furnished,4,No,No,No,No,No,No,No,,268,"1,308",227,"1,096",483,613,251,400,960,64,21. 05. 2018,30 to 50 years years,Standard materials and solutions,District heating,Top floor,,Overall,,,,
540196,"CZK 16,000",50.0680875,14.4199999,"Svobodova, Prague - Vyšehrad",Small studio,Excellent,45 m²,"CZK 3,000","CZK 19,000",,Personal,Brick building,Furnished,5,No,No,No,No,No,No,No,B,38,956,86,291,62,258,114,499,143,354,01. 05. 2022,1 to 10 years years,Premium materials and solutions,Electric boiler,Attic,,Overall,,,,
715239,"CZK 18,000",50.0886644,14.484117,"Olgy Havlové, Prague - Žižkov",Studio,New build,38 m²,"CZK 1,500","CZK 54,000",,Personal,Brick building,Partially furnished,7,Yes,No,Yes,No,Yes,Yes,No,A,381,810,423,623,137,666,490,358,355,113,20. 04. 2022,1 to 10 years years,Premium materials and solutions,Central heating,Middle floor,,,,,,
351656,"CZK 12,000",50.0590262,14.3820704,"Na Farkáně III, Prague - Radlice",1 bedroom,,32 m²,"CZK 3,000","CZK 24,000",,Personal,Brick building,Furnished,1,No,No,No,No,No,No,No,,217,744,118,531,214,"1,064",832,565,707,331,01. 05. 2022,,,Electric boiler,Ground floor,,,,,,
557589,"CZK 17,500",50.1187312,14.4967253,"Libočanská, Prague - Prosek",1 bedroom with open-plan kitchen,Excellent,72 m²,"CZK 5,825","CZK 25,000",,Personal,Low-energy building,Furnished,2,No,No,No,No,Yes,Yes,No,C,181,822,381,323,217,361,470,396,"1,094",370,01. 07. 2022,10 to 30 years years,,District heating,Middle floor,,,,,,
608060,"CZK 11,000",50.008761,14.415273,"Československého exilu, Prague - Modřany",Studio,New build,39 m²,"CZK 1,910",CZK 1,,Personal,Brick building,,3,Yes,No,No,No,No,Yes,No,B,68,475,402,376,445,401,241,541,"1,086",425,01. 06. 2022,,,,,Yes,,,,,
81884,"CZK 14,000",50.070642,14.677549,"Rohožnická, Prague - Újezd nad Lesy",1 bedroom with open-plan kitchen,,50 m²,"CZK 3,000","CZK 15,000",,Personal,Brick building,Furnished,3,Yes,No,Yes,No,Yes,No,No,,377,132,424,197,380,62,,,,,10. 07. 2022,1 to 10 years years,Standard materials and solutions,District heating,,,Interior,,,,
288662,"CZK 19,500",50.1014102,14.3708384,"Vostrovská, Prague - Dejvice",2 bedroom,Good,50 m²,"CZK 4,000","CZK 45,000",,Personal,Brick building,Unfurnished,1,No,No,No,No,No,No,No,G,294,928,442,564,441,347,743,854,776,314,01. 04. 2021,,Standard materials and solutions,Gas boiler,Middle floor,,Interior,,,,
715236,"CZK 24,000",50.10014,14.40155,"Jilemnického, Prague - Bubeneč",1 bedroom with open-plan kitchen,Excellent,59 m²,"CZK 3,000","CZK 25,000",,Personal,Brick building,Furnished,4,No,No,No,No,No,Yes,No,D,55,538,169,224,154,376,206,581,398,277,01. 06. 2022,,,,,,,,,,
709484,"CZK 13,500",50.05702105,14.292262248137,"Do Zahrádek I, Prague - Třebonice",Studio,New build,31 m²,"CZK 2,500","CZK 31,000",,Personal,Brick building,Furnished,4,Yes,No,No,No,No,Yes,Yes,A,289,"1,204",586,530,842,640,640,864,481,,21. 04. 2022,,Premium materials and solutions,Other,Top floor,Yes,,,,,
715234,"CZK 19,000",50.05315,14.43646,"Kotorská, Prague - Nusle",2 bedroom with open-plan kitchen,Excellent,67 m²,"CZK 4,200","CZK 30,000",,Personal,Prefab concrete building,Furnished,8,Yes,No,No,No,No,Yes,No,C,247,772,109,327,212,346,332,200,494,215,01. 05. 2022,,,,,,,,,,
714304,"CZK 29,520",50.0861053,14.4085409,"Na Kampě, Prague - Malá Strana",1 bedroom with open-plan kitchen,,39 m²,"CZK 9,840",,,,,Furnished,3,No,No,No,No,No,No,No,,417,407,197,386,62,673,443,555,732,174,16. 05. 2022,,,,,,,,,,
715223,"CZK 18,000",50.1161,14.61419,"Otovická, Prague - Horní Počernice",2 bedroom with open-plan kitchen,New build,100 m²,"CZK 4,000","CZK 25,000",,Personal,Brick building,Furnished,2,No,No,No,No,No,No,No,B,130,343,169,437,136,569,878,"1,451",560,,01. 05. 2022,,,,,,,,,,
605139,"CZK 25,000",50.095329,14.458173,"Kaizlovy Sady, Prague - Karlín",1 bedroom with open-plan kitchen,Excellent,48 m²,"CZK 2,263","CZK 25,000",,Personal,Brick building,Furnished,2,Yes,Yes,Yes,No,Yes,Yes,No,B,85,789,82,529,83,486,289,"1,008",537,220,25. 04. 2022,,,Central heating,Middle floor,,Overall,15 m²,,,
715222,"CZK 16,500",50.04577,14.30466,"Klementova, Prague - Stodůlky",1 bedroom with open-plan kitchen,New build,52 m²,"CZK 3,500","CZK 25,000",,Cooperative,Brick building,Partially furnished,2,No,No,No,Yes,No,Yes,No,B,147,109,174,"1,482",120,917,"1,014",619,780,132,25. 04. 2022,,,,,,,,,,
393866,"CZK 18,000",50.0692954,14.4739425,"Amurská, Prague - Vršovice",2 bedroom,,53 m²,"CZK 1,500","CZK 36,000",,Personal,Brick building,Partially furnished,4,No,No,Yes,No,No,Yes,No,,294,442,218,324,110,505,76,195,144,184,15. 06. 2022,,,,,,,,,,
600130,"CZK 10,000",50.072442,14.392718,"Plzeňská, Prague - Smíchov",Studio,Excellent,30 m²,"CZK 2,500","CZK 12,500",,Personal,Brick building,Partially furnished,1,No,No,No,No,No,No,No,G,64,925,20,616,155,745,212,"1,000",933,226,01. 07. 2022,,,Central heating,Middle floor,,,,,,
506568,"CZK 20,900",50.0692665,14.3734225,"Pod Kavalírkou, Prague - Košíře",1 bedroom with open-plan kitchen,New build,55 m²,"CZK 5,500","CZK 50,000",,Personal,Brick building,Furnished,3,Yes,Yes,Yes,No,Yes,Yes,No,B,203,249,242,217,279,325,480,962,832,165,31. 05. 2022,1 to 10 years years,Premium materials and solutions,Central heating,Middle floor,Yes,,50 m²,,,
546071,"CZK 12,000",50.0573714,14.2822072,"Prušánecká, Prague - Zličín",Studio,,31 m²,"CZK 1,980","CZK 14,000",,Personal,Brick building,Partially furnished,4,Yes,No,No,No,No,No,No,,248,"1,013",840,769,854,894,243,"1,116",77,,13. 04. 2022,,,,,Yes,,,,,
624638,"CZK 14,000",50.013883,14.634175,"Preislerova, Prague - Kolovraty",1 bedroom with open-plan kitchen,Excellent,54 m²,"CZK 2,503","CZK 14,000",,Personal,Brick building,Partially furnished,2,Yes,No,No,No,No,No,Yes,B,223,566,991,924,953,962,617,"1,316",257,,30. 04. 2022,1 to 10 years years,Standard materials and solutions,Gas boiler,,,,,,,
715212,"CZK 16,000",50.0699457,14.4570461,"Žitomírská, Prague - Vršovice",1 bedroom with open-plan kitchen,Excellent,60 m²,CZK 500,"CZK 32,000",,Personal,Brick building,Partially furnished,3,No,No,No,No,No,Yes,No,G,162,360,72,137,90,134,172,134,434,209,20. 04. 2022,,,,,,,,,,
707202,"CZK 28,990",50.10296333333,14.43471,"Schnirchova, Prague - Holešovice",2 bedroom,Excellent,80 m²,"CZK 2,249","CZK 31,239","CZK 31,239

                                
                                
                
i",Personal,Brick building,Partially furnished,6,No,No,No,No,No,Yes,No,G,177,833,68,345,76,160,373,455,920,,,,,,,,,,,,
714404,"CZK 78,000",50.0822546,14.4142748,"Krocínova, Prague - Staré Město",3 bedroom,,125 m²,"CZK 26,000",,,,,Furnished,6,Yes,No,No,No,No,Yes,No,,284,987,183,230,26,119,417,373,329,411,16. 06. 2022,,,,,,,,,,
715209,"CZK 48,000",50.0718291,14.4385892,"Americká, Prague - Vinohrady",3 bedroom,,72 m²,"CZK 16,000",,,,,Furnished,5,No,No,No,No,No,Yes,No,,274,300,81,587,69,312,103,253,793,568,19. 06. 2022,,,,,,,,,,
715207,"CZK 17,625",50.0753237,14.4575982,"Korunní, Prague - Vinohrady",Studio,,29 m²,"CZK 5,875",,,,,Furnished,1,No,No,No,No,No,Yes,No,,159,612,67,290,33,373,307,359,795,244,19. 06. 2022,,,,,,,,,,
715205,"CZK 32,000",50.0812346,14.4298177,"Opletalova, Prague - Nové Město",2 bedroom,Good,71 m²,"CZK 2,140","CZK 41,116","CZK 5,666",Personal,Other,,6,No,No,No,No,No,No,No,,333,299,45,200,54,39,271,954,190,582,20. 04. 2022,,,,,,,,,,
537507,"CZK 30,000",50.0787284,14.4380824,"Anny Letenské, Prague - Vinohrady",3 bedroom,,90 m²,"CZK 5,000","CZK 30,000",,Personal,Brick building,Furnished,3,No,No,No,No,No,No,No,,143,504,340,202,92,241,214,214,280,611,01. 01. 2019,,,,,,,,,,
180914,"CZK 11,000",50.0621567,14.4516187,"Bartoškova, Prague - Nusle",Studio,,45 m²,"CZK 2,700","CZK 22,000",,Cooperative,Brick building,Furnished,2,No,No,No,No,No,No,No,,253,848,363,583,381,720,611,191,837,248,,,,,,,,,,,
715186,"CZK 21,000",50.09337,14.48937,"K Lučinám, Prague - Žižkov",1 bedroom with open-plan kitchen,Excellent,55 m²,"CZK 3,000","CZK 30,000",,Personal,Other,Partially furnished,7,No,Yes,No,No,No,Yes,No,G,278,307,64,270,164,285,185,208,320,139,01. 05. 2022,,,,,,,,,,
712580,"CZK 13,700",50.12639,14.42051,"Hnězdenská, Prague - Troja",1 bedroom with open-plan kitchen,Excellent,51 m²,"CZK 3,500","CZK 20,000",,Personal,Prefab concrete building,Partially furnished,2,No,No,No,No,No,Yes,No,G,231,254,267,324,118,268,776,965,"1,244",396,01. 04. 2022,,,,,,,,,,
563148,"CZK 9,800",50.0397083,14.4584435,"Budějovická, Prague - Krč",Studio,New build,19 m²,"CZK 1,771","CZK 19,600",,Personal,Brick building,Furnished,1,No,No,No,No,No,No,No,B,245,"1,205",382,928,252,528,887,"1,030","1,163",582,01. 05. 2022,,,,,Yes,,,,,
715184,"CZK 13,500",50.0579612,14.4522426,"Děkanská, Prague - Michle",1 bedroom with open-plan kitchen,New build,26 m²,"CZK 3,000","CZK 25,000",,Personal,Brick building,Furnished,,No,No,No,No,No,No,No,G,242,603,421,272,14,"1,031",214,549,357,393,01. 05. 2022,,,,,,,,,,
512664,"CZK 18,500",50.1113613,14.4506061,"Varhulíkové, Prague - Holešovice",1 bedroom with open-plan kitchen,,66 m²,"CZK 5,900","CZK 37,000",,Personal,Brick building,Partially furnished,1,No,Yes,No,No,No,No,No,,179,"1,085",625,897,587,683,541,"1,360",814,526,ihned,,,,,,,,,,
713523,"CZK 60,000",50.0757302,14.4269087,"Ječná, Prague - Nové Město",1 bedroom with open-plan kitchen,,,"CZK 20,000",,,,,Furnished,3,No,No,No,No,No,No,No,,177,647,182,40,38,122,28,102,350,194,29. 05. 2022,,,,,,,,,,
713487,"CZK 39,971",50.0877117,14.4091678,"U Lužického semináře, Prague - Malá Strana",2 bedroom,,56 m²,"CZK 13,324",,,,,Furnished,1,No,Yes,No,No,No,No,No,,337,356,19,335,43,634,392,362,865,215,20. 05. 2022,,,,,,,,,,
713587,"CZK 20,396",50.0668274,14.3966153,"U Nikolajky, Prague - Smíchov",Studio,,35 m²,"CZK 6,799",,,,,Furnished,1,Yes,Yes,No,No,No,Yes,Yes,,234,341,228,706,128,428,324,536,546,328,08. 06. 2022,,,,,,,,,,
713865,"CZK 15,500",50.06064,14.39971,"Na Neklance, Prague - Smíchov",Studio,New build,28 m²,"CZK 2,500","CZK 18,000",,Personal,Other,Partially furnished,4,Yes,No,No,No,No,Yes,Yes,G,161,895,212,926,204,442,602,741,663,541,11. 04. 2022,,,,,,,,,,
619211,"CZK 17,000",50.0336592,14.4165494,"Nad Strouhou, Prague - Braník",1 bedroom with open-plan kitchen,Excellent,53 m²,"CZK 2,000","CZK 17,000",,Personal,Brick building,Partially furnished,3,No,No,No,No,No,No,No,E,207,708,283,218,254,581,443,"1,313",203,,01. 05. 2022,,,,,,Overall,,,,
713498,"CZK 39,000",50.0739894,14.440101,"Francouzská, Prague - Vinohrady",2 bedroom,,80 m²,"CZK 13,000",,,,,Furnished,3,No,No,No,No,No,Yes,No,,149,274,60,441,20,421,59,552,690,457,29. 05. 2022,,,,,,,,,,
713500,"CZK 63,000",50.0895437,14.4260543,"Rybná, Prague - Staré Město",3 bedroom,,86 m²,"CZK 21,000",,,,,Furnished,3,No,No,No,No,No,No,No,,138,70,36,61,45,257,146,128,234,214,01. 06. 2022,,,,,,,,,,
713507,"CZK 50,250",50.0710929,14.4032595,"Stroupežnického, Prague - Smíchov",3 bedroom with open-plan kitchen,,90 m²,"CZK 16,750",,,,,Furnished,2,No,No,No,No,No,Yes,No,,140,528,224,126,38,67,511,"1,001","1,181",559,05. 05. 2022,,,,,,,,,,
713481,"CZK 49,650",50.0894663,14.4240032,"Masná, Prague - Staré Město",Studio,,46 m²,"CZK 16,550",,,,,Furnished,6,No,No,No,No,No,Yes,No,,62,263,122,95,13,113,64,46,150,138,06. 05. 2022,,,,,,,,,,
713475,"CZK 32,250",50.0717643,14.4385436,"Americká, Prague - Vinohrady",Studio,,27 m²,"CZK 10,750",,,,,Furnished,4,No,No,No,No,No,Yes,No,,272,322,70,607,60,509,83,250,792,565,16. 05. 2022,,,,,,,,,,
713462,"CZK 45,000",50.0795975,14.4273504,"Ve Smečkách, Prague - Nové Město",1 bedroom with open-plan kitchen,,70 m²,"CZK 15,000",,,,,Furnished,4,No,No,No,No,No,Yes,No,,285,548,70,207,10,222,245,618,370,524,31. 05. 2022,,,,,,,,,,
713469,"CZK 25,500",50.0876289,14.3978335,"Šporkova, Prague - Malá Strana",Studio,,40 m²,"CZK 8,500",,,,,Furnished,1,No,No,No,No,No,No,No,,29,634,152,537,130,317,388,899,984,129,18. 05. 2022,,,,,,,,,,
713479,"CZK 41,250",50.0643299,14.4102127,"Strakonická, Prague - Smíchov",2 bedroom,,50 m²,"CZK 13,750",,,,,Furnished,-1,No,No,No,No,No,No,No,,211,382,250,989,170,745,812,"1,050",387,543,16. 05. 2022,,,,,,,,,,
713453,"CZK 37,500",50.0633339,14.4440155,"Mečislavova, Prague - Nusle",1 bedroom with open-plan kitchen,,56 m²,"CZK 12,500",,,,,Furnished,5,No,No,No,No,No,Yes,No,,243,541,100,272,177,315,457,820,635,594,01. 06. 2022,,,,,,,,,,
715170,"CZK 16,000",50.00325,14.39601,"K Sádkám, Prague - Velká Chuchle",1 bedroom with open-plan kitchen,Excellent,46 m²,"CZK 4,000","CZK 20,000",,Personal,Prefab concrete building,Partially furnished,2,Yes,No,Yes,No,Yes,No,No,C,539,"1,244","1,144","1,202","1,249","1,300","1,079",,,,01. 05. 2022,,,,,,,,,,
714038,"CZK 19,000",50.12659,14.41248,"Krynická, Prague - Troja",3 bedroom,New build,76 m²,"CZK 4,000","CZK 38,000",,Personal,Prefab concrete building,Partially furnished,12,Yes,No,Yes,Yes,No,Yes,No,C,158,543,41,478,478,335,341,145,212,,12. 04. 2022,,Premium materials and solutions,District heating,Top floor,,Overall,,,,
713216,"CZK 15,000",50.03495,14.38949,"Devonská, Prague - Hlubočepy",Studio,New build,60 m²,"CZK 6,000","CZK 42,000",,Personal,Brick building,Partially furnished,2,Yes,No,Yes,No,No,Yes,No,G,202,"1,286",669,"1,194",642,"1,252","1,272","1,272","1,205",91,14. 05. 2022,,,Central heating,,,,,,,
439122,"CZK 21,000",50.0780926,14.4961297,Prague - Strašnice,3 bedroom,Excellent,71 m²,"CZK 6,500","CZK 63,000",,Personal,Prefab concrete building,Partially furnished,,Yes,No,No,No,No,Yes,No,,257,447,215,535,448,488,665,427,"1,129",57,,,,District heating,Raised ground floor,,Overall,,,,
599897,"CZK 16,000",50.079357,14.448796,"Ondříčkova, Prague - Žižkov",1 bedroom with open-plan kitchen,Excellent,40 m²,"CZK 2,000","CZK 16,000",,Personal,Brick building,Furnished,1,Yes,No,No,No,No,Yes,No,B,316,378,43,377,103,406,247,287,691,274,01. 05. 2022,1 to 10 years years,,District heating,,,Overall,,,,
713525,"CZK 20,250",50.0922767,14.4324355,"Klimentská, Prague - Nové Město",Studio,,30 m²,"CZK 6,750",,,,,Furnished,1,No,No,No,No,No,No,No,,132,502,36,412,20,262,31,217,579,177,06. 06. 2022,,,,,,,,,,
713468,"CZK 18,720",50.0713305,14.4638794,"Na Míčánkách, Prague - Vršovice",1 bedroom with open-plan kitchen,,49 m²,"CZK 6,240",,,,,Furnished,2,No,No,No,No,No,Yes,No,,84,743,87,659,277,595,408,307,678,198,06. 06. 2022,,,,,,,,,,
588609,"CZK 17,000",50.108993,14.624449,"Ve žlíbku, Prague - Horní Počernice",3 bedroom,Excellent,82 m²,"CZK 3,000","CZK 17,000",,Personal,Brick building,Unfurnished,2,Yes,No,No,No,No,No,No,B,104,758,967,716,501,910,368,,,,01. 06. 2022,,,Gas boiler,Middle floor,,,,,,
500192,"CZK 12,000",50.056036,14.505237,"Jabloňová, Prague - Záběhlice",Studio,,25 m²,"CZK 1,900","CZK 25,000",,Personal,Prefab concrete building,Furnished,6,No,No,Yes,No,No,Yes,No,C,191,467,454,725,179,741,648,500,937,363,18. 05. 2022,,,District heating,Middle floor,,Overall,,,,
715153,"CZK 12,000",50.10421,14.47933,"U Balabenky, Prague - Libeň",Studio,Good,38 m²,"CZK 3,000","CZK 12,000",,Personal,Brick building,Furnished,2,No,No,No,No,No,No,No,G,11,274,121,364,58,317,387,471,133,398,01. 05. 2022,,,,,,,,,,
641201,"CZK 13,000",49.987588,14.453434,"U Nové Louky, Prague - Cholupice",2 bedroom,Good,42 m²,"CZK 3,500","CZK 16,500",,Personal,Brick building,Furnished,1,No,No,No,No,Yes,No,No,,404,348,553,564,,,,,,,19. 04. 2022,,,,,,,,,,
713511,"CZK 44,973",50.1025661,14.4522431,"Na Maninách, Prague - Holešovice",1 bedroom with open-plan kitchen,,69 m²,"CZK 14,991",,,,,Furnished,6,Yes,Yes,No,No,No,Yes,No,,105,350,144,146,109,151,432,394,290,329,24. 04. 2022,,,,,,,,,,
713519,"CZK 27,900",50.0471114,14.4429584,"Krchlebská, Prague - Krč",1 bedroom with open-plan kitchen,,41 m²,"CZK 9,300",,,,,Furnished,5,No,No,No,No,No,No,No,,394,499,253,432,280,389,317,725,696,412,01. 06. 2022,,,,,,,,,,
715151,"CZK 20,990",50.09762888888,14.34767472222,"Vokovická, Prague - Vokovice",3 bedroom,Good,78 m²,"CZK 3,534","CZK 24,524","CZK 24,524

                                
                                
                
i",Personal,Prefab concrete building,Partially furnished,12,Yes,No,No,No,No,Yes,No,D,122,"1,174",57,891,309,286,214,125,278,186,,,,,,,,,,,
582073,"CZK 16,500",50.103858,14.477738,"Novákových, Prague - Libeň",1 bedroom with open-plan kitchen,Excellent,45 m²,"CZK 2,200","CZK 33,000",,Personal,Other,Partially furnished,3,No,No,No,No,No,Yes,No,A,143,165,52,252,96,178,275,363,190,299,01. 03. 2021,,Premium materials and solutions,,Middle floor,,Overall,,,,
624497,"CZK 14,500",50.056579,14.373918,"Kačírkova, Prague - Jinonice",Studio,New build,33 m²,"CZK 2,500","CZK 10,000",,Personal,Low-energy building,,3,Yes,No,No,No,No,No,No,A,167,110,211,"1,262",70,153,729,190,"1,174",169,01. 05. 2022,,,,,,,,,,
706058,"CZK 12,000",50.07828,14.5085,"Limuzská, Prague - Strašnice",Studio,New build,33 m²,"CZK 2,700","CZK 12,000",,Personal,Low-energy building,Partially furnished,1,No,No,Yes,No,No,Yes,No,A,53,915,509,892,124,768,934,"1,058","1,195",526,01. 06. 2022,1 to 10 years years,,District heating,Ground floor,Yes,Overall,,,,
715136,"CZK 17,000",50.10576,14.47402,"Světova, Prague - Libeň",1 bedroom with open-plan kitchen,Excellent,55 m²,"CZK 4,000","CZK 21,000",,Personal,Brick building,Furnished,2,No,No,No,No,No,No,No,G,108,659,106,144,91,160,270,445,414,316,22. 04. 2022,,,,,,,,,,
713518,"CZK 60,289",50.0821872,14.4175604,"Národní, Prague - Staré Město",2 bedroom,,,"CZK 20,096",,,,,Furnished,1,No,No,No,No,No,No,No,,198,801,15,163,39,141,121,304,55,465,24. 04. 2022,,,,,,,,,,
713506,"CZK 37,425",50.0749602,14.4305105,"Legerova, Prague - Vinohrady",1 bedroom,,30 m²,"CZK 12,475",,,,,Furnished,2,No,No,No,No,No,Yes,No,,22,463,81,96,72,158,361,436,384,451,15. 05. 2022,,,,,,,,,,
713499,"CZK 39,015",50.0882058,14.4262315,"Rybná, Prague - Staré Město",1 bedroom with open-plan kitchen,,44 m²,"CZK 13,005",,,,,Furnished,3,No,No,No,No,No,No,No,,281,192,58,183,11,368,315,297,289,305,19. 05. 2022,,,,,,,,,,
713480,"CZK 46,103",50.0840648,14.4187033,"Jilská, Prague - Staré Město",1 bedroom with open-plan kitchen,,53 m²,"CZK 15,367",,,,,Furnished,3,No,No,No,No,No,Yes,No,,298,541,99,261,14,253,193,593,251,217,02. 05. 2022,,,,,,,,,,
713464,"CZK 43,350",50.0894289,14.423732,"Masná, Prague - Staré Město",Studio,,46 m²,"CZK 14,450",,,,,Furnished,3,No,No,No,No,No,Yes,No,,68,269,126,89,16,107,70,52,156,144,02. 05. 2022,,,,,,,,,,
715135,"CZK 13,990",50.0968525,14.46717666666,"Nekvasilova, Prague - Karlín",1 bedroom with open-plan kitchen,Good,48 m²,"CZK 1,799","CZK 15,769","CZK 15,769

                                
                                
                
i",Personal,Prefab concrete building,Unfurnished,7,Yes,No,Yes,No,No,Yes,No,G,246,"1,072",189,"1,019",304,807,563,545,778,130,,,,,,,,,,,
164247,"CZK 13,500",50.063345164174,14.445500139118,Prague - Nusle,1 bedroom with open-plan kitchen,Excellent,42 m²,"CZK 1,200","CZK 15,000",,Personal,Brick building,Partially furnished,2,Yes,No,No,No,No,No,Yes,,218,618,107,321,227,364,506,802,685,644,01. 05. 2022,,,,,,,,,,
715133,"CZK 18,800",50.06,14.45019,"Jivenská, Prague - Michle",3 bedroom,Excellent,78 m²,"CZK 4,400","CZK 37,600",,Personal,Brick building,Partially furnished,3,No,No,No,No,No,Yes,No,C,74,829,15,235,86,731,263,318,743,273,22. 04. 2022,1 to 10 years years,Standard materials and solutions,Central heating,Middle floor,,Overall,,,,
713833,"CZK 22,000",50.01114,14.40825,"Karasova, Prague - Modřany",3 bedroom,Good,77 m²,"CZK 7,000","CZK 66,000",,Personal,Brick building,Partially furnished,1,No,No,No,No,No,No,Yes,G,165,"1,132",902,"1,034",420,952,626,"1,073",604,,19. 04. 2022,over 50 years years,Standard materials and solutions,Gas boiler,Middle floor,,Interior,800 m²,,,
415530,"CZK 13,000",50.0482602,14.4379876,"Milevská, Prague - Krč",Studio,,35 m²,"CZK 3,000","CZK 16,000",,Personal,Prefab concrete building,Partially furnished,2,Yes,No,No,No,No,No,No,,219,360,267,432,155,436,424,564,187,122,22. 04. 2022,,,,,,,,,,
587681,"CZK 13,500",50.079564,14.428764,"Krakovská, Prague - Nové Město",2 bedroom,Good,51 m²,"CZK 5,500","CZK 19,000",,Personal,Brick building,Furnished,5,No,No,No,No,No,Yes,No,E,273,540,175,46,147,201,498,676,330,582,01. 07. 2022,30 to 50 years years,Premium materials and solutions,Gas boiler,Attic,,,,,,
715128,"CZK 14,000",50.01729,14.44441,"Zdislavická, Prague - Kamýk",1 bedroom with open-plan kitchen,Excellent,40 m²,"CZK 3,000","CZK 14,000",,Personal,Prefab concrete building,Furnished,6,Yes,No,Yes,No,No,Yes,No,B,162,652,130,"1,233",570,166,492,442,939,170,01. 06. 2022,,,,,,,,,,
532548,"CZK 22,500",50.0082724,14.4211055,Prague - Modřany,3 bedroom with open-plan kitchen,Excellent,76 m²,"CZK 3,000","CZK 45,000",,Cooperative,Prefab concrete building,Furnished,6,Yes,No,No,No,No,Yes,No,,457,585,436,446,514,471,232,"1,023",951,629,01. 07. 2022,1 to 10 years years,,,Middle floor,,,,,,
713458,"CZK 41,325",50.0865843,14.4323212,"Dlážděná, Prague - Nové Město",1 bedroom with open-plan kitchen,,64 m²,"CZK 13,775",,,,,Furnished,3,Yes,Yes,No,No,No,Yes,No,,110,274,157,129,77,143,300,496,282,367,11. 05. 2022,,,,,,,,,,
715124,"CZK 8,000",50.00103,14.46431,"Na Okruhu, Prague - Písnice",Studio,Good,20 m²,"CZK 3,000","CZK 15,000",,Personal,Prefab concrete building,Partially furnished,6,No,No,No,No,Yes,Yes,No,D,175,"1,211",234,307,264,204,754,,,,01. 05. 2022,,,,,,,,,,
598228,"CZK 10,000",50.054874,14.525425,"Rychtáře Petříka, Prague - Hostivař",Studio,New build,36 m²,"CZK 3,000","CZK 10,000",,Personal,Brick building,Partially furnished,1,No,Yes,No,No,No,Yes,No,B,287,755,238,717,532,759,"1,182",642,491,399,01. 05. 2022,1 to 10 years years,,,Middle floor,,,,,,
541309,"CZK 14,990",50.1155148,14.5655166,"Federova, Prague - Kyje",1 bedroom with open-plan kitchen,New build,47 m²,"CZK 3,200",,,Personal,Brick building,Partially furnished,2,Yes,No,No,No,Yes,Yes,Yes,A,353,993,768,"1,362","1,242",780,,,,,30. 04. 2022,1 to 10 years years,Premium materials and solutions,Central heating,Middle floor,Yes,,,,,
714002,"CZK 12,000",50.08981,14.46508,"Koněvova, Prague - Žižkov",2 bedroom,Excellent,52 m²,CZK 750,"CZK 15,000",,Personal,Brick building,Partially furnished,1,No,No,No,No,No,Yes,No,G,124,761,171,33,50,318,649,678,327,183,01. 01. 1970,,,,,,,,,,
654952,"CZK 11,500",50.0567507,14.291957,Prague - Třebonice,Studio,New build,29 m²,"CZK 2,500","CZK 20,000",,Personal,Brick building,Partially furnished,3,Yes,No,Yes,No,No,Yes,No,B,262,"1,178",560,504,816,614,614,838,454,,01. 05. 2022,1 to 10 years years,Premium materials and solutions,Central heating,Middle floor,Yes,,,,,
714329,"CZK 38,775",50.0918754,14.4250902,"Řásnovka, Prague - Staré Město",2 bedroom,,48 m²,"CZK 12,925",,,,,Furnished,2,No,No,No,No,No,No,No,,158,249,155,246,113,320,391,409,155,114,25. 04. 2022,,,,,,,,,,
714258,"CZK 12,000",50.05136,14.52689,"Hostivařská, Prague - Hostivař",Studio,Excellent,29 m²,"CZK 2,400","CZK 20,000",,Personal,Prefab concrete building,Furnished,2,No,No,No,No,No,Yes,No,G,171,907,444,869,197,911,861,490,354,357,01. 05. 2022,,,,,,,,,,
661647,"CZK 12,500",50.02428,14.51511,"Ke Kateřinkám, Prague - Chodov",1 bedroom with open-plan kitchen,New build,47 m²,"CZK 4,000","CZK 10,000",,Personal,Prefab concrete building,Partially furnished,7,Yes,No,Yes,Yes,No,No,No,B,14,969,166,"1,452",268,216,136,524,"1,472",265,01. 05. 2022,1 to 10 years years,Standard materials and solutions,District heating,Middle floor,,Overall,,,,
493091,"CZK 18,000",50.1268957,14.4219657,"Hnězdenská, Prague - Troja",1 bedroom with open-plan kitchen,,55 m²,"CZK 3,500","CZK 40,000",,Personal,Other,Furnished,4,Yes,No,No,No,No,Yes,Yes,C,403,318,77,388,182,332,687,968,"1,053",325,01. 05. 2022,10 to 30 years years,,,,,,,,,
715113,"CZK 21,000",50.04804,14.4852,"Hrusická, Prague - Záběhlice",3 bedroom,Excellent,72 m²,"CZK 2,000","CZK 21,000",,Personal,Brick building,Furnished,3,No,No,No,Yes,No,No,No,C,198,334,261,275,219,121,293,"1,053",296,,01. 06. 2022,,,,,,,,,,
658481,"CZK 16,500",50.06895,14.4522,"Rostovská, Prague - Vršovice",1 bedroom with open-plan kitchen,Excellent,44 m²,"CZK 2,500",,,Personal,Brick building,Furnished,2,No,No,No,No,No,Yes,No,F,189,468,95,162,42,290,199,407,320,372,13. 04. 2021,,,,,,,,,,
715096,"CZK 20,000",50.07159,14.44605,"Voroněžská, Prague - Vršovice",2 bedroom with open-plan kitchen,Good,75 m²,"CZK 4,000","CZK 48,000",,Personal,Brick building,,1,No,No,No,No,No,No,No,G,102,595,24,523,75,664,466,426,266,256,01. 05. 2022,,,,,,,,,,
524838,"CZK 14,000",50.0850085,14.3774902,"Bělohorská, Prague - Břevnov",1 bedroom with open-plan kitchen,Excellent,52 m²,"CZK 2,995","CZK 34,000",,Personal,Brick building,Partially furnished,2,No,Yes,No,No,No,No,No,C,136,974,5,480,27,245,165,314,211,189,01. 06. 2022,,Premium materials and solutions,District heating,Middle floor,,Overall,,,,
475149,"CZK 19,000",50.1037352,14.5093144,"Pod Harfou, Prague - Vysočany",2 bedroom with open-plan kitchen,,73 m²,"CZK 5,000","CZK 19,000",,Personal,Other,Partially furnished,5,Yes,No,No,No,No,No,No,C,441,115,"1,219",713,"1,043","1,339","1,062",87,,,01. 05. 2022,1 to 10 years years,,District heating,Middle floor,,,,,,
710381,"CZK 18,300",50.0124216,14.4017606,"Vrátnická, Prague - Modřany",1 bedroom with open-plan kitchen,New build,53 m²,"CZK 3,800","CZK 40,000",,Personal,Low-energy building,Partially furnished,5,Yes,No,Yes,No,Yes,Yes,Yes,A,79,953,290,"1,197",615,"1,258","1,259",537,,,22. 03. 2022,,Premium materials and solutions,Central heating,,Yes,,,,,
714150,"CZK 22,000",50.1092756,14.4491917,"U Pergamenky, Prague - Holešovice",1 bedroom with open-plan kitchen,New build,55 m²,"CZK 3,500","CZK 50,000",,Personal,Brick building,Furnished,6,Yes,Yes,Yes,Yes,Yes,Yes,Yes,A,268,744,225,595,299,395,184,"1,058",526,289,19. 04. 2022,,,District heating,Top floor,Yes,,,,,
661115,"CZK 27,500",50.07783,14.43667,"Vinohradská, Prague - Vinohrady",3 bedroom,Excellent,112 m²,"CZK 5,581",,,Personal,Brick building,Partially furnished,3,Yes,No,No,No,No,No,No,F,82,240,76,129,72,4,335,424,475,805,21. 03. 2022,,,,,,,,,,
452524,"CZK 14,900",50.1057184,14.5300966,"Konzumní, Prague - Hloubětín",1 bedroom with open-plan kitchen,,50 m²,CZK 700,"CZK 15,000",,Personal,Brick building,Unfurnished,1,Yes,No,No,No,No,No,No,,203,797,178,778,542,648,739,597,636,435,01. 05. 2022,,,,,,,,,,
451761,"CZK 16,000",50.0477873,14.4642491,"Na Líše, Prague - Michle",1 bedroom with open-plan kitchen,,42 m²,"CZK 3,500","CZK 20,000",,Personal,Brick building,Furnished,3,Yes,No,No,No,Yes,Yes,No,B,345,762,351,824,342,809,103,137,623,323,01. 06. 2022,,,,,,,,,,
714225,"CZK 16,104",50.08065,14.431,"Washingtonova, Prague - Nové Město",Studio,Excellent,24 m²,"CZK 3,200","CZK 32,208",,Personal,Brick building,Furnished,2,No,No,No,No,No,Yes,No,D,124,331,157,252,102,6,301,804,219,527,01. 06. 2022,,,,,,,,,,
166039,"CZK 9,000",50.0243141,14.4177161,"Klánova, Prague - Hodkovičky",1 bedroom,Excellent,33 m²,"CZK 4,000","CZK 13,000",,Personal,Brick building,Partially furnished,2,No,No,Yes,No,No,No,No,,243,"1,297",776,"1,290",726,801,613,999,"1,372",547,,,Standard materials and solutions,,Middle floor,,,,,,
714221,"CZK 23,363",50.08065,14.431,"Washingtonova, Prague - Nové Město",1 bedroom with open-plan kitchen,Excellent,38 m²,"CZK 4,200","CZK 46,726",,Personal,Brick building,Furnished,2,No,No,No,No,No,Yes,No,D,124,331,157,252,102,6,301,804,219,527,01. 06. 2022,,,,,,,,,,
377950,"CZK 22,000",50.1050536,14.4879673,"Drahobejlova, Prague - Libeň",2 bedroom with open-plan kitchen,New build,67 m²,"CZK 4,700","CZK 40,000",,Personal,Brick building,Furnished,6,Yes,No,Yes,No,Yes,Yes,Yes,B,200,80,120,118,164,278,337,565,181,47,01. 09. 2021,1 to 10 years years,Premium materials and solutions,District heating,Middle floor,Yes,,,,,
596022,"CZK 30,000",50.071549,14.446247,"Voroněžská, Prague - Vršovice",3 bedroom with open-plan kitchen,Good,110 m²,"CZK 5,000","CZK 70,000",,Personal,Brick building,,4,Yes,No,No,No,No,Yes,No,G,88,582,11,510,62,650,453,440,253,242,01. 06. 2022,,,,,,,,,,
628499,"CZK 22,000",49.981083,14.350539,"Zderazská, Prague - Radotín",2 bedroom with open-plan kitchen,Excellent,80 m²,"CZK 3,000","CZK 22,000",,Personal,Brick building,,1,No,Yes,Yes,No,No,No,No,G,177,966,280,293,505,349,966,409,,,15. 06. 2022,,,,,,,,,,
406062,"CZK 14,000",50.110359480005,14.558964438623,"Lipnická, Prague - Kyje",1 bedroom with open-plan kitchen,,50 m²,"CZK 3,000","CZK 20,000",,Personal,Brick building,Partially furnished,5,Yes,Yes,Yes,No,Yes,Yes,Yes,,267,"1,051",177,185,"1,005",546,"1,345",226,,,01. 05. 2022,,,,,Yes,,,,,
710940,"CZK 34,000",50.0959448,14.453085513058,"Rohanské nábřeží, Prague - Karlín",2 bedroom with open-plan kitchen,New build,80 m²,"CZK 5,750","CZK 20,000",,Personal,Prefab concrete building,Furnished,5,Yes,No,Yes,No,Yes,Yes,No,G,327,632,307,307,206,444,677,553,540,,01. 04. 2022,,,,,,,,,,
483155,"CZK 13,790",50.0847933,14.4857342,"Zvěřinova, Prague - Strašnice",Studio,,41 m²,"CZK 3,350","CZK 17,140",,Personal,Brick building,Partially furnished,2,Yes,No,Yes,No,Yes,Yes,Yes,B,292,"1,255",532,"1,162",569,784,"1,044",129,555,225,01. 04. 2022,,,,,Yes,,,,,
715078,"CZK 27,720",50.0925119,14.4502616,"Křižíkova, Prague - Karlín",Studio,,51 m²,"CZK 9,240",,,,,Furnished,5,Yes,No,No,No,No,Yes,Yes,,81,251,125,181,24,205,369,"1,216",241,212,02. 06. 2022,,,,,,,,,,
573663,"CZK 19,900",50.0899503,14.3420175,"Na Okraji, Prague - Veleslavín",1 bedroom with open-plan kitchen,New build,65 m²,"CZK 3,900","CZK 30,000",,Personal,Brick building,Partially furnished,4,Yes,No,Yes,No,No,Yes,No,C,188,582,118,232,196,272,254,118,913,245,11. 04. 2022,1 to 10 years years,Premium materials and solutions,Central heating,Top floor,Yes,,,,,
715074,"CZK 30,000",50.0773803,14.3766201,"Pod Stadiony, Prague - Smíchov",2 bedroom with open-plan kitchen,Excellent,79 m²,"CZK 4,000","CZK 30,000",,Personal,Brick building,Furnished,2,Yes,No,Yes,No,No,Yes,Yes,G,291,"1,211",834,"1,404",825,"1,161","1,250","1,056",627,547,01. 05. 2022,,,,,,,,,,
596903,"CZK 14,000",50.029986,14.369024,"Voskovcova, Prague - Hlubočepy",1 bedroom with open-plan kitchen,Excellent,45 m²,"CZK 3,000","CZK 17,000",,Personal,Prefab concrete building,Partially furnished,2,No,No,No,No,No,Yes,No,C,111,862,87,859,36,851,205,258,498,193,01. 10. 2021,,Standard materials and solutions,District heating,Middle floor,,Overall,,,,
24757,"CZK 7,500",50.0939141,14.5324196,Prague - Hloubětín,Studio,,28 m²,"CZK 3,000","CZK 10,000",,Personal,Brick building,Furnished,1,No,No,No,No,No,No,No,B,293,747,"1,083","1,062","1,356","1,185","1,300",688,557,,Ihned,,,Central heating,,,,,,,
382369,"CZK 14,000",50.0598169,14.4468477,"Horní, Prague - Nusle",2 bedroom,,61 m²,"CZK 4,000","CZK 25,000",,Personal,Brick building,Partially furnished,3,No,No,Yes,No,No,Yes,No,D,227,930,7,405,239,658,488,653,791,224,01. 06. 2022,,Standard materials and solutions,Gas boiler,Middle floor,,Interior,,,,
657522,"CZK 15,500",50.06862,14.40104,"Ostrovského, Prague - Smíchov",1 bedroom with open-plan kitchen,Excellent,61 m²,"CZK 3,000","CZK 18,500",,Personal,Brick building,Partially furnished,1,No,No,No,No,No,No,No,D,27,143,131,268,19,44,346,591,852,149,01. 05. 2022,,,,,,,,,,
577002,"CZK 16,000",50.1171669,14.4317465,"Trojská, Prague - Troja",1 bedroom with open-plan kitchen,,43 m²,"CZK 3,500","CZK 48,000",,Personal,Brick building,Unfurnished,1,No,No,No,No,No,No,No,C,141,"1,030","1,164",484,672,"1,054",233,748,,,01. 01. 2022,,,,,,,,,,
714416,"CZK 23,000",50.09179,14.44168,"Sokolovská, Prague - Karlín",1 bedroom,Excellent,27 m²,"CZK 4,500","CZK 23,000",,Personal,Brick building,Furnished,3,No,Yes,No,No,No,No,No,G,170,423,142,168,13,109,427,891,261,225,18. 04. 2022,,,,,,,,,,
547996,"CZK 11,500",50.0663622,14.439065,"Bělehradská, Prague - Nusle",1 bedroom,Excellent,38 m²,CZK 800,"CZK 15,000",,Personal,Brick building,Unfurnished,4,No,No,No,No,No,Yes,No,G,133,222,237,243,67,320,502,563,581,428,15. 04. 2022,,Standard materials and solutions,Electric boiler,Middle floor,,Overall,,,,
715056,"CZK 20,000",50.0124216,14.4017606,"Vrátnická, Prague - Modřany",1 bedroom with open-plan kitchen,New build,57 m²,"CZK 3,500","CZK 20,000",,Personal,Brick building,Partially furnished,4,Yes,No,Yes,No,Yes,Yes,Yes,B,79,953,290,"1,197",615,"1,258","1,259",537,,,01. 05. 2022,,Premium materials and solutions,Central heating,Middle floor,Yes,,,,,
715057,"CZK 13,000",50.08178,14.44705,"Kubelíkova, Prague - Žižkov",1 bedroom,Excellent,30 m²,"CZK 1,970","CZK 15,000",,Personal,Brick building,Partially furnished,,No,Yes,No,No,No,No,No,G,546,395,30,489,17,63,293,301,622,393,01. 07. 2022,,,,,,,,,,
710458,"CZK 25,000",50.08156,14.64289,"Nesměřická, Prague - Újezd nad Lesy",Other,Excellent,30 m²,,CZK 500,,Personal,Brick building,Partially furnished,1,No,No,No,No,No,No,No,G,359,851,433,768,887,703,310,,,,18. 04. 2022,,Standard materials and solutions,,,,,10 m²,,,
526339,"CZK 9,100",50.063656,14.4444206,"Mečislavova, Prague - Nusle",1 bedroom,,39 m²,CZK 800,"CZK 15,000",,Personal,Brick building,Partially furnished,4,No,No,No,No,No,No,No,,286,508,121,251,211,258,490,787,669,627,30. 04. 2022,1 to 10 years years,,Other,Middle floor,,Interior,,,,
607564,"CZK 14,500",50.085347,14.365319,"Patočkova, Prague - Břevnov",Studio,New build,39 m²,"CZK 2,200","CZK 20,000",,Personal,Brick building,Furnished,5,Yes,Yes,No,No,No,Yes,No,B,41,185,247,295,232,183,138,489,264,348,01. 07. 2022,1 to 10 years years,,,,,,,,,
451823,"CZK 13,800",50.0740589,14.4437095,"Šumavská, Prague - Vinohrady",1 bedroom,Excellent,58 m²,"CZK 1,700","CZK 14,000",,Personal,Brick building,Furnished,3,No,No,No,No,No,No,No,D,163,129,116,617,96,399,289,279,497,251,15. 05. 2022,,,Gas boiler,Middle floor,,Overall,,,,
715032,"CZK 14,000",50.14234,14.52168,"Hlučkova, Prague - Letňany",1 bedroom with open-plan kitchen,Excellent,55 m²,"CZK 4,500","CZK 20,000",,Personal,Prefab concrete building,Partially furnished,2,Yes,No,No,No,Yes,Yes,Yes,B,580,935,"1,264",212,"1,059","1,335","1,182",922,180,,01. 05. 2022,,,,,,,,,,
140217,"CZK 10,000",50.095907,14.3655905,"Na Rozdílu, Prague - Vokovice",1 bedroom with open-plan kitchen,,55 m²,"CZK 4,000","CZK 10,000",,Personal,Brick building,Unfurnished,-1,No,No,No,No,Yes,No,No,D,454,449,482,458,133,151,726,679,869,109,01. 05. 2022,over 50 years years,,Other,Ground floor,,Interior,,,,
715027,"CZK 18,500",50.02515,14.52557,"Jažlovická, Prague - Chodov",3 bedroom,Good,68 m²,"CZK 3,691","CZK 22,200",,Personal,Prefab concrete building,Partially furnished,8,No,No,No,Yes,No,Yes,No,G,400,"1,144",422,839,229,704,320,642,935,91,25. 04. 2022,,Standard materials and solutions,District heating,Top floor,,,,,,
152553,"CZK 14,500",50.1275027,14.5031577,"Bechlínská, Prague - Letňany",1 bedroom with open-plan kitchen,,55 m²,"CZK 5,400","CZK 29,000",,Personal,Brick building,Partially furnished,3,Yes,No,Yes,No,Yes,Yes,No,,225,841,106,870,581,807,351,519,270,,18. 04. 2022,,,,,,,,,,
47085,"CZK 17,000",50.1344641,14.4676023,"Šimůnkova, Prague - Kobylisy",1 bedroom with open-plan kitchen,Excellent,68 m²,"CZK 4,000","CZK 25,000",,Personal,Prefab concrete building,Furnished,6,No,Yes,No,No,No,Yes,No,D,334,911,391,933,378,811,317,275,364,,01. 07. 2022,1 to 10 years years,Standard materials and solutions,Gas boiler,Top floor,,,,,,
715013,"CZK 15,000",50.1505663,14.446543,"U Jízdárny, Prague - Dolní Chabry",1 bedroom with open-plan kitchen,Excellent,53 m²,"CZK 4,850","CZK 15,000",,Personal,Brick building,Partially furnished,2,No,No,Yes,Yes,Yes,No,Yes,C,233,691,765,407,719,890,502,441,,,18. 04. 2022,,,,,,,,,,
658598,"CZK 18,000",50.03467,14.59202,"Dopravní, Prague - Uhříněves",2 bedroom with open-plan kitchen,Excellent,76 m²,"CZK 4,000","CZK 20,000",,Personal,Brick building,Unfurnished,4,No,No,No,Yes,No,No,No,G,133,823,291,771,516,726,508,290,"1,338",229,10. 05. 2022,,Standard materials and solutions,Central heating,Top floor,,Overall,,,,
23173,"CZK 12,000",50.0302348,14.5183773,Prague - Chodov,1 bedroom with open-plan kitchen,Excellent,42 m²,"CZK 3,300","CZK 22,000",,Personal,Prefab concrete building,Furnished,3,Yes,No,Yes,No,No,No,No,,380,424,276,853,253,330,515,326,871,216,,,,,Middle floor,,,,,,
714165,"CZK 14,000",50.10196,14.45036,"Tusarova, Prague - Holešovice",1 bedroom,Good,36 m²,"CZK 1,000","CZK 14,000",,Personal,Brick building,Partially furnished,7,No,Yes,No,Yes,No,Yes,No,,70,358,92,146,47,75,219,182,368,154,01. 06. 2022,,Standard materials and solutions,Central heating,Top floor,,,,,,
470822,"CZK 8,000",50.0120743,14.4201057,"Mazancova, Prague - Modřany",1 bedroom with open-plan kitchen,Excellent,45 m²,"CZK 4,500","CZK 12,500",,Cooperative,Prefab concrete building,Furnished,5,No,No,No,No,Yes,Yes,No,C,250,"1,074",196,976,"1,020","1,001",325,170,"1,096",294,15. 04. 2022,30 to 50 years years,Premium materials and solutions,District heating,Middle floor,,Exterior,,,,
604342,"CZK 9,000",50.1431534,14.5786456,"Mladoboleslavská, Prague - Vinoř",Studio,Good,26 m²,"CZK 2,500","CZK 11,000",,Personal,Brick building,Partially furnished,1,No,No,No,No,No,No,No,C,48,143,293,20,276,529,277,348,339,,01. 05. 2022,,,Central heating,,,,,,,
166213,"CZK 25,000",50.0808055,14.4197518,"Spálená, Prague - Nové Město",2 bedroom,Excellent,72 m²,"CZK 3,000","CZK 28,000",,Personal,Brick building,Furnished,3,No,No,No,No,No,No,No,C,43,650,75,105,60,114,171,530,170,544,01. 04. 2022,1 to 10 years years,Premium materials and solutions,Gas boiler,,,Overall,116 m²,,,
714384,"CZK 17,800",50.13026,14.42985,"Gdaňská, Prague - Bohnice",2 bedroom,Excellent,57 m²,"CZK 3,000","CZK 36,000",,Personal,Prefab concrete building,Partially furnished,8,No,No,No,Yes,No,No,No,C,119,407,276,"1,226",403,552,518,285,559,117,16. 04. 2022,1 to 10 years years,Standard materials and solutions,District heating,Top floor,,Overall,,,,
698932,"CZK 24,000",50.07954,14.41736,"Opatovická, Prague - Nové Město",1 bedroom with open-plan kitchen,Excellent,88 m²,"CZK 4,000","CZK 30,000",,Personal,Brick building,Partially furnished,1,No,No,No,No,No,Yes,No,A,240,604,53,296,31,392,129,248,272,533,01. 02. 2022,,,Electric boiler,Middle floor,,Overall,,,,
456763,"CZK 19,000",50.0786,14.4237301,"Navrátilova, Prague - Nové Město",1 bedroom with open-plan kitchen,,42 m²,"CZK 6,000","CZK 40,000",,Personal,Brick building,Unfurnished,2,No,No,No,No,No,No,No,,181,650,164,189,30,299,194,515,511,452,01. 02. 2022,,,,,,,,,,
27966,"CZK 12,000",50.0757964,14.4035156,"Štefánikova, Prague - Smíchov",1 bedroom,,30 m²,"CZK 1,000","CZK 13,000",,Personal,Brick building,Partially furnished,4,No,No,No,No,No,No,No,G,28,239,70,78,57,33,265,"1,013",833,438,01. 05. 2022,,,Other,Top floor,,,,,,
714184,"CZK 12,500",50.03736,14.41106,"Ke Krči, Prague - Braník",2 bedroom,Good,54 m²,"CZK 4,200","CZK 20,000",,Personal,Brick building,Partially furnished,2,No,No,Yes,No,No,No,No,G,172,296,182,203,440,202,413,"1,308",321,,15. 04. 2022,,,,,,,,,,
503703,"CZK 14,000",50.0716385,14.4535707,"Estonská, Prague - Vršovice",1 bedroom,Excellent,34 m²,"CZK 2,006","CZK 18,000",,Personal,Brick building,Unfurnished,5,No,No,No,No,No,No,No,,196,708,196,352,163,483,119,252,413,204,,1 to 10 years years,Standard materials and solutions,Gas boiler,Middle floor,,Interior,,,,
714142,"CZK 16,500",50.04296,14.54984,"Padovská, Prague - Horní Měcholupy",1 bedroom with open-plan kitchen,Excellent,54 m²,"CZK 3,750","CZK 33,000",,Personal,Brick building,Partially furnished,3,Yes,No,Yes,No,Yes,Yes,Yes,B,395,616,474,921,847,839,531,610,652,294,01. 07. 2022,,,,,,,,,,
540339,"CZK 13,000",50.0743287,14.3177437,"Čistovická, Prague - Řepy",1 bedroom with open-plan kitchen,,44 m²,"CZK 1,000","CZK 26,000",,Personal,Brick building,Unfurnished,1,No,No,No,No,No,No,No,G,95,407,245,"1,357","1,182",257,370,276,,,15. 04. 2022,,,,,,,,,,
451726,"CZK 20,000",50.0834475,14.3447623,"Na Klášterním, Prague - Břevnov",3 bedroom,Excellent,71 m²,"CZK 5,000","CZK 25,000",,Personal,Prefab concrete building,Furnished,1,No,No,No,No,No,No,No,,234,860,251,622,344,640,339,147,523,262,01. 06. 2022,,Premium materials and solutions,District heating,Raised ground floor,,Overall,,,,
536252,"CZK 13,000",50.0700662,14.4478064,"Rybalkova, Prague - Vršovice",Studio,,27 m²,"CZK 2,000","CZK 30,000",,Personal,Brick building,Furnished,2,No,No,Yes,No,No,No,No,,192,717,187,403,95,406,309,503,368,249,19. 04. 2022,,Standard materials and solutions,,Middle floor,,Interior,,,,
491989,"CZK 19,500",50.0852863,14.4414487,"Seifertova, Prague - Žižkov",2 bedroom,Excellent,60 m²,"CZK 3,800","CZK 30,000",,Personal,Brick building,Furnished,5,No,No,No,No,No,Yes,No,,218,542,89,201,47,541,464,291,642,468,01. 05. 2022,,Standard materials and solutions,Other,Middle floor,,Overall,,,,
713758,"CZK 18,500",50.10398,14.48591,"Českomoravská, Prague - Libeň",2 bedroom with open-plan kitchen,Excellent,56 m²,"CZK 2,600","CZK 25,000",,Personal,Brick building,Partially furnished,4,No,No,No,No,No,Yes,No,D,159,337,213,255,60,386,332,819,438,326,01. 05. 2022,,,,Middle floor,,,,,,
600532,"CZK 65,000",50.075681,14.408523,"Janáčkovo Nábřeží, Prague - Smíchov",5 bedroom,Excellent,165 m²,"CZK 10,000","CZK 65,000",,Personal,Brick building,Partially furnished,6,No,Yes,No,No,No,Yes,No,G,279,223,344,342,68,418,193,839,"1,059",309,11. 04. 2022,1 to 10 years years,Premium materials and solutions,Central heating,Top floor,,,,,,
603998,"CZK 18,000",50.02628,14.530734,"Loosova, Prague - Háje",1 bedroom with open-plan kitchen,New build,53 m²,"CZK 4,500","CZK 30,000",,Personal,Brick building,,3,Yes,Yes,No,No,No,Yes,Yes,A,97,973,382,630,464,704,311,473,764,410,01. 05. 2022,,,,,,,,,,
714473,"CZK 12,500",50.1271,14.37922,"Sídlištní, Prague - Lysolaje",Studio,Excellent,37 m²,"CZK 2,500","CZK 25,000",,Personal,Low-energy building,Furnished,2,No,No,No,No,No,Yes,No,G,,,,,,,,,,,01. 05. 2022,,,,,,,,,,
476526,"CZK 11,000",50.0901272,14.4736059,"Biskupcova, Prague - Žižkov",Studio,,32 m²,"CZK 5,300","CZK 30,000",,Personal,Brick building,Furnished,1,No,No,Yes,No,No,No,No,,,,,,,,,,,,,,,,,,,,,,
714472,"CZK 15,000",50.01325,14.42609,"Daškova, Prague - Modřany",1 bedroom,Excellent,41 m²,"CZK 3,000","CZK 30,000",,Personal,Prefab concrete building,Partially furnished,7,No,No,No,No,No,Yes,No,C,,,,,,,,,,,01. 05. 2022,1 to 10 years years,Standard materials and solutions,District heating,Top floor,,Exterior,,,,
485180,"CZK 25,000",50.077309,14.4556257,"Kolínská, Prague - Vinohrady",2 bedroom with open-plan kitchen,Excellent,74 m²,"CZK 4,500","CZK 25,000",,Personal,Brick building,Partially furnished,4,Yes,No,Yes,No,No,No,No,,130,313,49,92,22,320,291,607,996,394,16. 05. 2022,,,,,,,,,,
714471,"CZK 38,900",50.09292,14.45004,"Křižíkova, Prague - Karlín",Studio,Excellent,49 m²,,"CZK 38,900",,Personal,Brick building,Furnished,2,Yes,No,No,No,No,Yes,No,C,,,,,,,,,,,02. 05. 2022,,,,,,,,,,
714470,"CZK 28,900",50.07035,14.45073,"Košická, Prague - Vršovice",1 bedroom with open-plan kitchen,Excellent,43 m²,"CZK 2,900","CZK 28,900",,Personal,Brick building,Furnished,4,No,No,No,No,No,Yes,No,E,,,,,,,,,,,22. 04. 2022,,,Gas boiler,,,,,,,
714044,"CZK 15,000",50.06881,14.43794,"Perucká, Prague - Vinohrady",Studio,New build,24 m²,"CZK 3,598","CZK 50,000",,Personal,Prefab concrete building,Furnished,1,No,No,Yes,No,No,No,No,C,533,652,431,809,459,782,519,441,675,740,29. 04. 2022,,,,,,,,,,
628651,"CZK 15,000",50.050077,14.483572,"Střimelická, Prague - Záběhlice",3 bedroom,Excellent,68 m²,"CZK 4,500","CZK 19,500",,Personal,Brick building,Unfurnished,4,Yes,No,No,No,No,Yes,No,G,79,605,143,546,225,"1,422",392,197,841,148,01. 05. 2022,,,District heating,Middle floor,,,,,,
593860,"CZK 8,000",50.029714,14.529635,"Bajkonurská, Prague - Háje",Studio,Good,28 m²,"CZK 3,500","CZK 10,000",,Personal,Prefab concrete building,Partially furnished,4,No,No,Yes,No,No,Yes,No,G,109,534,142,184,203,265,461,310,325,297,18. 04. 2022,,,District heating,Middle floor,,,,,,
714037,"CZK 19,850",50.04714,14.42878,Prague - Podolí,1 bedroom with open-plan kitchen,Excellent,44 m²,"CZK 2,400","CZK 30,000",,Personal,Brick building,Partially furnished,3,No,No,No,No,No,No,No,D,283,"1,079",242,722,92,776,298,402,822,277,18. 04. 2022,,,,,,,,,,
711703,"CZK 14,900",50.10694,14.44521,"U Staré plynárny, Prague - Holešovice",1 bedroom with open-plan kitchen,Excellent,47 m²,CZK 650,"CZK 30,000",,Cooperative,Brick building,Partially furnished,1,No,No,Yes,No,No,Yes,No,C,279,729,370,742,354,265,460,"1,085",380,388,18. 04. 2022,,,,,,,,,,
714459,"CZK 13,000",50.07165,14.45777,"Bulharská, Prague - Vršovice",Studio,Excellent,30 m²,"CZK 2,228","CZK 25,000",,Personal,Brick building,Furnished,1,No,No,No,No,No,No,No,G,,,,,,,,,,,01. 05. 2022,,,,,,,,,,
661478,"CZK 21,000",50.1393591,14.4272136,Prague - Čimice,1 bedroom with open-plan kitchen,Excellent,62 m²,"CZK 4,000","CZK 42,000",,Personal,Brick building,Furnished,4,Yes,No,Yes,No,Yes,Yes,Yes,C,350,407,294,327,389,775,525,"1,468",325,,06. 06. 2022,1 to 10 years years,Standard materials and solutions,Central heating,Middle floor,,,,,,
714457,"CZK 25,000",50.08828,14.45798,"Koněvova, Prague - Žižkov",1 bedroom with open-plan kitchen,New build,61 m²,"CZK 3,900","CZK 50,000",,Personal,Other,Furnished,2,No,Yes,Yes,No,Yes,Yes,Yes,G,,,,,,,,,,,01. 05. 2022,1 to 10 years years,Premium materials and solutions,Central heating,Middle floor,Yes,,54 m²,,,
349514,"CZK 14,900",50.1367432,14.508601,"Šumperská, Prague - Letňany",2 bedroom,Excellent,57 m²,"CZK 4,800",,,Personal,Brick building,Partially furnished,3,Yes,No,Yes,No,No,Yes,No,C,140,603,311,524,302,126,315,709,403,308,23. 04. 2022,,,District heating,Middle floor,,,,,,
714444,"CZK 10,900",50.07212,14.45724,"Mexická, Prague - Vršovice",Small studio,Good,27 m²,CZK 650,"CZK 10,900",,Personal,Brick building,Unfurnished,4,No,No,No,No,No,No,No,G,155,665,114,441,0,439,253,383,677,378,23. 04. 2022,,,,,,,,,,
704127,"CZK 12,000",50.05509,14.42088,"Pravá, Prague - Podolí",Studio,Excellent,25 m²,"CZK 3,000","CZK 22,000",,Personal,Brick building,Furnished,1,No,No,No,No,No,No,No,G,257,556,290,355,329,553,325,907,208,171,01. 02. 2022,,,,,,,,,,
457605,"CZK 18,000",50.0450286,14.4444703,"Herálecká III, Prague - Krč",2 bedroom,Good,52 m²,"CZK 3,000","CZK 36,000",,Personal,Prefab concrete building,Furnished,3,No,No,Yes,No,No,No,No,,272,447,226,378,222,312,296,343,756,328,15. 04. 2022,,Standard materials and solutions,District heating,Middle floor,,Overall,,,,
713960,"CZK 21,000",50.0519,14.43436,"Pujmanové, Prague - Nusle",1 bedroom with open-plan kitchen,Excellent,69 m²,"CZK 4,000","CZK 30,000",,Personal,Prefab concrete building,Furnished,3,No,No,No,No,No,Yes,No,G,337,842,397,240,391,122,102,158,420,208,01. 05. 2022,,,,,,,,,,
713957,"CZK 13,500",50.05568,14.44744,"Na Výsledku I, Prague - Nusle",1 bedroom with open-plan kitchen,Excellent,45 m²,"CZK 3,450","CZK 20,000",,Personal,Brick building,Partially furnished,2,No,No,Yes,No,No,No,No,G,487,830,219,518,526,"1,087",389,229,878,357,18. 04. 2022,,,,,,,,,,
