Listing ID,Price,Latitude,Longitude,District,Layout,Condition,Floor Space,Fees,Refundable security deposit,Administration fee,Ownership Type,Building Type,Furnishing and Fittings,Floor,Balcony,Terrace,Cellar,Loggia,Parking,Lift,Garage,PENB,Public transport stop,Post office,Shop,Bank,Restaurant,Pharmacy,School,Kindergarten,Sports field,Playground,Available from,Heating,Age,Design,Total number of floors,Renovation,New building,Front garden,Developer name,Project name,Kód jednotky,Investment Advisor
709620,"CZK 11,990",50.11624833333,14.46934333333,"Na stráži, Prague - Libeň",1 bedroom with open-plan kitchen,Good,49 m²,"CZK 1,339","CZK 13,327","CZK 13,327

                                
                                
                
i",Personal,Brick building,Unfurnished,2,No,No,No,No,No,No,No,E,108,956,19,"1,404",80,248,375,"1,113","1,094",443,,,,,,,,,,,,
670756,"CZK 13,500",50.09687,14.46518,"Molákova, Prague - Karlín",Studio,Excellent,28 m²,"CZK 2,500","CZK 20,000",,Personal,Prefab concrete building,Furnished,1,No,Yes,No,No,No,No,No,G,116,"1,185",101,"1,040",234,780,434,694,909,141,07. 05. 2022,,,,,,,,,,,
384014,"CZK 14,500",50.0624402,14.4490808,"ulice Kloboučnická, Prague - Nusle",1 bedroom with open-plan kitchen,,45 m²,"CZK 2,600","CZK 20,000",,Personal,Brick building,Furnished,5,No,No,Yes,No,No,Yes,No,,250,901,344,544,248,651,572,405,884,462,01. 06. 2022,Gas boiler,,,,,,,,,,
683613,"CZK 16,000",50.01222,14.63183,"K Říčanům, Prague - Kolovraty",1 bedroom with open-plan kitchen,Excellent,52 m²,"CZK 1,500","CZK 32,000",,Personal,Brick building,Furnished,3,Yes,No,Yes,No,Yes,Yes,No,C,63,330,700,634,801,672,395,"1,026",424,,01. 06. 2022,,1 to 10 years years,Standard materials and solutions,,,,,,,,
361523,"CZK 12,000",50.1390794,14.5127743,"Stará náves, Prague - Letňany",Studio,Excellent,35 m²,"CZK 3,500","CZK 16,000",,Cooperative,Brick building,Furnished,2,Yes,No,No,No,No,No,No,,404,397,572,851,300,348,458,750,708,159,01. 06. 2022,,10 to 30 years years,Standard materials and solutions,Middle floor,,,,,,,
717486,"CZK 7,500",50.09231,14.49379,"Koněvova, Prague - Žižkov",Small studio,Good,20 m²,"CZK 1,500","CZK 15,000",,Personal,Brick building,Partially furnished,1,No,No,No,No,No,No,No,C,168,216,120,525,269,238,372,408,636,167,01. 06. 2022,District heating,10 to 30 years years,Standard materials and solutions,Raised ground floor,Bathroom unit,,,,,,
717482,"CZK 16,500",50.0605,14.43398,"Žateckých, Prague - Nusle",2 bedroom with open-plan kitchen,Excellent,74 m²,"CZK 2,400",,,Personal,Brick building,Unfurnished,2,Yes,No,No,No,No,No,No,G,258,901,55,529,124,477,273,592,539,427,09. 05. 2022,,,,,,,,,,,
717479,"CZK 20,500",50.04779,14.4379,"Bartákova, Prague - Krč",2 bedroom with open-plan kitchen,Excellent,55 m²,"CZK 6,500",,,Personal,Prefab concrete building,Unfurnished,3,No,No,Yes,Yes,No,Yes,No,C,252,415,234,487,210,490,369,510,242,135,15. 06. 2022,,,,,,,,,,,
448701,"CZK 16,000",50.0769189,14.4655804,"Slezská, Prague - Vinohrady",1 bedroom with open-plan kitchen,Excellent,50 m²,"CZK 3,500","CZK 32,000",,Personal,Brick building,Unfurnished,5,No,No,No,No,No,Yes,No,,146,326,187,433,176,400,100,720,144,121,23. 05. 2022,Gas boiler,,,,Interior,,,,,,
576447,"CZK 15,000",50.0582331,14.4521541,"Magistrů, Prague - Michle",Studio,New build,40 m²,"CZK 3,000","CZK 30,000",,Personal,Brick building,Furnished,1,No,No,No,No,Yes,Yes,No,B,260,631,391,300,42,983,184,518,385,394,01. 04. 2022,Central heating,1 to 10 years years,Standard materials and solutions,,Exterior,Yes,,,,,
545754,"CZK 16,500",50.0833811,14.4649759,"Olšanská, Prague - Žižkov",Studio,New build,42 m²,"CZK 2,500","CZK 30,000",,Personal,Low-energy building,Partially furnished,1,No,No,No,No,Yes,Yes,No,A,69,338,462,526,396,322,466,595,399,460,01. 06. 2022,District heating,1 to 10 years years,Premium materials and solutions,Middle floor,,Yes,,,,,
647743,"CZK 24,000",50.0814214,14.4299039,"Opletalova, Prague - Nové Město",1 bedroom with open-plan kitchen,Excellent,52 m²,"CZK 3,900",,,Personal,Brick building,,6,No,Yes,No,No,Yes,Yes,No,G,322,273,32,180,43,69,245,976,163,571,31. 05. 2022,Central heating,,Premium materials and solutions,Top floor,Overall,,,,,,
717472,"CZK 78,000",50.0895991,14.4216596,"V Kolkovně, Prague - Staré Město",3 bedroom,,125 m²,"CZK 26,000",,,,,Furnished,6,Yes,No,No,No,No,Yes,No,,94,433,53,88,14,105,82,217,292,309,01. 06. 2022,,,,,,,,,,,
713305,"CZK 11,000",50.00967,14.46089,"Libušská, Prague - Libuš",Studio,New build,36 m²,"CZK 4,500","CZK 30,000",,Cooperative,Brick building,Furnished,1,No,No,Yes,No,Yes,No,No,A,69,141,357,222,334,876,"1,339",973,,,01. 06. 2022,Gas boiler,,,Middle floor,,,,,,,
717443,"CZK 13,200",50.06958,14.44909,"Na Královce, Prague - Vršovice",1 bedroom with open-plan kitchen,Excellent,40 m²,"CZK 1,500","CZK 26,400",,Personal,Brick building,Partially furnished,4,No,No,No,No,No,No,No,G,225,748,294,294,202,350,277,446,472,214,01. 08. 2022,,,,,,,,,,,
708968,"CZK 30,000",50.01264,14.38504,"Pod Akáty, Prague - Velká Chuchle",2 bedroom with open-plan kitchen,New build,83 m²,"CZK 3,000","CZK 33,000",,Personal,Brick building,Partially furnished,1,Yes,No,No,No,Yes,No,No,G,251,321,336,323,663,,,,,,02. 03. 2022,,,,,,,,,,,
709594,"CZK 15,500",50.1250814,14.5069297,"Kytlická, Prague - Prosek",2 bedroom with open-plan kitchen,Excellent,71 m²,"CZK 5,500","CZK 21,000",,Personal,Prefab concrete building,Partially furnished,,No,No,No,No,No,No,No,G,273,794,162,"1,032",290,982,154,742,195,,01. 05. 2022,District heating,,,Ground floor,Overall,,,,,,
708966,"CZK 30,000",50.01264,14.38504,"Pod Akáty, Prague - Velká Chuchle",2 bedroom with open-plan kitchen,New build,78 m²,"CZK 3,000","CZK 33,000",,Personal,Brick building,Partially furnished,1,Yes,No,No,No,Yes,No,No,G,251,321,336,323,663,,,,,,02. 03. 2022,,,,,,,,,,,
716016,"CZK 28,000",50.08622,14.44951,"Dalimilova, Prague - Žižkov",1 bedroom with open-plan kitchen,Excellent,50 m²,"CZK 3,300","CZK 56,000",,Personal,Brick building,Furnished,3,Yes,No,Yes,No,No,Yes,No,F,250,377,223,384,63,344,89,302,89,726,01. 06. 2022,,,,,,,,,,,
695052,"CZK 21,500",50.06543,14.44301,"Ctiradova, Prague - Nusle",1 bedroom with open-plan kitchen,New build,54 m²,"CZK 3,500","CZK 53,000",,Personal,Other,Furnished,4,Yes,No,No,No,No,Yes,Yes,G,185,355,219,261,269,249,558,657,636,602,01. 06. 2022,Central heating,1 to 10 years years,Premium materials and solutions,Middle floor,,,,,,,
711233,"CZK 14,990",50.1085429,14.5254683,"Granitova, Prague - Hloubětín",Studio,New build,44 m²,"CZK 2,990",,,Personal,Low-energy building,Partially furnished,5,No,Yes,Yes,No,Yes,Yes,No,A,280,"1,320",719,"1,302","1,077","1,144","1,212","1,015","1,196",524,21. 03. 2022,District heating,1 to 10 years years,Premium materials and solutions,,,Yes,,,,,
715714,"CZK 16,200",50.06133,14.39786,"Radlická, Prague - Smíchov",2 bedroom,Excellent,47 m²,CZK 650,"CZK 16,200",,Personal,Brick building,Partially furnished,3,Yes,No,No,No,No,No,No,G,32,953,43,803,4,498,416,516,623,501,25. 04. 2022,,,,,,,,,,,
689623,"CZK 17,000",50.06851,14.43809,"Perucká, Prague - Vinohrady",Studio,New build,27 m²,"CZK 2,900","CZK 20,000",,Personal,Brick building,Partially furnished,5,No,Yes,Yes,No,No,Yes,No,C,543,662,441,769,469,743,529,451,635,750,08. 05. 2022,,,,,,Yes,,,,,
716526,"CZK 18,000",50.1261106,14.5002253,"Českolipská, Prague - Prosek",3 bedroom,Excellent,52 m²,"CZK 4,000","CZK 36,000",,Personal,Prefab concrete building,Partially furnished,4,Yes,No,No,No,No,Yes,No,G,161,460,223,490,504,604,180,138,"1,324",208,02. 05. 2022,,,,,,,,,,,
534143,"CZK 14,000",50.0699577,14.4427519,"U Havlíčkových sadů, Prague - Vinohrady",Small studio,,30 m²,CZK 700,"CZK 20,000",,Personal,Brick building,Partially furnished,4,No,No,No,No,No,Yes,No,,465,693,187,816,193,782,472,142,570,197,15. 05. 2022,Gas boiler,,,Middle floor,,,,,,,
348494,"CZK 16,500",50.019622,14.4673797,"Muškova, Prague - Kunratice",1 bedroom with open-plan kitchen,,60 m²,"CZK 5,000","CZK 30,000",,Personal,Brick building,Partially furnished,1,No,Yes,No,No,No,Yes,Yes,,418,"1,389","1,267",212,569,561,"1,500",166,,,01. 07. 2022,District heating,10 to 30 years years,,Raised ground floor,,,,,,,
717459,"CZK 13,500",50.13832,14.4328,"Ke Hřišti, Prague - Čimice",Studio,Excellent,36 m²,"CZK 3,000","CZK 16,500",,Personal,Brick building,Partially furnished,1,No,Yes,No,No,No,No,No,G,287,584,320,320,602,387,405,"1,181",417,,09. 05. 2022,,,,,,,,,,,
662698,"CZK 28,000",50.11535,14.56755,"Sicherova, Prague - Kyje",3 bedroom with open-plan kitchen,New build,85 m²,"CZK 7,000","CZK 56,000",,Personal,Prefab concrete building,Unfurnished,3,Yes,No,No,No,No,Yes,Yes,G,471,"1,112",886,"1,479","1,481","1,346",899,,,,01. 07. 2022,,,,,,Yes,,,,,
710906,"CZK 26,000",50.012127,14.5157941,"K Rozkoši, Prague - Šeberov",3 bedroom with open-plan kitchen,Excellent,120 m²,"CZK 6,000","CZK 30,000",,Personal,Brick building,Unfurnished,3,Yes,No,No,No,Yes,No,Yes,C,145,384,222,442,987,190,,,,,01. 05. 2022,Gas boiler,10 to 30 years years,Standard materials and solutions,Attic,,,,,,,
716522,"CZK 32,000",50.0613873,14.3654246,"Na Pomezí, Prague - Košíře",3 bedroom with open-plan kitchen,Excellent,110 m²,"CZK 3,500","CZK 64,000",,Personal,Low-energy building,Partially furnished,2,Yes,No,No,Yes,No,Yes,No,G,153,946,939,"1,409","1,031","1,033",431,460,961,292,01. 07. 2022,,,,,,,,,,,
644909,"CZK 15,000",50.115454,14.625849,"Ve Žlíbku, Prague - Horní Počernice",1 bedroom with open-plan kitchen,Excellent,47 m²,"CZK 3,500","CZK 10,000",,Personal,Brick building,Partially furnished,2,No,No,No,No,Yes,No,No,A,29,"1,247",490,566,127,845,295,444,,,01. 02. 2021,Gas boiler,1 to 10 years years,Standard materials and solutions,Top floor,,,,,,,
668395,"CZK 13,000",50.0626,14.40497,"Křížová, Prague - Smíchov",1 bedroom with open-plan kitchen,Excellent,37 m²,CZK 800,"CZK 26,000",,Personal,Brick building,Unfurnished,1,No,No,No,No,No,No,No,G,67,399,73,942,75,159,733,705,740,628,01. 10. 2021,Other,,,,,,,,,,
717436,"CZK 18,375",50.0830181,14.4654208,"Olšanská e, Prague - Žižkov",Studio,,34 m²,"CZK 6,125",,,,,Furnished,3,Yes,No,No,No,No,Yes,Yes,,99,368,492,556,426,352,496,585,429,490,01. 06. 2022,,,,,,,,,,,
715186,"CZK 19,000",50.09337,14.48937,"K Lučinám, Prague - Žižkov",1 bedroom with open-plan kitchen,Excellent,55 m²,"CZK 2,500","CZK 30,000",,Personal,Other,Partially furnished,7,No,Yes,No,No,No,Yes,No,G,278,307,64,270,164,285,185,208,320,139,01. 05. 2022,,,,,,,,,,,
717404,"CZK 18,000",50.10161,14.42644,"Kamenická, Prague - Bubeneč",1 bedroom with open-plan kitchen,New build,53 m²,"CZK 2,600","CZK 18,000",,Personal,Brick building,Partially furnished,5,No,No,No,No,No,No,No,G,281,406,31,220,103,147,212,75,458,,06. 05. 2022,,,,,,,,,,,
200313,"CZK 17,000",50.0963583,14.3570728,"Africká, Prague - Vokovice",Studio,,41 m²,"CZK 3,000","CZK 34,000",,Personal,Brick building,Furnished,,Yes,No,No,No,No,No,No,,334,366,231,255,280,229,299,516,"1,057",106,,District heating,1 to 10 years years,Standard materials and solutions,Ground floor,Overall,,10 m²,,,,
501746,"CZK 10,000",50.0225003,14.4280058,"Vavřenova, Prague - Braník",Studio,Excellent,25 m²,"CZK 1,200","CZK 20,000",,Personal,Prefab concrete building,Furnished,9,No,No,Yes,No,Yes,Yes,No,,67,590,253,583,374,360,57,466,771,140,01. 06. 2022,District heating,1 to 10 years years,Standard materials and solutions,Middle floor,Overall,,,,,,
445260,"CZK 17,500",50.0742417,14.3977477,"Kobrova, Prague - Smíchov",Studio,New build,41 m²,"CZK 4,300","CZK 35,000",,Personal,Brick building,Furnished,4,Yes,No,No,No,Yes,Yes,No,,220,670,323,521,223,378,268,"1,212","1,039",136,01. 09. 2022,Central heating,1 to 10 years years,Premium materials and solutions,Middle floor,,,,,,,
273191,"CZK 22,000",50.0534654,14.3358042,"Nárožní, Prague - Stodůlky",1 bedroom with open-plan kitchen,,66 m²,"CZK 5,000","CZK 27,000",,Personal,Brick building,Furnished,2,Yes,Yes,Yes,Yes,Yes,Yes,Yes,,154,704,278,669,657,337,636,481,645,448,01. 07. 2022,,1 to 10 years years,Premium materials and solutions,,,Yes,,,,,
717425,"CZK 14,950",50.10608,14.4905,"Drahobejlova, Prague - Libeň",Studio,Excellent,30 m²,CZK 950,"CZK 20,000",,Personal,Brick building,Partially furnished,4,No,No,No,No,No,Yes,No,C,184,143,6,326,135,425,130,356,84,98,06. 05. 2022,,,,,,,,,,,
672892,"CZK 33,000",50.07274,14.43888,"Záhřebská, Prague - Vinohrady",2 bedroom,Excellent,72 m²,"CZK 1,700","CZK 33,000",,Personal,Brick building,Furnished,5,No,No,No,No,No,Yes,No,,264,319,157,536,54,438,208,365,791,604,17. 05. 2022,,,,,,,,,,,
651246,"CZK 16,000",50.131103,14.465863,"Bojasova, Prague - Kobylisy",2 bedroom,Excellent,65 m²,"CZK 2,900","CZK 25,000",,Personal,Prefab concrete building,Unfurnished,4,No,No,No,Yes,No,Yes,No,D,332,564,168,489,540,464,274,123,"1,273",231,01. 05. 2022,,,,,,,,,,,
603238,"CZK 17,000",50.045824,14.414752,"Podolská, Prague - Podolí",2 bedroom with open-plan kitchen,Excellent,64 m²,CZK 610,"CZK 20,000",,Other,Brick building,Partially furnished,1,No,No,No,No,No,No,No,G,112,"1,117",101,"1,454",178,"1,286","1,186","1,146",620,525,08. 05. 2022,Gas boiler,,,Raised ground floor,Bathroom unit,,,,,,
644353,"CZK 13,500",50.114394,14.475412,"Zenklova, Prague - Libeň",1 bedroom with open-plan kitchen,Excellent,44 m²,"CZK 1,500","CZK 13,500",,Personal,Brick building,Partially furnished,2,Yes,No,No,No,No,No,No,B,165,"1,452",368,"1,148",159,745,537,"1,302",868,396,01. 12. 2021,,,,,,,,,,,
476289,"CZK 25,500",50.0943979,14.4570713,"Petra Slezáka, Prague - Karlín",1 bedroom with open-plan kitchen,Excellent,51 m²,"CZK 3,000","CZK 40,000",,Personal,Brick building,Furnished,2,No,No,Yes,No,No,Yes,No,C,114,757,111,448,84,312,261,"1,147",362,284,,Electric boiler,10 to 30 years years,Premium materials and solutions,Middle floor,Overall,,,,,,
369009,"CZK 12,800",50.0539858,14.5274748,"Zemské právo, Prague - Hostivař",Studio,New build,32 m²,"CZK 1,860","CZK 12,800",,Personal,Brick building,Partially furnished,3,Yes,No,Yes,No,No,No,No,B,316,874,170,837,424,879,960,574,423,426,01. 06. 2022,,,,,,Yes,-1 m²,,,,
507636,"CZK 13,000",50.126902049845,14.471852389549,"Střelničná, Prague - Kobylisy",1 bedroom,,35 m²,"CZK 4,000","CZK 26,000",,Cooperative,Brick building,Partially furnished,2,No,No,No,No,No,No,No,G,85,224,154,277,22,197,539,591,"1,029",293,,,,,,,,,,,,
166213,"CZK 24,999",50.0808055,14.4197518,"Spálená, Prague - Nové Město",2 bedroom,Excellent,72 m²,"CZK 3,000","CZK 27,999",,Personal,Brick building,Furnished,3,No,No,No,No,No,No,No,C,43,650,75,105,60,114,171,530,170,544,01. 05. 2022,Gas boiler,1 to 10 years years,Premium materials and solutions,,Overall,,116 m²,,,,
617044,"CZK 21,500",50.076949,14.4649,"Písecká, Prague - Vinohrady",1 bedroom with open-plan kitchen,Excellent,53 m²,"CZK 4,000","CZK 25,500",,Personal,Brick building,Furnished,1,No,No,No,No,No,No,No,F,197,200,66,307,120,375,159,672,203,172,01. 06. 2022,Gas boiler,30 to 50 years years,Premium materials and solutions,Raised ground floor,Interior,,,,,,
602233,"CZK 30,000",50.078073,14.423947,"Řeznická, Prague - Nové Město",3 bedroom,Good,85 m²,"CZK 4,000","CZK 34,000",,Personal,Brick building,Furnished,1,Yes,No,No,No,No,Yes,No,F,238,629,89,270,94,333,234,419,415,356,01. 06. 2022,Central heating,over 50 years years,Standard materials and solutions,Middle floor,Bathroom unit,,,,,,
652714,"CZK 24,000",50.140401,14.506608,"Místecká, Prague - Letňany",2 bedroom with open-plan kitchen,Excellent,69 m²,"CZK 6,000","CZK 30,000",,Personal,Prefab concrete building,Furnished,9,No,No,Yes,Yes,Yes,Yes,No,G,213,841,151,783,337,104,369,416,515,226,01. 06. 2022,,,,,,,,,,,
715950,"CZK 17,000",50.08309,14.56256,"U Hostavického potoka, Prague - Hostavice",1 bedroom with open-plan kitchen,New build,57 m²,"CZK 5,000","CZK 34,000",,Personal,Brick building,Furnished,1,Yes,No,No,No,Yes,Yes,Yes,G,586,521,791,107,,,,,,,11. 06. 2022,,,,,,,,,,,
680915,"CZK 29,000",50.09174,14.44246,"Prvního pluku, Prague - Karlín",1 bedroom with open-plan kitchen,Excellent,60 m²,"CZK 3,500","CZK 32,500",,Personal,Brick building,Furnished,1,No,Yes,Yes,No,Yes,No,No,G,208,408,151,207,58,181,363,930,293,284,01. 06. 2022,,,,,,,,,,,
602617,"CZK 22,000",50.084122,14.431357,"U Půjčovny, Prague - Nové Město",1 bedroom with open-plan kitchen,Good,42 m²,"CZK 3,500","CZK 25,500",,Personal,Brick building,Furnished,2,Yes,No,No,No,No,No,No,G,205,267,329,176,129,314,42,854,288,369,01. 06. 2022,Gas boiler,over 50 years years,Standard materials and solutions,Middle floor,,,,,,,
627213,"CZK 13,500",50.055487,14.431,"U Děkanky, Prague - Nusle",1 bedroom with open-plan kitchen,Excellent,38 m²,"CZK 3,500","CZK 10,000",,Cooperative,Prefab concrete building,Furnished,2,Yes,No,No,No,No,Yes,No,G,217,"1,057",202,398,182,446,546,272,52,83,01. 10. 2020,District heating,,,,Overall,,,,,,
573663,"CZK 19,900",50.0899503,14.3420175,"Na Okraji, Prague - Veleslavín",1 bedroom with open-plan kitchen,New build,65 m²,"CZK 3,900","CZK 30,000",,Personal,Brick building,Partially furnished,4,Yes,No,Yes,No,No,Yes,No,C,188,582,118,232,196,272,254,118,913,245,11. 04. 2022,Central heating,1 to 10 years years,Premium materials and solutions,Top floor,,Yes,,,,,
602655,"CZK 20,900",50.089699,14.341763,Prague - Veleslavín,3 bedroom,Excellent,80 m²,"CZK 4,900","CZK 35,000",,Cooperative,Brick building,Partially furnished,1,Yes,No,No,No,No,Yes,No,B,215,609,145,234,199,274,281,145,937,263,01. 04. 2022,District heating,,,,Exterior,,,,,,
717046,"CZK 14,000",50.12839,14.48401,"Březenská, Prague - Libeň",Studio,Excellent,68 m²,"CZK 4,000","CZK 25,000",,Personal,Prefab concrete building,Furnished,1,No,No,No,No,Yes,Yes,Yes,B,176,"1,193",270,"1,236",481,263,217,717,897,214,04. 05. 2022,,,,,,,,,,,
717377,"CZK 41,250",50.0912734,14.4238585,"Haštalské náměstí, Prague - Staré Město",2 bedroom,,50 m²,"CZK 13,750",,,,,Furnished,-1,No,Yes,No,No,No,No,No,,55,370,51,238,66,242,352,396,158,122,26. 05. 2022,,,,,,,,,,,
717376,"CZK 37,500",50.0822245,14.4146349,"Krocínova, Prague - Staré Město",2 bedroom with open-plan kitchen,,102 m²,"CZK 12,500",,,,,Furnished,2,Yes,Yes,No,No,No,Yes,No,,258,962,181,204,1,145,392,348,304,385,17. 06. 2022,,,,,,,,,,,
717375,"CZK 51,000",50.0903205,14.4200069,"Elišky Krásnohorské, Prague - Josefov",2 bedroom,,110 m²,"CZK 17,000",,,,,Furnished,5,No,No,No,No,No,Yes,No,,110,373,218,256,23,273,141,384,214,476,25. 06. 2022,,,,,,,,,,,
717374,"CZK 25,110",50.0719498,14.4319499,"Koubkova, Prague - Nové Město",1 bedroom,,39 m²,"CZK 8,370",,,,,Furnished,2,No,No,No,No,No,Yes,No,,203,332,57,333,25,268,328,262,694,682,01. 06. 2022,,,,,,,,,,,
717373,"CZK 39,000",50.0783085,14.4591283,"Sudoměřská, Prague - Žižkov",2 bedroom,,55 m²,"CZK 13,000",,,,,Furnished,1,No,No,No,No,No,Yes,No,,162,361,105,219,131,171,646,471,736,206,04. 07. 2022,,,,,,,,,,,
717372,"CZK 41,438",50.077834,14.422878,"Příčná, Prague - Nové Město",Studio,,26 m²,"CZK 13,812",,,,,Furnished,2,No,No,No,No,No,No,No,,224,529,123,232,36,222,310,471,467,408,20. 06. 2022,,,,,,,,,,,
717371,"CZK 21,000",50.1234603,14.456174,"Klapkova, Prague - Kobylisy",1 bedroom with open-plan kitchen,,56 m²,"CZK 7,000",,,,,Furnished,3,No,No,No,No,No,No,No,,69,650,120,98,122,196,92,456,836,528,01. 07. 2022,,,,,,,,,,,
717370,"CZK 16,125",50.1138866,14.4798456,"U Pekařky, Prague - Libeň",Studio,,30 m²,"CZK 5,375",,,,,Furnished,2,No,No,No,No,No,No,No,,185,178,"1,337",331,979,"1,134","1,351",938,317,,29. 06. 2022,,,,,,,,,,,
717369,"CZK 14,579",50.086414,14.4459075,"Orebitská, Prague - Žižkov",Studio,,15 m²,"CZK 4,859",,,,,Furnished,5,No,No,No,No,No,Yes,No,,85,599,358,554,76,567,334,374,416,568,01. 07. 2022,,,,,,,,,,,
717368,"CZK 29,342",50.0925135,14.4556107,"Šaldova, Prague - Karlín",1 bedroom,,40 m²,"CZK 9,780",,,,,Furnished,2,No,Yes,No,No,No,Yes,No,,367,716,142,317,156,180,346,"1,276",231,204,09. 06. 2022,,,,,,,,,,,
717367,"CZK 18,750",50.108944,14.501028,"Freyova, Prague - Vysočany",Studio,,25 m²,"CZK 6,250",,,,,Furnished,12,No,No,No,No,No,Yes,No,,190,256,204,195,172,262,433,416,436,299,01. 07. 2022,,,,,,,,,,,
717366,"CZK 60,000",50.0757302,14.4269087,"Ječná, Prague - Nové Město",1 bedroom with open-plan kitchen,,,"CZK 20,000",,,,,Furnished,3,No,No,No,No,No,No,No,,177,647,182,40,38,122,28,102,350,194,05. 06. 2022,,,,,,,,,,,
717365,"CZK 60,000",50.0757302,14.4269087,"Ječná, Prague - Nové Město",1 bedroom with open-plan kitchen,,,"CZK 20,000",,,,,Furnished,3,No,No,No,No,No,No,No,,177,647,182,40,38,122,28,102,350,194,06. 06. 2022,,,,,,,,,,,
717364,"CZK 56,250",50.0766855,14.4294035,"Sokolská, Prague - Nové Město",1 bedroom with open-plan kitchen,,45 m²,"CZK 18,750",,,,,Furnished,4,No,No,No,No,No,No,No,,212,525,185,151,68,162,317,392,109,262,08. 05. 2022,,,,,,,,,,,
717363,"CZK 25,651",50.0837266,14.430251,"Růžová, Prague - Nové Město",1 bedroom with open-plan kitchen,,45 m²,"CZK 8,550",,,,,Furnished,2,No,No,No,No,No,No,No,,214,177,154,267,119,627,49,937,198,459,01. 07. 2022,,,,,,,,,,,
717362,"CZK 27,900",50.0471114,14.4429584,"Krchlebská, Prague - Krč",1 bedroom with open-plan kitchen,,41 m²,"CZK 9,300",,,,,Furnished,5,No,No,No,No,No,No,No,,394,499,253,432,280,389,317,725,696,412,01. 07. 2022,,,,,,,,,,,
717361,"CZK 23,195",50.0719625,14.461813,"Bulharská, Prague - Vršovice",Studio,,35 m²,"CZK 7,731",,,,,Furnished,5,No,No,No,No,No,No,No,,220,827,175,604,97,602,416,334,726,246,12. 06. 2022,,,,,,,,,,,
717360,"CZK 29,520",50.0861053,14.4085409,"Na Kampě, Prague - Malá Strana",1 bedroom with open-plan kitchen,,39 m²,"CZK 9,840",,,,,Furnished,3,No,No,No,No,No,No,No,,417,407,197,386,62,673,443,555,732,174,16. 05. 2022,,,,,,,,,,,
717359,"CZK 12,083",50.0701958,14.4617404,"Kodaňská, Prague - Vršovice",Studio,,19 m²,"CZK 4,027",,,,,Furnished,1,No,No,No,No,No,No,No,,126,727,145,409,139,544,178,223,772,427,01. 07. 2022,,,,,,,,,,,
717358,"CZK 18,975",50.1045704,14.3964833,"Nikolaje Alexejeviče Někrasova, Prague - Bubeneč",1 bedroom with open-plan kitchen,,55 m²,"CZK 6,325",,,,,Furnished,4,No,No,No,No,No,Yes,No,,127,738,134,167,33,143,316,211,416,52,01. 07. 2022,,,,,,,,,,,
717356,"CZK 36,338",50.0183023,14.5625656,"Ibišková, Prague - Křeslice",4 bedroom with open-plan kitchen,,180 m²,"CZK 12,112",,,,,Furnished,1,Yes,Yes,No,No,No,No,Yes,,695,843,921,,,,,,,,01. 07. 2022,,,,,,,,,,,
717355,"CZK 35,175",50.0747395,14.424046,"Lípová, Prague - Nové Město",1 bedroom with open-plan kitchen,,45 m²,"CZK 11,725",,,,,Furnished,5,No,No,No,No,No,No,No,,120,534,85,337,48,344,183,195,543,341,01. 06. 2022,,,,,,,,,,,
717354,"CZK 47,340",50.1025661,14.4522431,"Na Maninách, Prague - Holešovice",1 bedroom with open-plan kitchen,,69 m²,"CZK 15,780",,,,,Furnished,6,Yes,Yes,No,No,No,Yes,No,,105,350,144,146,109,151,432,394,290,329,08. 05. 2022,,,,,,,,,,,
717353,"CZK 29,664",50.0925119,14.4502616,"Křižíkova, Prague - Karlín",Studio,,51 m²,"CZK 9,888",,,,,Furnished,5,Yes,No,No,No,No,Yes,Yes,,81,251,125,181,24,205,369,"1,216",241,212,09. 06. 2022,,,,,,,,,,,
717352,"CZK 24,439",50.0735628,14.4373343,"Uruguayská, Prague - Vinohrady",Studio,,26 m²,"CZK 8,146",,,,,Furnished,1,No,No,No,No,No,Yes,No,,193,168,131,353,18,256,47,213,857,690,01. 06. 2022,,,,,,,,,,,
717351,"CZK 30,956",50.0726658,14.3919787,"Grafická, Prague - Smíchov",1 bedroom with open-plan kitchen,,46 m²,"CZK 10,318",,,,,Furnished,2,No,No,No,No,No,Yes,No,,185,"1,028",126,719,138,845,205,903,"1,057",128,01. 07. 2022,,,,,,,,,,,
717350,"CZK 34,416",50.0918972,14.4483184,"Křižíkova, Prague - Karlín",Studio,,44 m²,"CZK 11,472",,,,,Furnished,3,No,No,No,No,No,Yes,Yes,,224,159,75,308,58,360,238,"1,343",368,105,08. 05. 2022,,,,,,,,,,,
717349,"CZK 28,793",50.0918972,14.4483184,"Křižíkova, Prague - Karlín",Studio,,44 m²,"CZK 9,597",,,,,Furnished,2,No,Yes,No,No,No,Yes,Yes,,224,159,75,308,58,360,238,"1,343",368,105,08. 06. 2022,,,,,,,,,,,
717348,"CZK 30,096",50.0925119,14.4502616,"Křižíkova, Prague - Karlín",Studio,,40 m²,"CZK 10,032",,,,,Furnished,6,Yes,Yes,No,No,No,Yes,Yes,,81,251,125,181,24,205,369,"1,216",241,212,03. 06. 2022,,,,,,,,,,,
717347,"CZK 26,933",50.0928722,14.4500782,"Křižíkova a, Prague - Karlín",Studio,,50 m²,"CZK 8,977",,,,,Furnished,1,No,No,No,No,No,Yes,Yes,,123,293,167,222,66,246,411,"1,258",283,254,01. 06. 2022,,,,,,,,,,,
717346,"CZK 30,636",50.0918972,14.4483184,"Křižíkova, Prague - Karlín",1 bedroom with open-plan kitchen,,63 m²,"CZK 10,212",,,,,Furnished,2,Yes,Yes,No,No,No,Yes,Yes,,224,159,75,308,58,360,238,"1,343",368,105,04. 06. 2022,,,,,,,,,,,
717345,"CZK 42,814",50.0722637,14.3926388,"Grafická, Prague - Smíchov",1 bedroom with open-plan kitchen,,79 m²,"CZK 14,271",,,,,Furnished,6,No,No,No,No,No,No,No,,10,927,65,618,170,761,228,"1,106",933,331,08. 05. 2022,,,,,,,,,,,
717344,"CZK 54,803",50.0928722,14.4500782,"Křižíkova a, Prague - Karlín",3 bedroom with open-plan kitchen,,160 m²,"CZK 18,268",,,,,Furnished,6,No,Yes,No,No,No,Yes,Yes,,123,293,167,222,66,246,411,"1,258",283,254,01. 06. 2022,,,,,,,,,,,
717343,"CZK 30,744",50.0928722,14.4500782,"Křižíkova a, Prague - Karlín",1 bedroom,,45 m²,"CZK 10,248",,,,,Furnished,2,No,No,No,No,No,Yes,Yes,,123,293,167,222,66,246,411,"1,258",283,254,05. 06. 2022,,,,,,,,,,,
717342,"CZK 40,037",50.0928722,14.4500782,"Křižíkova a, Prague - Karlín",1 bedroom with open-plan kitchen,,66 m²,"CZK 13,345",,,,,Furnished,1,No,Yes,No,No,No,Yes,Yes,,123,293,167,222,66,246,411,"1,258",283,254,20. 05. 2022,,,,,,,,,,,
717341,"CZK 31,039",50.0928722,14.4500782,"Křižíkova a, Prague - Karlín",2 bedroom with open-plan kitchen,,95 m²,"CZK 10,346",,,,,Furnished,3,No,Yes,No,No,No,Yes,Yes,,123,293,167,222,66,246,411,"1,258",283,254,06. 06. 2022,,,,,,,,,,,
717339,"CZK 33,865",50.0925119,14.4502616,"Křižíkova, Prague - Karlín",2 bedroom,,88 m²,"CZK 11,288",,,,,Furnished,5,No,No,No,No,No,Yes,Yes,,81,251,125,181,24,205,369,"1,216",241,212,01. 06. 2022,,,,,,,,,,,
717338,"CZK 59,100",50.0882082,14.4262296,"Rybná, Prague - Staré Město",2 bedroom with open-plan kitchen,,86 m²,"CZK 19,700",,,,,Furnished,2,Yes,No,No,No,No,No,No,,281,192,58,183,11,369,315,297,289,305,29. 05. 2022,,,,,,,,,,,
717337,"CZK 20,663",50.0910052,14.4210032,"Bílkova, Prague - Staré Město",Studio,,35 m²,"CZK 6,887",,,,,Furnished,5,Yes,No,No,No,No,Yes,No,,190,595,159,287,45,281,221,427,252,401,10. 06. 2022,,,,,,,,,,,
717336,"CZK 16,733",50.1072949,14.5063022,"Za Lidovým domem, Prague - Vysočany",2 bedroom with open-plan kitchen,,58 m²,"CZK 5,577",,,,,Furnished,3,Yes,No,No,No,No,Yes,Yes,,438,726,428,526,395,685,473,7,801,441,04. 07. 2022,,,,,,,,,,,
717335,"CZK 63,000",50.0895437,14.4260543,"Rybná, Prague - Staré Město",3 bedroom,,86 m²,"CZK 21,000",,,,,Furnished,3,No,No,No,No,No,No,No,,138,70,36,61,45,257,146,128,234,214,01. 06. 2022,,,,,,,,,,,
717334,"CZK 39,015",50.0882058,14.4262315,"Rybná, Prague - Staré Město",1 bedroom with open-plan kitchen,,44 m²,"CZK 13,005",,,,,Furnished,3,No,No,No,No,No,No,No,,281,192,58,183,11,368,315,297,289,305,19. 05. 2022,,,,,,,,,,,
717333,"CZK 49,650",50.0882058,14.4262315,"Rybná, Prague - Staré Město",1 bedroom with open-plan kitchen,,53 m²,"CZK 16,550",,,,,Furnished,3,No,No,No,No,No,Yes,No,,281,192,58,183,11,368,315,297,289,305,06. 06. 2022,,,,,,,,,,,
717332,"CZK 86,625",50.0882058,14.4262315,"Rybná, Prague - Staré Město",3 bedroom with open-plan kitchen,,150 m²,"CZK 28,875",,,,,Furnished,4,No,No,No,No,No,No,No,,281,192,58,183,11,368,315,297,289,305,11. 06. 2022,,,,,,,,,,,
717330,"CZK 53,550",50.090911,14.4295366,"Soukenická, Prague - Nové Město",1 bedroom with open-plan kitchen,,50 m²,"CZK 17,850",,,,,Furnished,4,Yes,No,No,No,No,Yes,Yes,,144,325,176,152,60,230,49,259,388,439,18. 05. 2022,,,,,,,,,,,
717329,"CZK 49,650",50.0894663,14.4240032,"Masná, Prague - Staré Město",Studio,,46 m²,"CZK 16,550",,,,,Furnished,6,No,No,No,No,No,Yes,No,,62,263,122,95,13,113,64,46,150,138,19. 05. 2022,,,,,,,,,,,
717328,"CZK 46,103",50.0840648,14.4187033,"Jilská, Prague - Staré Město",1 bedroom with open-plan kitchen,,53 m²,"CZK 15,367",,,,,Furnished,3,No,No,No,No,No,Yes,No,,298,541,99,261,14,253,193,593,251,217,16. 05. 2022,,,,,,,,,,,
717326,"CZK 16,200",50.0478326,14.4843362,"Hrusická, Prague - Záběhlice",2 bedroom,,52 m²,"CZK 5,400",,,,,Furnished,1,No,No,No,No,No,Yes,No,,132,324,308,337,285,"1,437",187,359,"1,164",362,01. 07. 2022,,,,,,,,,,,
717325,"CZK 39,000",50.0739894,14.440101,"Francouzská, Prague - Vinohrady",2 bedroom,,80 m²,"CZK 13,000",,,,,Furnished,3,No,No,No,No,No,Yes,No,,149,274,60,441,20,421,59,552,690,457,29. 05. 2022,,,,,,,,,,,
717324,"CZK 46,530",50.0918754,14.4250902,"Řásnovka, Prague - Staré Město",2 bedroom,,48 m²,"CZK 15,510",,,,,Furnished,2,No,No,No,No,No,No,No,,158,249,155,246,113,320,391,409,155,114,08. 05. 2022,,,,,,,,,,,
717323,"CZK 53,510",50.0824664,14.4140344,"Divadelní, Prague - Staré Město",4 bedroom,,110 m²,"CZK 17,836",,,,,Furnished,7,No,Yes,No,No,No,Yes,No,,260,938,207,294,98,143,489,445,401,362,01. 07. 2022,,,,,,,,,,,
717322,"CZK 43,710",50.0918754,14.4250902,"Řásnovka, Prague - Staré Město",3 bedroom,,55 m²,"CZK 14,570",,,,,Furnished,2,No,No,No,No,No,No,No,,158,249,155,246,113,320,391,409,155,114,01. 07. 2022,,,,,,,,,,,
717321,"CZK 37,125",50.0739894,14.440101,"Francouzská, Prague - Vinohrady",2 bedroom,,90 m²,"CZK 12,375",,,,,Furnished,2,No,No,No,No,No,Yes,No,,149,274,60,441,20,421,59,552,690,457,05. 06. 2022,,,,,,,,,,,
717320,"CZK 27,225",50.0739894,14.440101,"Francouzská, Prague - Vinohrady",1 bedroom with open-plan kitchen,,45 m²,"CZK 9,075",,,,,Furnished,6,No,No,No,No,No,Yes,No,,149,274,60,441,20,421,59,552,690,457,01. 07. 2022,,,,,,,,,,,
717319,"CZK 32,918",50.0876118,14.4080467,"Míšeňská, Prague - Malá Strana",Studio,,35 m²,"CZK 10,972",,,,,Furnished,2,No,No,No,No,No,No,No,,249,259,109,237,65,537,295,274,806,231,01. 07. 2022,,,,,,,,,,,
717318,"CZK 39,600",50.0876118,14.4080467,"Míšeňská, Prague - Malá Strana",1 bedroom with open-plan kitchen,,46 m²,"CZK 13,200",,,,,Furnished,2,No,No,No,No,No,No,No,,249,259,109,237,65,537,295,274,806,231,28. 05. 2022,,,,,,,,,,,
717316,"CZK 39,971",50.0877117,14.4091678,"U Lužického semináře, Prague - Malá Strana",2 bedroom,,56 m²,"CZK 13,324",,,,,Furnished,1,No,Yes,No,No,No,No,No,,337,356,19,335,43,634,392,362,865,215,03. 06. 2022,,,,,,,,,,,
717314,"CZK 43,500",50.0723321,14.4399493,"Jana Masaryka, Prague - Vinohrady",2 bedroom,,82 m²,"CZK 14,500",,,,,Furnished,3,No,No,No,No,No,Yes,No,,155,369,147,651,45,545,205,328,671,484,01. 07. 2022,,,,,,,,,,,
717313,"CZK 51,656",50.0865843,14.4323212,"Dlážděná, Prague - Nové Město",1 bedroom with open-plan kitchen,,60 m²,"CZK 17,219",,,,,Furnished,4,No,No,No,No,No,Yes,No,,110,274,157,129,77,143,300,496,282,367,01. 07. 2022,,,,,,,,,,,
717312,"CZK 35,925",50.0749602,14.4305105,"Legerova, Prague - Vinohrady",Studio,,30 m²,"CZK 11,975",,,,,Furnished,6,No,No,No,No,No,Yes,No,,22,463,81,96,72,158,361,436,384,451,21. 05. 2022,,,,,,,,,,,
717307,"CZK 31,425",50.0643299,14.4102127,"Strakonická, Prague - Smíchov",Studio,,30 m²,"CZK 10,475",,,,,Furnished,2,No,No,No,No,No,Yes,No,,211,382,250,989,170,745,812,"1,050",387,543,19. 05. 2022,,,,,,,,,,,
717306,"CZK 41,250",50.0643299,14.4102127,"Strakonická, Prague - Smíchov",2 bedroom,,50 m²,"CZK 13,750",,,,,Furnished,-1,No,No,No,No,No,Yes,No,,211,382,250,989,170,745,812,"1,050",387,543,08. 05. 2022,,,,,,,,,,,
717305,"CZK 32,175",50.0643299,14.4102127,"Strakonická, Prague - Smíchov",Studio,,30 m²,"CZK 10,725",,,,,Furnished,3,No,No,No,No,No,Yes,No,,211,382,250,989,170,745,812,"1,050",387,543,16. 05. 2022,,,,,,,,,,,
717304,"CZK 25,463",50.0848162,14.4690502,"Pitterova, Prague - Žižkov",Studio,,50 m²,"CZK 8,487",,,,,Furnished,6,Yes,Yes,No,No,No,Yes,Yes,,130,178,103,494,73,222,671,527,372,445,22. 05. 2022,,,,,,,,,,,
717303,"CZK 26,775",50.0911861,14.4228786,"U Obecního dvora, Prague - Staré Město",1 bedroom with open-plan kitchen,,50 m²,"CZK 8,925",,,,,Furnished,2,No,No,No,No,No,No,No,,154,470,120,271,120,288,315,411,239,203,01. 07. 2022,,,,,,,,,,,
717302,"CZK 28,688",50.0730353,14.4083714,"Zborovská, Prague - Smíchov",Studio,,40 m²,"CZK 9,562",,,,,Furnished,2,Yes,Yes,No,No,No,No,No,,94,401,89,199,59,403,430,911,"1,115",601,27. 06. 2022,,,,,,,,,,,
717301,"CZK 18,720",50.0713305,14.4638794,"Na Míčánkách, Prague - Vršovice",1 bedroom with open-plan kitchen,,49 m²,"CZK 6,240",,,,,Furnished,2,No,No,No,No,No,Yes,No,,84,743,87,659,277,595,408,307,678,198,06. 06. 2022,,,,,,,,,,,
717300,"CZK 23,625",50.0984636,14.4253146,"Ovenecká, Prague - Holešovice",1 bedroom with open-plan kitchen,,55 m²,"CZK 7,875",,,,,Furnished,5,No,No,No,No,No,Yes,No,,220,310,47,185,156,218,202,"1,485",496,451,01. 06. 2022,,,,,,,,,,,
717299,"CZK 22,493",50.1013638,14.4546402,"V Háji, Prague - Holešovice",Studio,,30 m²,"CZK 7,497",,,,,Furnished,3,No,No,No,No,No,Yes,Yes,,236,686,234,408,154,248,547,510,133,319,01. 07. 2022,,,,,,,,,,,
717298,"CZK 63,000",50.090911,14.4295366,"Soukenická, Prague - Nové Město",2 bedroom with open-plan kitchen,,90 m²,"CZK 21,000",,,,,Furnished,4,No,No,No,No,No,Yes,Yes,,144,325,176,152,60,230,49,259,388,439,18. 06. 2022,,,,,,,,,,,
717297,"CZK 43,350",50.0894289,14.423732,"Masná, Prague - Staré Město",Studio,,46 m²,"CZK 14,450",,,,,Furnished,3,No,No,No,No,No,Yes,No,,68,269,126,89,16,107,70,52,156,144,18. 05. 2022,,,,,,,,,,,
717296,"CZK 22,478",50.0830187,14.4654473,"Olšanská, Prague - Žižkov",Studio,,30 m²,"CZK 7,492",,,,,Furnished,3,No,No,No,No,No,No,Yes,,99,368,492,556,426,352,496,585,430,491,01. 07. 2022,,,,,,,,,,,
717295,"CZK 36,675",50.0830187,14.4654473,"Olšanská h, Prague - Žižkov",1 bedroom with open-plan kitchen,,62 m²,"CZK 12,225",,,,,Furnished,7,No,No,No,No,No,Yes,No,,99,368,492,556,426,352,496,585,430,491,27. 06. 2022,,,,,,,,,,,
717293,"CZK 31,725",50.0795659,14.4357789,"Balbínova, Prague - Vinohrady",1 bedroom with open-plan kitchen,,60 m²,"CZK 10,575",,,,,Furnished,3,No,No,No,No,No,Yes,No,,134,417,252,351,68,251,205,205,457,712,21. 06. 2022,,,,,,,,,,,
717292,"CZK 56,700",50.082182161145,14.415757035582,"Karoliny Světlé, Prague - Staré Město",2 bedroom,,72 m²,"CZK 18,900",,,,,Furnished,3,No,No,No,No,No,Yes,No,,186,811,109,132,85,110,274,275,231,398,02. 07. 2022,,,,,,,,,,,
717288,"CZK 51,225",50.090911,14.4295366,"Soukenická, Prague - Nové Město",1 bedroom with open-plan kitchen,,50 m²,"CZK 17,075",,,,,Furnished,4,No,No,No,No,No,Yes,Yes,,144,325,176,152,60,230,49,259,388,439,05. 06. 2022,,,,,,,,,,,
717287,"CZK 18,675",50.0667869,14.4553047,"Sportovní, Prague - Vršovice",1 bedroom with open-plan kitchen,,45 m²,"CZK 6,225",,,,,Furnished,2,No,Yes,No,No,No,No,No,,79,38,77,287,79,287,384,531,326,376,03. 07. 2022,,,,,,,,,,,
717285,"CZK 37,620",50.0706439,14.4164891,"Trojická, Prague - Nové Město",1 bedroom with open-plan kitchen,,60 m²,"CZK 12,540",,,,,Furnished,3,No,No,No,No,No,Yes,No,,212,694,96,186,110,101,316,52,369,339,30. 06. 2022,,,,,,,,,,,
717284,"CZK 17,346",50.1030733,14.4335679,"Šimáčkova, Prague - Holešovice",Studio,,30 m²,"CZK 5,782",,,,,Furnished,3,Yes,No,No,No,No,Yes,No,,139,794,157,306,80,123,368,481,882,,01. 07. 2022,,,,,,,,,,,
717280,"CZK 39,000",50.0865843,14.4323212,"Dlážděná, Prague - Nové Město",1 bedroom with open-plan kitchen,,45 m²,"CZK 13,000",,,,,Furnished,2,No,No,No,No,No,Yes,No,,110,274,157,129,77,143,300,496,282,367,01. 07. 2022,,,,,,,,,,,
717279,"CZK 41,325",50.0865843,14.4323212,"Dlážděná, Prague - Nové Město",1 bedroom with open-plan kitchen,,67 m²,"CZK 13,775",,,,,Furnished,4,Yes,Yes,No,No,No,Yes,No,,110,274,157,129,77,143,300,496,282,367,30. 06. 2022,,,,,,,,,,,
717278,"CZK 41,250",50.0643299,14.4102127,"Strakonická, Prague - Smíchov",2 bedroom,,50 m²,"CZK 13,750",,,,,Furnished,-1,No,No,No,No,No,No,No,,211,382,250,989,170,745,812,"1,050",387,543,16. 05. 2022,,,,,,,,,,,
717276,"CZK 31,875",50.0902753,14.4260311,"Rybná, Prague - Staré Město",Studio,,40 m²,"CZK 10,625",,,,,Furnished,1,No,No,No,No,No,No,No,,124,153,54,67,17,194,209,158,151,202,26. 05. 2022,,,,,,,,,,,
717275,"CZK 23,625",50.097327,14.4663608,"Nekvasilova, Prague - Karlín",1 bedroom with open-plan kitchen,,40 m²,"CZK 7,875",,,,,Furnished,7,No,No,No,No,No,Yes,Yes,,148,"1,069",121,"1,015",205,744,547,541,774,101,01. 07. 2022,,,,,,,,,,,
717274,"CZK 37,500",50.0633339,14.4440155,"Mečislavova, Prague - Nusle",1 bedroom with open-plan kitchen,,56 m²,"CZK 12,500",,,,,Furnished,5,No,No,No,No,No,Yes,No,,243,541,100,272,177,315,457,820,635,594,01. 06. 2022,,,,,,,,,,,
717273,"CZK 35,175",50.0769346,14.4169603,"Na Zbořenci, Prague - Nové Město",2 bedroom,,65 m²,"CZK 11,725",,,,,Furnished,4,No,No,No,No,No,Yes,No,,168,319,99,227,101,409,227,243,632,429,01. 06. 2022,,,,,,,,,,,
717272,"CZK 35,175",50.0769346,14.4169603,"Na Zbořenci, Prague - Nové Město",2 bedroom,,65 m²,"CZK 11,725",,,,,Furnished,3,No,No,No,No,No,Yes,No,,168,319,99,227,101,409,227,243,632,429,02. 06. 2022,,,,,,,,,,,
717271,"CZK 48,000",50.0718291,14.4385892,"Americká, Prague - Vinohrady",3 bedroom,,72 m²,"CZK 16,000",,,,,Furnished,5,No,No,No,No,No,Yes,No,,274,300,81,587,69,312,103,253,793,568,25. 06. 2022,,,,,,,,,,,
717270,"CZK 59,250",50.0710929,14.4032595,"Stroupežnického, Prague - Smíchov",3 bedroom with open-plan kitchen,,90 m²,"CZK 19,750",,,,,Furnished,2,No,No,No,No,No,Yes,No,,140,528,224,126,38,67,511,"1,001","1,181",559,08. 05. 2022,,,,,,,,,,,
717269,"CZK 29,700",50.0778888,14.4403889,"Mánesova, Prague - Vinohrady",Studio,,60 m²,"CZK 9,900",,,,,Furnished,7,No,No,No,No,No,Yes,No,,229,544,212,97,87,308,108,378,237,578,01. 07. 2022,,,,,,,,,,,
717268,"CZK 37,425",50.0749602,14.4305105,"Legerova, Prague - Vinohrady",1 bedroom,,30 m²,"CZK 12,475",,,,,Furnished,2,No,No,No,No,No,Yes,No,,22,463,81,96,72,158,361,436,384,451,15. 05. 2022,,,,,,,,,,,
717267,"CZK 31,439",50.0918972,14.4483184,"Křižíkova, Prague - Karlín",Studio,,49 m²,"CZK 10,480",,,,,Furnished,2,Yes,Yes,No,No,No,Yes,Yes,,224,159,75,308,58,360,238,"1,343",368,105,08. 05. 2022,,,,,,,,,,,
717266,"CZK 38,625",50.0895308,14.4237131,"Masná, Prague - Staré Město",1 bedroom,,38 m²,"CZK 12,875",,,,,Furnished,4,No,No,No,No,No,Yes,No,,69,269,125,89,15,106,70,52,156,144,29. 05. 2022,,,,,,,,,,,
717159,"CZK 15,000",50.064779,14.5525555,"Františka Jansy, Prague - Dolní Měcholupy",Studio,New build,45 m²,"CZK 4,000","CZK 20,000",,Cooperative,Brick building,Partially furnished,1,No,Yes,No,No,Yes,Yes,No,B,150,845,468,387,639,"1,165",809,100,,,23. 05. 2022,,,,,,,,,,,
717265,"CZK 21,019",50.1033901,14.4020568,"U Zeměpisného ústavu, Prague - Bubeneč",Studio,,28 m²,"CZK 7,006",,,,,Furnished,1,No,No,No,No,No,No,No,,192,792,137,285,93,475,243,337,508,82,02. 07. 2022,,,,,,,,,,,
717254,"CZK 18,500",49.96056835,14.383290675536,"Pickova, Prague - Zbraslav",1 bedroom with open-plan kitchen,Excellent,66 m²,"CZK 4,000","CZK 37,000",,Personal,Brick building,Furnished,1,No,Yes,No,No,No,No,No,A,352,448,707,736,"1,098",331,349,,,,01. 06. 2022,,,,,,,,,,,
668396,"CZK 19,000",50.04028,14.56921,"Mantovská, Prague - Horní Měcholupy",1 bedroom with open-plan kitchen,New build,48 m²,"CZK 3,000","CZK 22,000",,Personal,Brick building,Partially furnished,6,No,Yes,Yes,No,No,Yes,Yes,C,338,923,684,787,809,379,480,748,"1,280",390,01. 07. 2022,,,,,,,,,,,
681854,"CZK 19,500",50.09687,14.46518,"Molákova, Prague - Karlín",2 bedroom,Excellent,41 m²,"CZK 5,500","CZK 25,000",,Personal,Other,Furnished,6,No,Yes,Yes,No,No,Yes,No,G,116,"1,185",101,"1,040",234,780,434,694,909,141,01. 07. 2022,Central heating,,,,,,,,,,
717234,"CZK 12,500",50.08034,14.49916,"Nad Úžlabinou, Prague - Malešice",Studio,Excellent,34 m²,"CZK 3,000","CZK 15,000",,Personal,Prefab concrete building,Partially furnished,6,Yes,No,Yes,No,No,Yes,Yes,C,194,279,149,197,197,168,289,671,905,130,06. 05. 2022,District heating,1 to 10 years years,Standard materials and solutions,Middle floor,,,,,,,
717233,"CZK 15,600",50.06799,14.55658,"Honzíkova, Prague - Dolní Měcholupy",1 bedroom,New build,54 m²,"CZK 3,900","CZK 25,000",,Cooperative,Brick building,Unfurnished,2,Yes,No,No,No,No,Yes,No,B,784,"1,478",621,540,800,"1,302","1,442",600,,,01. 06. 2022,,,,,,,,,,,
717232,"CZK 17,500",50.07454,14.44721,"Moravská, Prague - Vinohrady",1 bedroom with open-plan kitchen,Excellent,50 m²,"CZK 1,100","CZK 25,000",,Personal,Brick building,Partially furnished,3,No,No,No,Yes,No,Yes,No,G,300,314,259,505,225,476,493,226,405,257,06. 05. 2022,Gas boiler,,,Middle floor,Overall,,,,,,
660548,"CZK 36,000",50.10666,14.3884,"Bechyňova, Prague - Dejvice",3 bedroom with open-plan kitchen,New build,100 m²,"CZK 6,000","CZK 72,000",,Personal,Other,Partially furnished,2,Yes,No,Yes,No,Yes,Yes,Yes,G,51,"1,254",57,661,139,115,352,322,694,354,01. 05. 2022,District heating,1 to 10 years years,Premium materials and solutions,Middle floor,,,,,,,
467055,"CZK 16,000",50.134464,14.4676022,"Šimůnkova, Prague - Kobylisy",2 bedroom with open-plan kitchen,,62 m²,"CZK 4,500","CZK 30,000",,Personal,Prefab concrete building,Partially furnished,2,No,No,Yes,No,No,Yes,No,D,334,911,391,933,378,811,317,275,364,,01. 07. 2022,,,,,,,,,,,
625052,"CZK 12,000",50.155715,14.514947,"Tryskovická, Prague - Čakovice",Studio,New build,30 m²,"CZK 3,000","CZK 15,000",,Personal,Prefab concrete building,Furnished,1,No,Yes,Yes,No,Yes,Yes,No,B,598,"1,043",282,211,"1,048",997,158,190,,,01. 07. 2022,,,,,,Yes,25 m²,,,,
716481,"CZK 18,000",50.042789,14.4612313,"Jihlavská, Prague - Michle",2 bedroom,Excellent,52 m²,"CZK 3,000","CZK 30,000",,Personal,Brick building,Furnished,3,No,No,No,No,No,Yes,No,G,108,835,263,839,12,162,678,732,691,402,10. 05. 2022,,,,,Overall,,,,,,
717226,"CZK 17,990",50.07907277777,14.48585333333,"Janýrova, Prague - Strašnice",1 bedroom with open-plan kitchen,Excellent,57 m²,"CZK 3,655","CZK 21,645","CZK 21,645

                                
                                
                
i",Personal,Brick building,Partially furnished,4,Yes,No,No,No,Yes,Yes,No,G,295,738,376,414,264,347,761,776,421,150,,,,,,,,,,,,
715898,"CZK 26,000",50.07245,14.39363,"Plzeňská, Prague - Smíchov",1 bedroom with open-plan kitchen,New build,54 m²,"CZK 4,000","CZK 45,000",,Personal,Brick building,Furnished,3,No,No,No,No,No,Yes,No,B,42,871,178,562,166,691,172,997,907,293,01. 06. 2022,,1 to 10 years years,Premium materials and solutions,,,,,,,,
600337,"CZK 37,000",50.09534,14.452358,Prague - Karlín,2 bedroom with open-plan kitchen,Excellent,130 m²,"CZK 5,000","CZK 50,000",,,Brick building,Furnished,6,Yes,Yes,Yes,No,No,Yes,No,C,188,493,169,169,68,306,682,"1,442",462,545,01. 04. 2021,Gas boiler,1 to 10 years years,Premium materials and solutions,Top floor,Overall,,,,,,
717219,"CZK 17,990",50.06351777777,14.4378525,"Boleslavova, Prague - Nusle",2 bedroom,Excellent,56 m²,"CZK 2,659","CZK 20,649","CZK 20,649

                                
                                
                
i",Personal,Brick building,Unfurnished,3,No,No,No,No,No,Yes,No,C,233,245,108,178,248,321,394,341,468,196,,,,,,,,,,,,
717216,"CZK 13,000",50.0573,14.28258,"Prušánecká, Prague - Zličín",Studio,Excellent,37 m²,"CZK 3,000","CZK 20,000",,Personal,Brick building,Furnished,4,Yes,No,Yes,Yes,Yes,Yes,Yes,C,212,998,825,754,839,879,228,"1,101",102,,06. 05. 2022,,,,,,,,,,,
712729,"CZK 16,200",50.03251,14.60945,"K Netlukám, Prague - Uhříněves",1 bedroom with open-plan kitchen,Excellent,58 m²,"CZK 4,700","CZK 40,000",,Personal,Prefab concrete building,Partially furnished,1,No,Yes,Yes,No,Yes,Yes,Yes,G,175,"1,088",254,"1,096",595,"1,041",613,"1,116",758,357,30. 04. 2022,Central heating,10 to 30 years years,Standard materials and solutions,Ground floor,,,24 m²,,,,
476246,"CZK 12,500",50.0763304,14.4690282,"Šrobárova, Prague - Vinohrady",Studio,Excellent,23 m²,"CZK 1,500","CZK 12,500",,Cooperative,Brick building,Furnished,2,No,No,No,No,No,No,No,B,325,675,245,406,122,458,158,785,144,296,01. 05. 2022,District heating,,,Middle floor,,,,,,,
714040,"CZK 28,000",50.10117,14.40446,"Bubenečská, Prague - Bubeneč",3 bedroom with open-plan kitchen,Excellent,125 m²,,"CZK 28,000",,Personal,Brick building,Unfurnished,1,Yes,No,No,No,No,No,No,G,262,807,170,525,171,442,395,624,401,312,12. 04. 2022,Gas boiler,,,Middle floor,,,,,,,
704707,"CZK 14,000",50.06597,14.49684,"Strančická, Prague - Strašnice",1 bedroom with open-plan kitchen,Excellent,53 m²,"CZK 3,500","CZK 28,000",,Personal,Brick building,Partially furnished,5,Yes,No,No,No,Yes,Yes,No,B,162,159,"1,182",251,525,370,326,898,414,,01. 05. 2022,District heating,10 to 30 years years,Premium materials and solutions,Middle floor,,,,,,,
495321,"CZK 23,000",50.0720059,14.3730476,"Pod Lipkami, Prague - Smíchov",2 bedroom with open-plan kitchen,,88 m²,"CZK 5,000","CZK 30,000",,Personal,Brick building,Partially furnished,2,No,No,No,No,No,No,No,,137,395,113,548,416,606,707,878,427,301,01. 07. 2022,Gas boiler,,,,,,100 m²,,,,
494645,"CZK 23,000",50.0720059,14.3730476,"Pod Lipkami, Prague - Smíchov",2 bedroom with open-plan kitchen,,85 m²,"CZK 5,000","CZK 30,000",,Personal,Brick building,Partially furnished,2,Yes,No,Yes,No,No,No,No,,137,395,113,548,416,606,707,878,427,301,01. 07. 2022,Gas boiler,,,,,,100 m²,,,,
716470,"CZK 13,500",50.08643,14.44441,"Řehořova, Prague - Žižkov",Studio,Excellent,30 m²,"CZK 3,500","CZK 13,500",,Personal,Brick building,Partially furnished,-2,No,No,Yes,No,No,Yes,No,G,216,730,475,586,207,697,465,504,546,698,01. 05. 2022,,,,,,,,,,,
482525,"CZK 18,750",50.086769801288,14.345216747607,"Brunclíkova, Prague - Břevnov",2 bedroom,Excellent,53 m²,"CZK 4,250","CZK 30,000",,Personal,Prefab concrete building,Partially furnished,7,Yes,No,No,No,No,No,No,D,15,602,259,337,121,355,258,231,636,171,01. 06. 2022,District heating,1 to 10 years years,,Top floor,Overall,,,,,,
717196,"CZK 13,900",50.0461736,14.4163598,"Jeremenkova, Prague - Podolí",1 bedroom with open-plan kitchen,Excellent,50 m²,"CZK 3,500","CZK 30,000",,Personal,Brick building,Partially furnished,3,No,No,No,No,No,Yes,No,G,99,"1,400",110,"1,431",104,"1,269","1,373",598,697,,09. 05. 2022,,,,,,,,,,,
275083,"CZK 21,900",50.0855268,14.4464269,"Krásova, Prague - Žižkov",2 bedroom with open-plan kitchen,,71 m²,CZK 790,"CZK 23,000",,Personal,Brick building,Unfurnished,2,No,No,No,No,No,No,No,,159,357,61,299,88,378,280,107,439,583,06. 05. 2022,,1 to 10 years years,Standard materials and solutions,Middle floor,Interior,,,,,,
553259,"CZK 21,500",50.0615727,14.4036961,"Pod Brentovou, Prague - Smíchov",1 bedroom with open-plan kitchen,New build,50 m²,"CZK 3,500","CZK 43,000",,Personal,Low-energy building,Partially furnished,3,Yes,No,Yes,No,Yes,Yes,Yes,B,103,604,152,"1,075",211,78,876,806,920,666,01. 06. 2022,District heating,1 to 10 years years,Standard materials and solutions,,,Yes,,,,,
501454,"CZK 17,500",50.090267,14.4711521,"Rečkova, Prague - Žižkov",1 bedroom with open-plan kitchen,,43 m²,"CZK 3,500","CZK 30,000",,Personal,Brick building,Furnished,7,No,Yes,Yes,No,No,Yes,No,,105,924,70,269,77,242,343,298,546,416,01. 06. 2022,Gas boiler,,,,Overall,,,,,,
716775,"CZK 11,000",50.09156,14.48126,"Biskupcova, Prague - Žižkov",Studio,Excellent,30 m²,"CZK 2,700","CZK 16,000",,Personal,Brick building,Partially furnished,2,No,No,No,No,No,Yes,No,G,100,744,74,435,74,368,418,136,213,237,01. 06. 2022,,,,,,,,,,,
47085,"CZK 18,000",50.1344641,14.4676023,"Šimůnkova, Prague - Kobylisy",1 bedroom with open-plan kitchen,Excellent,68 m²,"CZK 4,000","CZK 25,000",,Personal,Prefab concrete building,Furnished,6,No,Yes,No,No,No,Yes,No,D,334,911,391,933,378,811,317,275,364,,01. 07. 2022,Gas boiler,1 to 10 years years,Standard materials and solutions,Top floor,,,,,,,
318429,"CZK 13,900",50.046502535656,14.444247300043,Prague - Krč,1 bedroom with open-plan kitchen,,50 m²,"CZK 3,800","CZK 20,000",,Personal,Brick building,Partially furnished,2,No,No,No,No,No,No,No,,266,437,96,221,152,178,321,597,740,187,01. 06. 2022,,,,,,,,,,,
717181,"CZK 22,000",50.044853653232,14.303649926543,Prague - Stodůlky,1 bedroom with open-plan kitchen,New build,55 m²,"CZK 5,000","CZK 22,000",,Cooperative,Brick building,Partially furnished,7,Yes,No,No,No,No,Yes,Yes,G,270,209,261,243,"1,040","1,137",743,903,196,,01. 06. 2022,,,,,,,,,,,
717177,"CZK 8,690",50.01784,14.46071,"Pasteurova, Prague - Krč",Studio,Excellent,28 m²,"CZK 3,000",,,Personal,Brick building,Partially furnished,2,No,No,Yes,No,No,No,No,G,485,774,652,516,681,795,"1,344",826,,,01. 06. 2022,,,,,,,,,,,
421311,"CZK 26,000",50.066155779374,14.393650712938,Prague - Smíchov,2 bedroom with open-plan kitchen,New build,64 m²,"CZK 4,500","CZK 60,000",,Personal,Low-energy building,Partially furnished,1,Yes,Yes,Yes,No,Yes,Yes,Yes,B,204,570,223,936,147,657,469,596,654,552,01. 07. 2022,Central heating,1 to 10 years years,Premium materials and solutions,Ground floor,,Yes,80 m²,,,,
716719,"CZK 10,500",50.05551,14.44094,"Nad Jezerkou, Prague - Nusle",Studio,New build,21 m²,"CZK 1,950","CZK 10,000",,Personal,Brick building,Partially furnished,4,No,Yes,No,No,No,No,No,G,145,"1,092",260,581,113,494,421,349,668,229,02. 05. 2022,,,,,,,,,,,
441070,"CZK 15,000",50.136196,14.380704,"Internacionální, Prague - Suchdol",1 bedroom with open-plan kitchen,Excellent,53 m²,"CZK 4,000","CZK 15,000",,Personal,Brick building,Partially furnished,1,No,No,Yes,No,Yes,Yes,No,B,10,77,384,65,50,97,579,468,903,736,01. 06. 2022,Gas boiler,,Standard materials and solutions,Ground floor,,,,,,,
717170,"CZK 14,000",49.98824,14.44641,"Kestřanská, Prague - Cholupice",2 bedroom with open-plan kitchen,New build,63 m²,"CZK 3,800","CZK 20,000",,Personal,Brick building,Partially furnished,3,No,No,No,No,Yes,No,Yes,C,340,597,354,365,,,,,,,01. 07. 2022,Gas boiler,1 to 10 years years,Standard materials and solutions,Top floor,,Yes,,,,,
273866,"CZK 10,000",50.0750941,14.4848995,"Irkutská, Prague - Vinohrady",Studio,,29 m²,CZK 750,CZK 1,,Personal,Brick building,Unfurnished,-1,No,No,No,No,No,No,No,,270,723,349,479,359,406,587,571,942,259,05. 05. 2022,Other,over 50 years years,Standard materials and solutions,Ground floor,Interior,,,,,,
648982,"CZK 25,000",50.035856,14.339135,"Prusíkova, Prague - Stodůlky",2 bedroom with open-plan kitchen,Excellent,72 m²,"CZK 4,000","CZK 29,000",,Personal,Prefab concrete building,Furnished,8,No,No,Yes,Yes,Yes,Yes,No,G,282,317,230,"1,121",351,282,174,198,360,89,01. 06. 2022,,,,,,,,,,,
197096,"CZK 16,000",50.0445399,14.5179182,"Nám. Přátelství, Prague - Hostivař",1 bedroom with open-plan kitchen,,45 m²,"CZK 3,000","CZK 38,000",,Personal,Brick building,Unfurnished,2,Yes,No,No,No,No,No,No,B,124,117,86,97,883,263,977,163,,,,District heating,,Standard materials and solutions,Middle floor,,,,,,,
717163,"CZK 150,000",50.09114,14.41807,"Pařížská, Prague - Josefov",4 bedroom with open-plan kitchen,Excellent,250 m²,"CZK 15,000","CZK 165,000",,Personal,Brick building,Unfurnished,7,No,No,No,No,No,Yes,No,G,50,344,274,458,40,435,343,586,60,470,05. 05. 2022,,,,,,,,,,,
662735,"CZK 11,000",50.11501,14.4714,"Vosmíkových, Prague - Libeň",1 bedroom with open-plan kitchen,Excellent,52 m²,"CZK 3,000","CZK 12,000",,Personal,Brick building,Partially furnished,1,No,No,Yes,No,No,No,No,G,97,"1,149",147,"1,226",85,441,312,"1,327",872,339,01. 07. 2022,,,,,,,,,,,
564531,"CZK 30,000",50.1160867,14.4214809,"Sádky, Prague - Troja",5 bedroom,,258 m²,"CZK 5,000","CZK 35,000",,Personal,Brick building,Unfurnished,1,Yes,Yes,No,No,No,Yes,Yes,,342,123,472,297,326,441,973,606,,,15. 11. 2021,Gas boiler,,Standard materials and solutions,Ground floor,,,,,,,
423042,"CZK 45,900",50.1023759,14.4263862,"Kamenická, Prague - Holešovice",4 bedroom with open-plan kitchen,,125 m²,"CZK 5,000",,,Personal,Brick building,Partially furnished,4,No,No,Yes,No,No,Yes,No,,288,489,67,300,154,334,187,81,385,,01. 07. 2022,Gas boiler,,Premium materials and solutions,Top floor,Overall,Yes,,,,,
699061,"CZK 15,000",50.07247,14.46345,"Na Míčánkách, Prague - Vršovice",1 bedroom,Excellent,38 m²,CZK 800,"CZK 15,000",,Personal,Brick building,Furnished,1,No,No,No,No,No,No,No,G,212,822,215,773,266,723,536,421,550,70,05. 05. 2022,,,Standard materials and solutions,,Interior,,,,,,
684097,"CZK 15,000",50.10617,14.55979,"Bratří Venclíků, Prague - Černý Most",1 bedroom with open-plan kitchen,Excellent,48 m²,"CZK 3,000","CZK 15,000",,Personal,Prefab concrete building,Partially furnished,2,Yes,No,Yes,Yes,No,Yes,No,G,50,142,2,"1,497",337,174,249,650,"1,059",251,15. 09. 2021,District heating,,Premium materials and solutions,Middle floor,Overall,,,,,,
716448,"CZK 14,500",50.06292,14.38006,"Černochova, Prague - Košíře",1 bedroom with open-plan kitchen,Excellent,47 m²,"CZK 3,500","CZK 14,500",,Personal,Brick building,Partially furnished,6,Yes,No,No,No,Yes,Yes,No,G,340,"1,246",671,"1,032",660,957,348,"1,229",619,,01. 06. 2022,,,,,,,,,,,
717147,"CZK 17,500",50.01248,14.42814,"Hasova, Prague - Modřany",3 bedroom,Good,65 m²,"CZK 3,600","CZK 35,000",,Cooperative,Prefab concrete building,Unfurnished,2,No,No,Yes,Yes,No,Yes,No,G,373,"1,423",284,"1,284",564,"1,025",309,368,565,110,01. 06. 2022,,,,,,,,,,,
542065,"CZK 24,000",50.0825929,14.4476311,Prague - Žižkov,2 bedroom with open-plan kitchen,Excellent,100 m²,"CZK 3,000","CZK 40,000",,Personal,Brick building,Furnished,2,No,No,No,No,No,Yes,No,B,405,356,105,383,47,86,152,259,516,449,11. 01. 2021,Gas boiler,over 50 years years,Premium materials and solutions,Middle floor,Overall,,,,,,
551630,"CZK 14,000",50.04782783895,14.559218611114,"Boloňská, Prague - Horní Měcholupy",1 bedroom with open-plan kitchen,Excellent,43 m²,"CZK 2,000","CZK 28,000",,Personal,Prefab concrete building,Partially furnished,5,No,No,Yes,No,No,Yes,No,,279,927,421,"1,005",138,"1,072",300,206,717,128,01. 06. 2022,District heating,,,Middle floor,Overall,,,,,,
288662,"CZK 19,000",50.1014102,14.3708384,"Vostrovská, Prague - Dejvice",2 bedroom,Good,50 m²,"CZK 4,500","CZK 40,000",,Personal,Brick building,Unfurnished,1,No,No,No,No,No,No,No,G,294,928,442,564,441,347,743,854,776,314,09. 05. 2022,Gas boiler,,Standard materials and solutions,Middle floor,Interior,,,,,,
322551,"CZK 19,000",50.1014198,14.370781,"Vostrovská, Prague - Dejvice",2 bedroom,,50 m²,"CZK 4,500",,,Personal,Brick building,Unfurnished,1,No,No,No,No,No,No,No,G,292,927,443,563,443,348,745,852,777,315,01. 07. 2022,,,,,,,,,,,
713139,"CZK 28,000",50.06552,14.37806,"U Vojanky, Prague - Košíře",2 bedroom with open-plan kitchen,Excellent,91 m²,"CZK 7,000","CZK 35,000",,Personal,Brick building,Furnished,5,No,Yes,Yes,No,Yes,Yes,Yes,G,98,731,678,978,708,"1,085",857,846,"1,407",934,01. 05. 2022,Gas boiler,10 to 30 years years,Premium materials and solutions,Top floor,Overall,,,,,,
603350,"CZK 12,500",50.070131,14.403814,"Bozděchova, Prague - Smíchov",Studio,Excellent,28 m²,"CZK 2,500","CZK 15,000",,Personal,Brick building,Furnished,3,No,No,Yes,No,No,Yes,No,G,3,477,120,75,4,9,460,951,"1,130",509,01. 06. 2022,Central heating,,,,,,,,,,
454800,"CZK 18,500",50.0773435,14.4009876,"Holečkova, Prague - Smíchov",2 bedroom with open-plan kitchen,,83 m²,CZK 800,"CZK 30,000",,Personal,Brick building,Partially furnished,2,No,No,No,No,No,No,No,,188,514,319,533,229,506,480,942,762,354,01. 06. 2022,,,,,,,,,,,
717068,"CZK 12,000",50.0788177,14.4727822,"Jana Želivského, Prague - Žižkov",2 bedroom,Excellent,49 m²,"CZK 4,000","CZK 16,000",,Personal,Brick building,Partially furnished,1,No,No,No,No,No,Yes,No,G,106,780,263,265,100,268,571,"1,224",188,366,01. 06. 2022,Other,,,Middle floor,,,,,,,
717106,"CZK 14,500",50.05855,14.49431,"Mečíková, Prague - Záběhlice",Studio,Excellent,41 m²,"CZK 2,980","CZK 20,000",,Personal,Prefab concrete building,Furnished,5,No,No,Yes,No,No,Yes,No,C,97,720,133,988,488,353,483,949,250,232,06. 05. 2022,Central heating,1 to 10 years years,Premium materials and solutions,Middle floor,Overall,,,,,,
717071,"CZK 16,500",50.13033,14.4935,"Zakšínská, Prague - Střížkov",1 bedroom with open-plan kitchen,New build,54 m²,"CZK 2,700","CZK 33,000",,Personal,Brick building,Furnished,4,Yes,No,No,No,No,Yes,Yes,C,358,"1,059",203,984,631,477,558,435,"1,185",125,01. 07. 2022,,,,,,,,,,,
717074,"CZK 19,000",50.06891,14.50447,"Nedvězská, Prague - Strašnice",2 bedroom with open-plan kitchen,Excellent,70 m²,"CZK 7,000","CZK 40,000",,Personal,Prefab concrete building,Partially furnished,4,No,No,No,No,No,Yes,No,G,303,459,"1,338",328,518,327,320,"1,252",158,,04. 06. 2022,,,,,,,,,,,
717073,"CZK 24,900",50.09078,14.42269,"Haštalská, Prague - Staré Město",Studio,Excellent,46 m²,"CZK 2,700","CZK 24,900",,Personal,Brick building,Furnished,3,No,No,No,No,No,No,No,C,92,445,40,168,41,185,212,308,215,217,01. 06. 2022,,,,,,,,,,,
717070,"CZK 14,000",50.0698,14.37914,"Vrchlického, Prague - Košíře",1 bedroom with open-plan kitchen,Excellent,42 m²,"CZK 1,900","CZK 16,000",,Personal,Brick building,Partially furnished,1,No,No,No,No,No,No,No,E,160,275,129,581,247,688,248,754,940,485,06. 05. 2022,,,,,,,,,,,
483560,"CZK 18,000",50.0446795,14.4531182,"Jihlavská, Prague - Michle",1 bedroom with open-plan kitchen,,55 m²,"CZK 4,000","CZK 18,000",,Personal,Brick building,Furnished,2,No,No,Yes,No,No,Yes,No,G,350,734,327,338,234,346,281,559,645,207,12. 04. 2021,District heating,30 to 50 years years,Premium materials and solutions,Middle floor,Interior,,250 m²,,,,
647499,"CZK 17,500",50.090668,14.472612,"Buchovcova, Prague - Žižkov",1 bedroom with open-plan kitchen,New build,55 m²,"CZK 3,500","CZK 15,000",,Personal,Brick building,Partially furnished,2,No,No,No,No,No,Yes,No,,220,"1,039",114,290,54,113,349,313,389,315,01. 06. 2022,,,,,,,,,,,
297329,"CZK 16,500",50.1084147,14.5367497,"Zelenečská, Prague - Hloubětín",1 bedroom with open-plan kitchen,Good,52 m²,"CZK 4,500","CZK 30,000",,Personal,Brick building,Partially furnished,2,No,No,No,No,No,Yes,No,G,331,404,195,386,301,222,288,135,603,59,01. 07. 2022,District heating,,Standard materials and solutions,Middle floor,Bathroom unit,,,,,,
717056,"CZK 11,490",50.06492833333,14.30005555555,"Makovského, Prague - Řepy",Studio,Good,36 m²,"CZK 2,738","CZK 14,228","CZK 14,228

                                
                                
                
i",Personal,Prefab concrete building,Partially furnished,5,No,No,Yes,No,No,Yes,No,G,91,792,129,753,83,860,555,324,"1,093",294,,,,,,,,,,,,
622479,"CZK 21,000",50.046109,14.332629,"Zázvorkova, Prague - Stodůlky",2 bedroom with open-plan kitchen,Excellent,90 m²,"CZK 5,000","CZK 26,000",,Cooperative,Prefab concrete building,Partially furnished,5,No,Yes,No,No,No,Yes,No,C,304,301,219,330,203,322,577,96,513,52,01. 06. 2022,District heating,,,Middle floor,Overall,,,,,,
717049,"CZK 28,000",50.07611,14.45025,"Nitranská, Prague - Vinohrady",2 bedroom with open-plan kitchen,Excellent,100 m²,"CZK 7,000","CZK 28,000",,Personal,Brick building,Unfurnished,4,No,No,No,No,No,Yes,No,G,105,310,103,125,20,228,271,237,577,213,01. 07. 2022,,,,,,,,,,,
717047,"CZK 11,000",50.03005,14.52899,"Bajkonurská, Prague - Háje",Studio,Excellent,27 m²,"CZK 3,000","CZK 14,000",,Personal,Prefab concrete building,Furnished,11,No,No,Yes,No,Yes,Yes,No,C,81,451,106,146,121,182,440,384,242,271,01. 07. 2022,,,,,,,,,,,
715485,"CZK 14,990",50.10162,14.36065,"Tobrucká, Prague - Vokovice",1 bedroom with open-plan kitchen,Excellent,49 m²,"CZK 3,490","CZK 27,980",,Personal,Prefab concrete building,Furnished,5,Yes,No,No,No,No,No,No,G,516,726,606,587,497,616,430,337,"1,418",133,15. 05. 2022,,,,,,,,,,,
656514,"CZK 12,000",50.08298,14.45354,"Bořivojova, Prague - Žižkov",Studio,Excellent,50 m²,"CZK 3,000","CZK 15,000",,Personal,Brick building,Furnished,5,No,No,No,No,No,Yes,No,D,161,133,103,297,14,246,314,447,599,333,10. 05. 2022,Gas boiler,,Standard materials and solutions,Middle floor,,,,,,,
385690,"CZK 16,000",50.0444069,14.5181806,Prague - Hostivař,1 bedroom with open-plan kitchen,,52 m²,"CZK 5,500","CZK 25,000",,Personal,Brick building,Furnished,5,Yes,No,Yes,No,Yes,Yes,Yes,B,113,28,"1,492",75,86,872,252,966,178,,01. 06. 2022,District heating,10 to 30 years years,,Middle floor,,,,,,,
708045,"CZK 17,000",50.08186,14.41921,"Spálená, Prague - Nové Město",1 bedroom with open-plan kitchen,Excellent,42 m²,"CZK 1,000","CZK 17,000",,Personal,Brick building,Partially furnished,4,Yes,No,Yes,No,No,Yes,No,G,55,766,79,25,36,129,216,426,136,433,01. 03. 2022,District heating,over 50 years years,Standard materials and solutions,Middle floor,Interior,,,,,,
717041,"CZK 21,000",50.05024,14.34038,"Petržílkova, Prague - Stodůlky",1 bedroom with open-plan kitchen,New build,56 m²,"CZK 5,000","CZK 21,000",,Personal,Brick building,Furnished,1,No,Yes,No,No,No,No,No,C,121,65,128,0,65,130,160,422,807,157,01. 07. 2022,,,,,,,,,,,
706562,"CZK 27,000",50.08773,14.40913,"U Lužického semináře, Prague - Malá Strana",3 bedroom with open-plan kitchen,Excellent,70 m²,"CZK 8,000","CZK 33,000",,Personal,Brick building,Partially furnished,1,No,No,No,No,No,No,No,G,,,,,,,,,,,11. 05. 2022,,,,,,Yes,,Luka Residential s.r.o.,Luka Living Rental apartments,DČ1,
712480,"CZK 22,000",50.04595,14.32223,"Mukařovského, Prague - Stodůlky",2 bedroom,Excellent,42 m²,CZK 133,"CZK 44,000",,Personal,Other,Furnished,13,No,No,Yes,No,Yes,Yes,Yes,A,,,,,,,,,,,22. 07. 2022,,,,,,Yes,,Luka Residential s.r.o.,Luka Living Rental apartments,1301,
714237,"CZK 36,000",50.04595,14.32223,"Mukařovského, Prague - Stodůlky",2 bedroom with open-plan kitchen,Excellent,94 m²,CZK 133,"CZK 72,000",,Personal,Other,Furnished,11,No,Yes,Yes,No,Yes,Yes,Yes,A,,,,,,,,,,,10. 07. 2022,,,,,,Yes,,Luka Residential s.r.o.,Luka Living Rental apartments,1115,
714245,"CZK 15,900",50.04595,14.32223,"Mukařovského, Prague - Stodůlky",Studio,Excellent,31 m²,CZK 133,"CZK 31,800",,Personal,Other,Unfurnished,11,Yes,No,Yes,No,Yes,Yes,No,A,,,,,,,,,,,25. 06. 2022,,,,,,Yes,,Luka Residential s.r.o.,Luka Living Rental apartments,1103,
716406,"CZK 29,900",50.04595,14.32223,"Mukařovského, Prague - Stodůlky",2 bedroom with open-plan kitchen,Excellent,68 m²,CZK 133,"CZK 59,800",,Personal,Other,Furnished,8,No,Yes,Yes,No,Yes,Yes,No,A,,,,,,,,,,,01. 06. 2022,,,,,,Yes,,Luka Residential s.r.o.,Luka Living Rental apartments,814,
714255,"CZK 27,000",50.07202,14.44518,"Francouzská, Prague - Vinohrady",Studio,Excellent,40 m²,CZK 133,"CZK 54,000",,Personal,Brick building,Unfurnished,1,No,Yes,No,No,No,No,No,A,,,,,,,,,,,14. 04. 2022,,,,,,Yes,,Luka Residential s.r.o.,Luka Living Rental apartments,F003,
717034,"CZK 12,500",50.13919,14.51845,"Pavla Beneše, Prague - Letňany",Studio,Excellent,42 m²,"CZK 3,000","CZK 25,000",,Personal,Other,Partially furnished,4,Yes,No,Yes,No,Yes,Yes,No,C,276,460,963,"1,046",502,584,860,990,"1,122",169,01. 06. 2022,,,,,,,,,,,
545732,"CZK 20,000",50.0677891,14.4330621,"Pod Karlovem, Prague - Vinohrady",Other,,85 m²,"CZK 3,000",,,Personal,Brick building,Furnished,5,No,No,No,No,No,No,No,C,142,732,179,748,115,606,472,652,284,372,01. 08. 2022,,,,,,,,,,,
535339,"CZK 15,900",50.0592231,14.4514127,Prague - Michle,1 bedroom with open-plan kitchen,,42 m²,"CZK 3,200","CZK 30,000",,Personal,Brick building,Partially furnished,6,No,No,No,No,No,No,No,,162,720,164,242,202,894,99,396,588,222,01. 06. 2022,,,,,,,,,,,
452087,"CZK 13,000",50.0485532,14.5241392,Prague - Hostivař,1 bedroom with open-plan kitchen,Good,40 m²,"CZK 3,000","CZK 26,000",,Personal,Prefab concrete building,Partially furnished,2,No,No,No,Yes,No,Yes,No,,253,"1,054",508,"1,017",56,739,454,449,635,314,Ihned,Central heating,,,Middle floor,Bathroom unit,,,,,,
717005,"CZK 16,000",50.10681,14.44916,"Poupětova, Prague - Holešovice",1 bedroom with open-plan kitchen,Excellent,40 m²,"CZK 3,500","CZK 16,000",,Cooperative,Brick building,Furnished,,No,No,No,No,No,No,No,G,198,450,31,262,118,266,265,724,363,324,01. 06. 2022,,,,,,,,,,,
717018,"CZK 17,000",50.10832,14.49069,"U Školičky, Prague - Libeň",1 bedroom,Excellent,40 m²,"CZK 3,500","CZK 20,000",,Personal,Brick building,Furnished,3,No,Yes,Yes,No,No,Yes,No,G,247,467,156,599,198,324,385,162,126,46,26. 06. 2022,,,Standard materials and solutions,Middle floor,,,,,,,
717004,"CZK 16,000",50.04505,14.4027,"Nad Zlíchovem, Prague - Hlubočepy",1 bedroom with open-plan kitchen,Excellent,51 m²,"CZK 3,000","CZK 16,000",,Personal,Brick building,Partially furnished,3,Yes,No,No,No,No,No,No,G,93,617,769,740,829,"1,224",323,,,,09. 05. 2022,,,,,,,,,,,
639668,"CZK 10,000",50.133324,14.455523,Prague - Kobylisy,Studio,Good,40 m²,"CZK 3,500","CZK 20,000",,Personal,Brick building,Unfurnished,7,Yes,No,Yes,No,No,Yes,No,B,65,"1,391",325,"1,290",303,995,"1,006",865,"1,478",521,15. 05. 2022,Central heating,,Standard materials and solutions,Top floor,Overall,,,,,,
717001,"CZK 11,150",50.10621,14.58504,"Bryksova, Prague - Černý Most",1 bedroom with open-plan kitchen,Excellent,48 m²,"CZK 3,850","CZK 32,000",,Personal,Prefab concrete building,Partially furnished,1,No,No,No,No,No,Yes,No,G,447,496,507,649,591,901,735,434,,,16. 05. 2022,,,,,,,,,,,
717003,"CZK 16,000",50.09301,14.49053,"K Chmelnici, Prague - Žižkov",2 bedroom,Excellent,50 m²,"CZK 4,900","CZK 16,000",,Personal,Brick building,Partially furnished,5,No,No,No,Yes,No,No,No,G,243,192,202,302,138,170,160,328,413,215,05. 05. 2022,,,,,,,,,,,
595378,"CZK 19,000",50.109744,14.49792,"Bassova, Prague - Vysočany",1 bedroom with open-plan kitchen,New build,53 m²,"CZK 3,550","CZK 25,000",,Personal,Prefab concrete building,Partially furnished,2,Yes,No,No,No,No,Yes,Yes,B,99,282,60,174,25,196,526,702,267,335,01. 06. 2022,District heating,1 to 10 years years,,,,,,,,,
716909,"CZK 23,000",50.1049556,14.4905151,"Ocelářská, Prague - Libeň",1 bedroom with open-plan kitchen,New build,70 m²,"CZK 3,900","CZK 23,000",,Personal,Brick building,Partially furnished,3,Yes,Yes,No,No,No,Yes,No,B,280,213,157,195,145,289,128,514,240,212,10. 05. 2022,Central heating,,Premium materials and solutions,,,,,,,,
577002,"CZK 16,000",50.1171669,14.4317465,"Trojská, Prague - Troja",1 bedroom with open-plan kitchen,,43 m²,"CZK 3,500","CZK 48,000",,Personal,Brick building,Unfurnished,1,No,No,No,No,No,No,No,C,141,"1,030","1,164",484,672,"1,054",233,748,,,01. 01. 2022,,,,,,,,,,,
282174,"CZK 15,500",50.0700211,14.3958844,"Mrázovka, Prague - Smíchov",1 bedroom with open-plan kitchen,Excellent,55 m²,"CZK 1,500",,,Personal,Brick building,Furnished,1,No,No,No,No,No,Yes,No,,318,508,500,524,51,593,275,976,402,164,01. 01. 1970,Gas boiler,,,Middle floor,,,,,,,
716680,"CZK 21,500",50.09593,14.36114,"Na Dlouhém lánu, Prague - Vokovice",2 bedroom with open-plan kitchen,Excellent,61 m²,"CZK 3,200","CZK 21,500",,Personal,Brick building,Partially furnished,1,No,No,Yes,No,No,No,No,G,354,217,70,343,111,140,288,565,"1,176",407,06. 05. 2022,,,,,,,,,,,
541377,"CZK 18,000",50.0898814,14.3429244,"Na Okraji, Prague - Veleslavín",1 bedroom with open-plan kitchen,,52 m²,"CZK 4,000","CZK 33,000",,Cooperative,Brick building,Partially furnished,2,No,No,No,No,No,No,No,,129,524,89,187,192,257,195,59,854,186,01. 07. 2022,District heating,,,Middle floor,Overall,,,,,,
662021,"CZK 17,000",50.08702,14.34672,"Nad Alejí, Prague - Břevnov",1 bedroom with open-plan kitchen,Excellent,53 m²,"CZK 4,000","CZK 34,000",,Municipal,Prefab concrete building,Partially furnished,3,No,No,Yes,Yes,No,No,No,C,225,387,240,326,173,264,130,123,485,137,01. 07. 2022,District heating,,Premium materials and solutions,Middle floor,Overall,,,,,,
686568,"CZK 21,900",50.07386,14.41527,"Gorazdova, Prague - Nové Město",Studio,New build,26 m²,"CZK 3,000","CZK 44,000",,Personal,Brick building,Furnished,2,No,No,No,No,No,Yes,No,E,105,431,45,391,67,341,472,466,787,541,01. 06. 2022,,,,,,,,,,,
529892,"CZK 10,600",50.0599289,14.3998514,Prague - Smíchov,1 bedroom,Excellent,39 m²,"CZK 4,000","CZK 14,600",,Personal,Brick building,Partially furnished,3,No,No,Yes,No,Yes,No,No,C,316,"1,018",343,"1,041",336,497,717,856,778,620,11. 05. 2022,Central heating,1 to 10 years years,Standard materials and solutions,Attic,Overall,,,,,,
716991,"CZK 15,500",50.06265,14.44798,"U Křížku, Prague - Nusle",2 bedroom,Excellent,50 m²,"CZK 3,500","CZK 15,500",,Cooperative,Prefab concrete building,Furnished,-1,No,No,Yes,No,No,No,No,C,223,813,263,525,239,563,710,550,821,607,01. 06. 2022,,,,,,,,,,,
203657,"CZK 16,500",50.1155867,14.4743483,"Na sypkém, Prague - Libeň",1 bedroom with open-plan kitchen,New build,55 m²,"CZK 4,000","CZK 20,500",,Personal,Brick building,Furnished,2,Yes,No,Yes,No,Yes,Yes,No,,143,"1,362",395,"1,237",150,656,536,"1,350",883,321,01. 07. 2022,,1 to 10 years years,,Middle floor,,Yes,,,,,
716987,"CZK 18,000",50.08337,14.36193,"Bělohorská, Prague - Břevnov",2 bedroom,Excellent,51 m²,"CZK 2,500","CZK 36,000",,Personal,Brick building,Partially furnished,1,No,No,No,No,No,Yes,No,G,86,268,115,91,138,158,328,812,229,401,04. 05. 2022,,,,,,,,,,,
716692,"CZK 11,000",50.0735326,14.5001292,Prague - Strašnice,Studio,Good,40 m²,"CZK 1,500","CZK 10,000",,Personal,Brick building,,,No,No,No,No,No,No,No,,204,850,290,693,272,718,167,438,760,286,,,,,,,,,,,,
684922,"CZK 9,900",50.03579,14.41528,"Na Vinohradu, Prague - Braník",Studio,Excellent,25 m²,"CZK 1,500","CZK 19,000",,Personal,Brick building,Furnished,1,No,No,No,No,No,No,No,,200,452,102,198,138,224,244,515,,,09. 05. 2022,,,,,,,,,,,
704205,"CZK 20,500",50.01239,14.40096,"Vrátnická, Prague - Modřany",1 bedroom with open-plan kitchen,New build,60 m²,"CZK 3,100","CZK 30,000",,Personal,Low-energy building,Partially furnished,3,Yes,No,No,No,No,Yes,Yes,B,426,"1,386",854,"1,481",703,"1,184","1,052","1,135",638,379,01. 04. 2022,Central heating,1 to 10 years years,,Middle floor,,,,,,,
716985,"CZK 12,500",50.0951749,14.5092549,"Mezilehlá, Prague - Hrdlořezy",Small studio,New build,37 m²,"CZK 3,120","CZK 37,000",,Personal,Brick building,Partially furnished,3,Yes,No,Yes,No,No,Yes,Yes,A,203,514,668,478,976,743,"1,293","1,106",276,,01. 05. 2022,,,,,,,,,,,
716981,"CZK 15,000",50.08404,14.49011,"Nad Kapličkou, Prague - Strašnice",1 bedroom with open-plan kitchen,Excellent,55 m²,"CZK 3,500","CZK 30,000",,Personal,Brick building,Furnished,4,No,No,No,No,No,Yes,No,G,419,963,457,"1,005",618,590,628,453,123,452,04. 05. 2022,District heating,10 to 30 years years,Standard materials and solutions,Middle floor,Interior,,,,,,
530639,"CZK 12,500",50.0400116,14.5681437,Prague - Horní Měcholupy,Studio,,39 m²,"CZK 2,500","CZK 15,000",,Personal,Brick building,Partially furnished,5,Yes,No,No,No,No,Yes,Yes,,240,898,493,763,617,355,456,557,"1,256",366,01. 07. 2022,,,,,,Yes,,,,,
515070,"CZK 27,800",50.06671,14.456435,"Oblouková, Prague - Vršovice",3 bedroom,Excellent,80 m²,"CZK 2,940","CZK 40,000",,Personal,Brick building,Furnished,6,No,No,No,No,No,Yes,No,,38,225,51,316,42,316,420,560,322,259,01. 07. 2022,District heating,1 to 10 years years,Premium materials and solutions,Top floor,Overall,,,,,,
624896,"CZK 13,500",50.0973,14.362884,"Kladenská, Prague - Vokovice",1 bedroom with open-plan kitchen,Excellent,50 m²,"CZK 3,400","CZK 27,000",,Personal,Brick building,Partially furnished,5,No,No,Yes,No,Yes,No,No,C,227,104,237,300,260,291,511,417,"1,174",243,01. 06. 2022,Gas boiler,1 to 10 years years,Premium materials and solutions,Top floor,Overall,,,,,,
716734,"CZK 10,000",50.06184,14.44442,"Svatoslavova, Prague - Nusle",1 bedroom,Excellent,40 m²,"CZK 1,000","CZK 20,000",,Personal,Brick building,Partially furnished,3,No,No,No,No,No,No,No,C,137,691,109,397,161,420,540,730,476,584,03. 05. 2022,,,,,,,,,,,
716531,"CZK 17,000",50.0693304,14.4608713,"Arménská, Prague - Vršovice",1 bedroom with open-plan kitchen,Excellent,55 m²,"CZK 2,800","CZK 12,000",,Personal,Brick building,Furnished,4,No,No,No,No,No,Yes,No,D,217,693,244,367,186,479,321,221,572,314,06. 05. 2022,District heating,,,,Overall,,,,,,
611162,"CZK 16,000",50.030212,14.364044,"Kováříkova, Prague - Hlubočepy",1 bedroom with open-plan kitchen,Excellent,53 m²,"CZK 3,800","CZK 16,000",,Personal,Brick building,Partially furnished,2,No,Yes,No,No,No,Yes,No,D,380,"1,101",366,"1,082",244,"1,143",471,586,796,326,01. 06. 2022,District heating,1 to 10 years years,,Middle floor,,Yes,,,,,
494735,"CZK 17,500",50.1155396,14.5633862,"Farkašova, Prague - Kyje",2 bedroom with open-plan kitchen,New build,63 m²,"CZK 4,350","CZK 20,000",,Personal,Prefab concrete building,Furnished,2,Yes,No,No,No,No,No,No,C,204,910,685,"1,279","1,219",697,,,,,01. 07. 2022,District heating,1 to 10 years years,Premium materials and solutions,Middle floor,,,,,,,
716333,"CZK 45,000",50.0931,14.36735,"Nový lesík, Prague - Střešovice",5 bedroom,Good,170 m²,"CZK 5,000","CZK 50,000",,Personal,Brick building,Partially furnished,2,Yes,Yes,Yes,No,No,No,Yes,G,266,928,710,"1,132",274,883,879,"1,234",325,288,01. 05. 2022,,,,,,,,,,,
601295,"CZK 18,500",50.023226,14.511166,"Zdiměřická, Prague - Chodov",1 bedroom with open-plan kitchen,Excellent,64 m²,"CZK 3,500","CZK 35,000",,Personal,Prefab concrete building,Partially furnished,8,Yes,No,No,No,No,Yes,No,D,326,"1,289",222,595,221,296,844,181,,,01. 06. 2022,District heating,1 to 10 years years,Premium materials and solutions,Top floor,Overall,,,,,,
505339,"CZK 12,500",50.0969546,14.4652086,Prague - Karlín,Small studio,,28 m²,"CZK 3,000","CZK 15,000",,Personal,Other,Partially furnished,5,No,Yes,Yes,No,No,Yes,No,,108,"1,177",92,"1,032",226,771,442,685,901,149,09. 05. 2022,District heating,,,,,,,,,,
716322,"CZK 16,500",50.10325,14.50045,"Na Harfě, Prague - Vysočany",1 bedroom with open-plan kitchen,Excellent,57 m²,"CZK 4,500","CZK 30,000",,Personal,Other,Partially furnished,4,Yes,No,No,No,Yes,Yes,No,G,368,"1,126",301,531,354,432,401,891,936,619,15. 07. 2022,,,,,,,,,,,
716919,"CZK 14,000",50.07714,14.47583,"U Vinohradské nemocnice, Prague - Vinohrady",2 bedroom,Excellent,45 m²,"CZK 4,200","CZK 30,000",,Personal,Brick building,Partially furnished,5,No,No,No,No,No,No,No,D,54,820,41,350,101,148,605,881,207,13,15. 05. 2022,,,,,,,,,,,
639908,"CZK 21,900",50.087756,14.366929,"Radimova, Prague - Břevnov",1 bedroom with open-plan kitchen,New build,66 m²,"CZK 4,000","CZK 30,000",,Personal,Brick building,Furnished,1,Yes,No,No,No,Yes,Yes,Yes,,327,564,144,651,53,98,134,639,620,539,01. 06. 2022,Central heating,1 to 10 years years,Premium materials and solutions,Raised ground floor,,Yes,,,,,
716913,"CZK 21,000",50.07168,14.46069,"Bulharská, Prague - Vršovice",2 bedroom with open-plan kitchen,Excellent,73 m²,"CZK 4,000","CZK 25,000",,Personal,Brick building,Partially furnished,6,No,No,Yes,No,No,Yes,No,G,138,748,96,525,18,523,337,252,760,188,01. 06. 2022,Gas boiler,,,Top floor,Overall,,,,,,
610714,"CZK 14,000",50.054134,14.483781,"Podle Náhonu, Prague - Záběhlice",1 bedroom with open-plan kitchen,New build,44 m²,"CZK 3,153","CZK 14,000",,Personal,Brick building,,2,Yes,No,No,No,No,Yes,No,B,190,"1,150",551,"1,092",231,"1,176",938,747,372,191,01. 08. 2022,,,,,,,,,,,
710751,"CZK 14,500",50.06853,14.38762,"Nad Popelkou, Prague - Smíchov",1 bedroom with open-plan kitchen,Excellent,55 m²,CZK 950,"CZK 29,000",,Personal,Brick building,Partially furnished,,No,No,Yes,No,No,No,No,F,52,986,661,"1,180",625,"1,073",698,"1,065",537,177,01. 07. 2022,Other,,,Ground floor,Overall,,,,,,
716314,"CZK 15,500",50.10601,14.4356,"Bubenská, Prague - Holešovice",1 bedroom,Excellent,40 m²,"CZK 3,000","CZK 18,500",,Personal,Prefab concrete building,Furnished,3,Yes,No,No,No,No,Yes,No,G,310,"1,078",541,773,84,477,525,106,677,,01. 06. 2022,Electric boiler,,,,Overall,,,,,,
657758,"CZK 10,000",50.0981031,14.3582803,"Evropská, Prague - Vokovice",Small studio,Excellent,23 m²,"CZK 2,200","CZK 10,000",,Cooperative,Prefab concrete building,Unfurnished,11,No,No,Yes,Yes,No,Yes,No,C,90,334,179,160,60,190,155,133,"1,075",294,02. 05. 2022,District heating,,,Middle floor,,,,,,,
350671,"CZK 13,000",50.1376179,14.5200178,"Nepomuckých, Prague - Letňany",Studio,,31 m²,"CZK 2,000","CZK 15,000",,Personal,Brick building,Unfurnished,3,No,No,No,No,No,No,No,B,225,358,"1,013",926,501,463,752,"1,276","1,014",203,06. 05. 2022,District heating,1 to 10 years years,Premium materials and solutions,Middle floor,,Yes,,,,,
716902,"CZK 13,000",50.13927,14.51786,"Pavla Beneše, Prague - Letňany",Studio,New build,37 m²,"CZK 2,500","CZK 26,000",,Personal,Brick building,Furnished,3,No,No,No,No,Yes,Yes,Yes,G,210,367,951,934,509,471,760,979,"1,022",240,03. 05. 2022,,,,,,,,,,,
713073,"CZK 16,000",50.07784,14.49749,"Vrátkovská, Prague - Strašnice",2 bedroom,Good,52 m²,"CZK 5,756","CZK 40,000",,Cooperative,Prefab concrete building,Partially furnished,2,No,No,Yes,No,No,No,No,D,242,489,146,575,314,529,552,469,"1,195",154,01. 05. 2022,District heating,,,Middle floor,,,,,,,
529640,"CZK 9,500",50.0577592,14.2889989,"Na Radosti, Prague - Zličín",Studio,Excellent,25 m²,"CZK 2,800","CZK 19,000",,Personal,Brick building,Furnished,2,No,No,No,No,No,No,No,,293,773,615,558,412,669,248,522,50,,09. 05. 2022,Central heating,1 to 10 years years,Premium materials and solutions,Middle floor,Overall,,,,,,
630614,"CZK 10,500",50.090374,14.307124,"Ciolkovského, Prague - Ruzyně",1 bedroom with open-plan kitchen,Good,42 m²,"CZK 2,500","CZK 20,000",,Personal,Prefab concrete building,,2,No,No,No,No,No,Yes,No,G,248,322,228,215,274,272,307,"1,484","1,396",213,04. 05. 2022,,,,Middle floor,,,,,,,
202649,"CZK 11,990",50.1026222,14.436082,"U smaltovny, Prague - Holešovice",Studio,Excellent,30 m²,"CZK 2,500","CZK 15,000",,Personal,Brick building,Furnished,1,No,No,No,No,No,Yes,No,,286,848,109,360,31,305,466,444,944,,01. 06. 2022,District heating,1 to 10 years years,Standard materials and solutions,Raised ground floor,Overall,,,,,,
715590,"CZK 43,775",50.09912,14.43261,Prague - Holešovice,3 bedroom with open-plan kitchen,New build,113 m²,"CZK 5,500","CZK 87,550",,Personal,Brick building,Unfurnished,4,No,No,Yes,No,No,Yes,No,A,54,722,20,64,99,38,187,"1,475",177,471,01. 06. 2022,,,,,,,,,,,
581839,"CZK 17,400",50.128615,14.483932,"Březenská, Prague - Libeň",1 bedroom with open-plan kitchen,New build,62 m²,"CZK 3,550","CZK 55,000",,Personal,Low-energy building,Furnished,2,No,No,No,No,Yes,Yes,Yes,B,163,"1,180",257,"1,235",458,249,195,728,919,192,18. 05. 2022,District heating,1 to 10 years years,Premium materials and solutions,Middle floor,,Yes,,,,,
540297,"CZK 21,500",50.04304,14.31343,"Toufarova, Prague - Stodůlky",1 bedroom with open-plan kitchen,New build,60 m²,"CZK 2,500","CZK 40,000",,Personal,Brick building,Partially furnished,2,Yes,No,No,No,No,No,No,B,258,485,231,799,821,429,778,559,"1,031",582,01. 05. 2022,Central heating,1 to 10 years years,Premium materials and solutions,Middle floor,,,,,,,
688668,"CZK 19,000",50.07413,14.3961,"Holečkova, Prague - Smíchov",Studio,New build,40 m²,"CZK 3,400","CZK 40,000",,Personal,Brick building,Furnished,3,Yes,No,Yes,No,No,Yes,No,G,70,937,289,648,121,632,234,"1,083","1,005",390,01. 06. 2022,,,,,,,,,,,
697214,"CZK 13,000",50.06194,14.43608,"Petra Rezka, Prague - Nusle",1 bedroom,Excellent,49 m²,"CZK 2,500","CZK 31,000",,Personal,Other,Unfurnished,2,Yes,No,No,No,No,Yes,No,G,167,614,151,528,121,457,121,445,399,278,01. 04. 2022,,,,,Bathroom unit,,,,,,
716856,"CZK 33,000",50.04595,14.32223,"Mukařovského, Prague - Stodůlky",2 bedroom with open-plan kitchen,Excellent,94 m²,CZK 133,"CZK 66,000",,Personal,Other,Furnished,13,No,Yes,Yes,No,Yes,Yes,No,A,,,,,,,,,,,24. 06. 2022,,,,,,Yes,,Luka Residential s.r.o.,Luka Living Rental apartments,1314,
664824,"CZK 16,000",49.97529,14.39465,"Žitavského, Prague - Zbraslav",2 bedroom with open-plan kitchen,Excellent,64 m²,"CZK 1,800","CZK 15,000",,Personal,Brick building,Partially furnished,3,No,No,No,No,No,No,No,F,102,216,100,86,154,143,211,915,,,01. 06. 2021,Gas boiler,,Standard materials and solutions,Top floor,Overall,,,,,,
716850,"CZK 15,000",50.02136,14.41189,"Pod Lysinami, Prague - Hodkovičky",1 bedroom with open-plan kitchen,Excellent,41 m²,"CZK 3,000","CZK 15,000",,Personal,Prefab concrete building,Unfurnished,1,No,No,No,No,Yes,Yes,No,G,278,"1,437","1,082","1,396",515,"1,143",209,,,,03. 05. 2022,,,,,,,,,,,
716244,"CZK 15,000",50.01163,14.41707,"Hausmannova, Prague - Modřany",1 bedroom with open-plan kitchen,Excellent,53 m²,"CZK 4,200","CZK 30,000",,Cooperative,Prefab concrete building,Unfurnished,,No,No,Yes,No,No,No,No,G,96,817,288,719,734,710,315,348,"1,429",424,01. 05. 2022,District heating,,Standard materials and solutions,,Interior,,,,,,
599056,"CZK 20,500",50.044159,14.46402,"Na Nivách, Prague - Michle",1 bedroom with open-plan kitchen,Excellent,80 m²,"CZK 3,500","CZK 48,000",,Personal,Brick building,Furnished,2,No,No,No,No,No,No,No,G,308,"1,069",423,"1,127",387,543,487,543,759,303,01. 06. 2022,Gas boiler,1 to 10 years years,Premium materials and solutions,Middle floor,Interior,,,,,,
621214,"CZK 19,000",50.061555,14.364851,"Na Pomezí, Prague - Košíře",1 bedroom with open-plan kitchen,Excellent,71 m²,"CZK 2,500","CZK 38,000",,Personal,Brick building,Partially furnished,4,No,Yes,Yes,No,No,Yes,Yes,G,118,"1,036","1,029","1,374",997,"1,123",396,425,926,258,01. 07. 2022,Gas boiler,,,,,,,,,,
716843,"CZK 17,000",50.08879,14.3488,"Šantrochova, Prague - Břevnov",2 bedroom,Excellent,54 m²,"CZK 6,000","CZK 34,000",,Personal,Prefab concrete building,Partially furnished,3,Yes,No,No,No,Yes,Yes,No,G,86,132,241,428,132,227,194,128,300,194,01. 07. 2022,,,,,,,,,,,
446603,"CZK 15,000",50.1079732,14.3953667,"Terronská, Prague - Bubeneč",1 bedroom with open-plan kitchen,Excellent,50 m²,"CZK 3,500","CZK 18,000",,Personal,Brick building,Partially furnished,,No,No,No,No,No,Yes,No,,144,"1,163",110,562,99,457,257,441,556,200,09. 05. 2022,Gas boiler,,,Ground floor,Interior,,,,,,
713265,"CZK 12,900",50.05891,14.49887,"Ostružinová, Prague - Záběhlice",1 bedroom with open-plan kitchen,Good,51 m²,"CZK 2,400",,,Personal,Prefab concrete building,Partially furnished,2,No,No,No,Yes,No,Yes,No,G,349,430,336,639,658,403,483,637,577,225,15. 04. 2022,,,,,,,,,,,
716666,"CZK 9,000",49.99684,14.3205,"Na Cikánce, Prague - Radotín",Studio,Excellent,25 m²,"CZK 2,000","CZK 22,000",,Personal,Brick building,Furnished,1,No,No,No,No,No,No,No,G,127,,,,,,,,,,09. 05. 2022,,,,,,,,,,,
315689,"CZK 14,500",50.0275539,14.4906579,"Hráského, Prague - Chodov",2 bedroom,,55 m²,,,,Personal,Prefab concrete building,Furnished,2,No,No,No,No,No,Yes,No,,350,383,114,508,157,179,797,256,313,268,,,1 to 10 years years,,Middle floor,,,,,,,
644750,"CZK 11,500",50.022858,14.40224,"Šífařská, Prague - Hodkovičky",Small studio,New build,33 m²,"CZK 2,900","CZK 11,500",,Personal,Low-energy building,Partially furnished,2,Yes,No,No,No,Yes,Yes,No,B,213,213,987,177,913,,,,,,01. 06. 2022,District heating,1 to 10 years years,Premium materials and solutions,Middle floor,,Yes,,,,,
649185,"CZK 18,000",50.092787,14.451795,"Křižíkova, Prague - Karlín",1 bedroom with open-plan kitchen,Excellent,57 m²,"CZK 1,000","CZK 40,000",,Personal,Brick building,Unfurnished,3,No,No,No,No,No,Yes,No,G,43,348,50,55,66,84,443,"1,093",116,310,01. 06. 2021,Gas boiler,1 to 10 years years,Standard materials and solutions,Middle floor,,,,,,,
658687,"CZK 23,000",50.10168,14.4242,"U Studánky, Prague - Bubeneč",1 bedroom with open-plan kitchen,Excellent,59 m²,"CZK 2,250","CZK 46,000",,Personal,Brick building,Furnished,5,No,No,No,No,No,Yes,No,,353,307,138,232,151,290,316,206,220,,01. 06. 2022,Gas boiler,,Premium materials and solutions,Middle floor,,,,,,,
716821,"CZK 27,500",50.07162,14.40618,"Na Bělidle, Prague - Smíchov",1 bedroom with open-plan kitchen,New build,52 m²,"CZK 5,500","CZK 55,000",,Personal,Brick building,Furnished,,No,Yes,Yes,No,No,Yes,No,C,152,499,49,172,34,250,593,"1,073","1,203",601,01. 06. 2022,,,,,,,,,,,
688240,"CZK 21,000",50.05428,14.5265,"Vladycká, Prague - Hostivař",1 bedroom with open-plan kitchen,Excellent,55 m²,"CZK 2,600","CZK 42,000",,Personal,Brick building,Furnished,1,Yes,No,No,No,No,Yes,No,G,267,816,120,779,414,820,"1,153",525,373,376,15. 06. 2022,,,Standard materials and solutions,Middle floor,Interior,,,,,,
716818,"CZK 17,000",50.06911,14.50239,"Pod Strání, Prague - Strašnice",1 bedroom with open-plan kitchen,Excellent,58 m²,"CZK 4,000","CZK 30,000",,Personal,Prefab concrete building,Furnished,8,No,No,Yes,Yes,No,Yes,No,G,432,"1,399",356,"1,188",456,363,144,137,966,135,05. 05. 2022,,,,,,,,,,,
640912,"CZK 8,100",50.035171,14.411621,"Zelinářská, Prague - Braník",Small studio,Excellent,38 m²,CZK 800,"CZK 15,000",,Personal,Brick building,Partially furnished,3,No,No,No,No,No,No,No,G,125,412,167,101,268,349,144,"1,229",260,,01. 05. 2022,,,,,,,,,,,
585738,"CZK 18,000",50.129377,14.551176,"Hornopočernická, Prague - Kbely",2 bedroom with open-plan kitchen,Excellent,100 m²,"CZK 5,000","CZK 22,000",,Personal,Brick building,Partially furnished,2,No,Yes,Yes,No,No,No,No,G,95,832,202,381,217,958,918,831,299,,28. 04. 2022,Central heating,,,,,,,,,,
716390,"CZK 19,200",50.08781,14.4725,"Ambrožova, Prague - Žižkov",1 bedroom with open-plan kitchen,New build,57 m²,"CZK 2,500",,,Personal,Brick building,Partially furnished,2,Yes,No,Yes,No,Yes,Yes,No,B,102,622,257,413,274,484,238,58,551,172,01. 08. 2022,Central heating,1 to 10 years years,Premium materials and solutions,Middle floor,Overall,Yes,,,,,
716780,"CZK 11,000",50.06522,14.51057,"Královická, Prague - Strašnice",1 bedroom,Excellent,37 m²,"CZK 3,500","CZK 11,000",,Personal,Brick building,Partially furnished,1,No,No,No,No,Yes,No,No,C,445,463,"1,228",200,454,290,329,566,258,,16. 05. 2022,,,,,,,,,,,
231034,"CZK 7,000",50.133324,14.455523,"Davídkova, Prague - Kobylisy",Small studio,,23 m²,"CZK 3,000","CZK 6,000",,Personal,Brick building,Unfurnished,1,No,No,No,No,No,No,No,A,65,"1,391",325,"1,290",303,995,"1,006",865,"1,478",521,,Central heating,,,,,,,,,,
608547,"CZK 12,000",50.027802,14.367754,"Wassermannova, Prague - Hlubočepy",1 bedroom with open-plan kitchen,Excellent,51 m²,"CZK 3,000","CZK 15,000",,Personal,Prefab concrete building,Partially furnished,5,Yes,No,Yes,No,No,Yes,No,G,124,"1,182",413,"1,163",225,"1,190",84,581,383,408,15. 05. 2022,District heating,,Standard materials and solutions,Middle floor,Overall,,,,,,
492410,"CZK 17,000",50.0983131,14.4249055,"Ovenecká, Prague - Holešovice",1 bedroom with open-plan kitchen,Excellent,40 m²,"CZK 5,000","CZK 25,000",,Personal,Brick building,Partially furnished,2,No,No,No,No,No,Yes,No,G,218,307,78,180,163,214,176,"1,459",502,426,01. 07. 2022,Other,1 to 10 years years,Premium materials and solutions,Middle floor,Overall,,,,,,
610898,"CZK 11,500",50.069319,14.372789,"Pod Kavalírkou, Prague - Košíře",1 bedroom,Excellent,23 m²,"CZK 2,500","CZK 14,000",,Personal,Brick building,Partially furnished,3,No,No,No,No,No,Yes,No,D,158,294,197,172,233,279,451,"1,008",786,120,02. 06. 2022,Other,,Standard materials and solutions,Middle floor,Overall,,,,,,
716806,"CZK 20,000",50.12519,14.46912,"U Slovanky, Prague - Libeň",1 bedroom with open-plan kitchen,Excellent,55 m²,"CZK 5,000","CZK 40,000",,Personal,Brick building,Furnished,4,Yes,No,Yes,No,No,Yes,Yes,A,222,574,308,376,177,386,513,672,740,181,16. 05. 2022,,,,,,,,,,,
716792,"CZK 22,000",50.13141,14.47152,"Famfulíkova, Prague - Kobylisy",3 bedroom,Excellent,69 m²,"CZK 5,500","CZK 22,000",,Personal,Prefab concrete building,Partially furnished,7,No,No,No,Yes,Yes,Yes,No,C,148,483,222,580,208,458,315,372,138,,01. 06. 2022,,,,,,,,,,,
716785,"CZK 16,500",50.04257,14.44224,"Krčská, Prague - Krč",2 bedroom,Excellent,67 m²,"CZK 2,800","CZK 33,000",,Personal,Brick building,Furnished,4,No,No,Yes,No,No,No,No,F,240,223,273,437,194,256,488,269,737,273,01. 07. 2022,District heating,,,Top floor,,,,,,,
510207,"CZK 18,000",50.0889731,14.3043643,"U Valu, Prague - Ruzyně",1 bedroom with open-plan kitchen,Excellent,45 m²,"CZK 2,000","CZK 20,000",,Personal,Prefab concrete building,Partially furnished,5,No,No,No,No,No,Yes,No,C,225,486,448,435,345,492,357,"1,259",46,,,Central heating,1 to 10 years years,Premium materials and solutions,Middle floor,Overall,,,,,,
700087,"CZK 19,500",50.07173,14.41968,"Na Hrádku, Prague - Nové Město",2 bedroom,Excellent,50 m²,"CZK 4,000","CZK 19,500",,Personal,Brick building,Furnished,,No,No,Yes,No,No,No,No,G,138,519,100,168,160,80,339,287,459,360,19. 01. 2022,,,,,,,,,,,
324795,"CZK 20,000",50.0410429,14.3224894,"Bellušova, Prague - Stodůlky",2 bedroom with open-plan kitchen,Excellent,73 m²,"CZK 3,500","CZK 10,000",,Personal,Prefab concrete building,Furnished,4,Yes,No,Yes,Yes,Yes,Yes,Yes,,384,920,595,566,716,630,330,689,483,215,01. 07. 2022,District heating,10 to 30 years years,Premium materials and solutions,Middle floor,Overall,,,,,,
716778,"CZK 10,000",50.09795,14.35746,"Evropská, Prague - Vokovice",Small studio,Excellent,22 m²,"CZK 2,600","CZK 20,000",,Personal,Prefab concrete building,Partially furnished,10,Yes,No,Yes,No,No,Yes,No,G,151,395,240,221,121,251,208,104,997,355,01. 06. 2022,,,,,,,,,,,
509105,"CZK 13,500",50.1058662,14.4495428,"U Měšťanského pivovaru, Prague - Holešovice",1 bedroom,,49 m²,"CZK 4,200","CZK 20,000",,Cooperative,Brick building,Furnished,4,No,No,No,No,No,Yes,No,C,134,324,75,137,35,140,340,599,310,417,,,,,,,,,,,,
716190,"CZK 11,400",50.09068,14.45339,"Thámova, Prague - Karlín",Small studio,Excellent,28 m²,CZK 960,"CZK 11,400",,Personal,Brick building,Partially furnished,3,No,No,No,No,No,No,No,G,275,621,289,249,52,323,279,834,310,243,28. 04. 2022,,,,,,,,,,,
711585,"CZK 15,000",49.98832,14.41191,"Za Sídlištěm, Prague - Komořany",1 bedroom with open-plan kitchen,Excellent,50 m²,"CZK 2,000","CZK 20,000",,Personal,Prefab concrete building,Furnished,12,No,No,Yes,No,No,Yes,No,B,416,428,430,598,,,,,,,01. 04. 2022,,,,,,,,,,,
588838,"CZK 25,000",50.0863375,14.3311049,"Libocká, Prague - Liboc",1 bedroom with open-plan kitchen,New build,62 m²,"CZK 6,500","CZK 50,000",,Cooperative,Other,Unfurnished,,Yes,No,Yes,No,Yes,Yes,No,B,167,612,"1,210",716,"1,193","1,106",239,653,701,,01. 05. 2022,Central heating,1 to 10 years years,Premium materials and solutions,Ground floor,,Yes,,,,,
715722,"CZK 12,000",50.12741,14.5036,"Terezínská, Prague - Letňany",1 bedroom with open-plan kitchen,Good,54 m²,"CZK 4,500","CZK 16,500",,Personal,Brick building,Partially furnished,2,Yes,No,Yes,Yes,Yes,Yes,No,G,248,911,152,941,485,"1,055",269,586,238,,01. 06. 2022,,,,,,,,,,,
716761,"CZK 16,500",50.1069,14.56511,"Cíglerova, Prague - Černý Most",3 bedroom,Excellent,75 m²,"CZK 5,500","CZK 35,000",,Personal,Prefab concrete building,Furnished,7,No,No,No,No,No,Yes,No,C,51,506,83,"1,163",725,563,613,697,"1,410",389,09. 05. 2022,,,,,,,,,,,
534510,"CZK 14,500",50.1218065,14.4874006,"Litvínovská, Prague - Prosek",1 bedroom with open-plan kitchen,Excellent,49 m²,"CZK 3,500","CZK 30,000",,Personal,Prefab concrete building,Unfurnished,5,No,No,No,Yes,No,No,No,,298,894,250,832,594,510,96,185,263,171,01. 07. 2022,District heating,,,,Overall,,,,,,
599783,"CZK 16,900",50.098652,14.373412,"Zavadilova, Prague - Dejvice",1 bedroom,Excellent,46 m²,"CZK 3,500","CZK 20,400",,Personal,Brick building,Furnished,2,No,No,Yes,No,No,No,No,B,231,917,134,751,358,242,"1,013",604,727,152,01. 07. 2022,Central heating,,Standard materials and solutions,Middle floor,Overall,,,,,,
393866,"CZK 18,000",50.0692954,14.4739425,"Amurská, Prague - Vršovice",2 bedroom,,53 m²,"CZK 1,500","CZK 36,000",,Personal,Brick building,Partially furnished,4,No,No,Yes,No,No,Yes,No,,294,442,218,324,110,505,76,195,144,184,15. 06. 2022,,,,,,,,,,,
600532,"CZK 59,000",50.075681,14.408523,"Janáčkovo Nábřeží, Prague - Smíchov",5 bedroom,Excellent,165 m²,"CZK 12,000","CZK 60,000",,Personal,Brick building,Partially furnished,6,No,Yes,No,No,No,Yes,No,G,279,223,344,342,68,418,193,839,"1,059",309,11. 04. 2022,Central heating,1 to 10 years years,Premium materials and solutions,Top floor,,,,,,,
646251,"CZK 12,000",50.065706,14.433726,"Na Folimance, Prague - Vinohrady",Studio,Excellent,35 m²,"CZK 3,000","CZK 15,000",,Personal,Brick building,Furnished,4,Yes,No,No,No,Yes,Yes,No,D,244,444,188,579,162,360,212,265,171,319,06. 05. 2022,,,,,,,,,,,
697903,"CZK 17,000",50.05208,14.33443,"Wiedermannova, Prague - Stodůlky",1 bedroom with open-plan kitchen,New build,64 m²,"CZK 5,720","CZK 22,720",,Personal,Brick building,Partially furnished,1,Yes,No,No,No,No,Yes,No,G,344,729,279,694,682,249,662,777,922,508,03. 01. 2022,,1 to 10 years years,Standard materials and solutions,Middle floor,Interior,,3 m²,,,,
653851,"CZK 13,000",50.08344,14.509,"Počernická, Prague - Malešice",Studio,New build,35 m²,"CZK 3,400","CZK 15,000",,Personal,Brick building,Furnished,5,Yes,No,Yes,No,No,Yes,Yes,A,40,740,80,680,33,602,868,643,644,288,01. 06. 2022,Central heating,1 to 10 years years,,,,,,,,,
716153,"CZK 17,000",50.02973,14.59703,"Oty Bubeníčka, Prague - Uhříněves",Studio,New build,32 m²,"CZK 2,000","CZK 50,000",,Personal,Brick building,Furnished,4,No,No,Yes,Yes,Yes,Yes,No,B,153,292,295,401,213,265,711,814,918,101,01. 07. 2022,,,,,,,,,,,
714283,"CZK 21,900",50.05814,14.37359,"Nyklíčkova, Prague - Jinonice",1 bedroom with open-plan kitchen,New build,42 m²,"CZK 4,000",CZK 2,,Personal,Brick building,Furnished,1,No,Yes,Yes,No,Yes,Yes,Yes,C,156,365,313,"1,248",325,427,967,164,"1,424",210,03. 05. 2022,,,,,,,,,,,
277546,"CZK 27,499",50.073377,14.443233,"Lužická, Prague - Vinohrady",1 bedroom with open-plan kitchen,Excellent,76 m²,"CZK 4,999","CZK 65,000",,Personal,Brick building,Furnished,2,No,No,No,No,No,No,No,F,184,362,68,779,132,669,370,549,491,244,01. 05. 2022,Gas boiler,10 to 30 years years,Premium materials and solutions,Middle floor,Interior,,,,,,
648716,"CZK 12,000",50.04791,14.556934,"Boloňská, Prague - Horní Měcholupy",Studio,Excellent,49 m²,"CZK 5,000","CZK 15,000",,Personal,Prefab concrete building,Partially furnished,,No,No,Yes,No,Yes,No,No,C,34,904,139,981,346,"1,048",552,404,678,335,01. 06. 2022,,1 to 10 years years,,,,,,,,,
485350,"CZK 10,000",50.1283194,14.4685875,Prague - Kobylisy,Studio,,25 m²,"CZK 2,200","CZK 10,000",,Personal,Prefab concrete building,Partially furnished,6,No,No,No,No,No,No,No,,311,185,134,207,250,156,409,409,"1,137",155,,,,,,,,,,,,
538565,"CZK 24,800",50.0355664,14.4120967,"Ke Krči, Prague - Braník",2 bedroom with open-plan kitchen,,82 m²,"CZK 2,200","CZK 24,800",,Personal,Brick building,Furnished,3,Yes,No,No,No,No,No,No,A,59,357,126,119,310,307,186,"1,295",325,,18. 05. 2022,Gas boiler,1 to 10 years years,Premium materials and solutions,Attic,Overall,,,,,,
497894,"CZK 37,000",50.0947079,14.4561382,"Březinova, Prague - Karlín",2 bedroom with open-plan kitchen,,76 m²,"CZK 5,000","CZK 70,000",,Personal,Brick building,Furnished,1,No,No,No,No,No,Yes,No,,136,648,119,388,25,295,302,"1,209",346,376,,Central heating,1 to 10 years years,,Middle floor,Overall,,,,,,
716710,"CZK 11,500",50.08328,14.37314,"Šlikova, Prague - Břevnov",Studio,Excellent,33 m²,CZK 524,"CZK 11,500",,Personal,Brick building,Unfurnished,4,No,No,No,No,No,No,No,G,260,773,258,273,236,291,379,688,506,779,02. 05. 2022,,,,,,,,,,,
698535,"CZK 10,000",50.13068,14.43328,"Bukolská, Prague - Bohnice",Studio,Excellent,30 m²,"CZK 2,500","CZK 10,000",,Personal,Prefab concrete building,Furnished,2,No,No,No,No,No,Yes,No,G,293,147,573,55,897,651,201,236,80,,23. 05. 2022,Central heating,,,,,,,,,,
649500,"CZK 17,000",50.059194,14.403452,"Pod Kesnerkou, Prague - Smíchov",1 bedroom with open-plan kitchen,Excellent,53 m²,"CZK 4,000","CZK 21,000",,Personal,Brick building,Furnished,1,No,No,No,No,Yes,No,Yes,G,15,858,411,"1,303",399,415,979,"1,118",996,258,01. 05. 2022,Gas boiler,,Standard materials and solutions,,,,,,,,
568519,"CZK 11,500",50.0905831,14.4805142,"Jeseniova, Prague - Žižkov",Studio,Excellent,36 m²,"CZK 2,600","CZK 10,000",,Personal,Brick building,Partially furnished,3,No,No,Yes,No,No,No,No,E,289,904,132,467,227,528,502,127,226,228,01. 06. 2022,Gas boiler,,Standard materials and solutions,,Interior,,,,,,
716108,"CZK 14,000",50.04626,14.45966,"Hodonínská, Prague - Michle",Studio,Excellent,30 m²,"CZK 3,500","CZK 28,000",,Personal,Brick building,Partially furnished,1,No,No,Yes,No,No,No,No,B,172,498,97,591,165,570,403,230,189,118,01. 05. 2022,,,,,,,,,,,
716673,"CZK 22,000",50.0849492,14.3771226,"Bělohorská, Prague - Břevnov",3 bedroom,Excellent,84 m²,"CZK 4,000","CZK 27,000",,Personal,Brick building,Furnished,2,No,No,No,No,No,Yes,No,G,109,881,5,453,0,218,138,341,238,216,01. 07. 2022,Gas boiler,over 50 years years,Standard materials and solutions,Middle floor,Interior,,,,,,
716689,"CZK 15,500",50.09936,14.42266,"Jirečkova, Prague - Holešovice",2 bedroom,Good,78 m²,"CZK 3,700","CZK 20,000",,Personal,Brick building,Unfurnished,4,No,No,Yes,No,No,No,No,G,176,147,165,167,41,207,277,550,376,,01. 07. 2022,,,,,,,,,,,
716686,"CZK 15,000",50.00921,14.40993,"Na Holém vrchu, Prague - Modřany",2 bedroom,Good,60 m²,"CZK 5,000","CZK 18,000",,Personal,Brick building,Partially furnished,1,No,Yes,No,No,No,No,No,D,200,854,774,756,562,674,535,899,"1,465",519,01. 07. 2022,,,,,,,,,,,
624625,"CZK 19,000",50.0991748,14.3997706,"Valerije Pavloviče Čkalova, Prague - Bubeneč",2 bedroom,Good,80 m²,"CZK 1,125","CZK 41,326",,Personal,Brick building,Unfurnished,1,Yes,No,No,No,No,No,No,D,225,377,85,131,36,275,278,654,368,180,15. 09. 2020,Gas boiler,,Standard materials and solutions,Middle floor,Interior,,,,,,
716097,"CZK 16,700",50.08415,14.44908,"Víta Nejedlého, Prague - Žižkov",1 bedroom with open-plan kitchen,New build,47 m²,CZK 500,"CZK 30,000",,Personal,Brick building,Partially furnished,2,No,No,No,No,No,No,No,G,287,125,75,152,66,146,133,200,244,514,01. 05. 2022,,,,,,,,,,,
705981,"CZK 16,500",50.085698,14.4449948,"Husinecká, Prague - Žižkov",1 bedroom with open-plan kitchen,Excellent,50 m²,CZK 670,"CZK 30,000",,Personal,Other,Partially furnished,2,No,No,No,No,No,No,No,C,255,222,50,211,7,189,62,278,94,553,01. 06. 2022,Other,1 to 10 years years,Standard materials and solutions,Middle floor,Overall,,,,,,
716674,"CZK 11,000",50.07342,14.50766,"V Olšinách, Prague - Strašnice",Studio,Excellent,30 m²,"CZK 2,000","CZK 25,000",,Personal,Brick building,Furnished,1,No,No,No,No,No,No,No,G,130,"1,413",284,"1,266",254,664,373,764,"1,235",451,01. 06. 2022,,,,,,,,,,,
282676,"CZK 15,000",50.0686763,14.3091212,"Žufanova, Prague - Řepy",1 bedroom with open-plan kitchen,Excellent,45 m²,"CZK 3,000","CZK 25,000",,Personal,Prefab concrete building,Furnished,4,No,No,No,No,No,Yes,No,B,227,598,447,816,474,336,342,438,"1,207",51,10. 05. 2022,Central heating,,,,,,,,,,
463258,"CZK 17,900",50.0648387,14.4266126,"Nezamyslova, Prague - Nusle",1 bedroom with open-plan kitchen,Good,44 m²,CZK 590,"CZK 17,900",,Personal,Brick building,Partially furnished,2,Yes,No,Yes,No,Yes,No,No,,118,606,34,402,51,332,587,637,455,268,01. 07. 2022,Other,,Standard materials and solutions,Middle floor,Overall,,,,,,
716664,"CZK 16,000",50.08584,14.34099,"Mahulenina, Prague - Břevnov",1 bedroom with open-plan kitchen,Excellent,54 m²,"CZK 4,000","CZK 16,000",,Personal,Prefab concrete building,Partially furnished,2,No,No,No,No,No,No,No,C,173,832,481,536,337,518,225,387,925,306,15. 05. 2022,,,,,,,,,,,
691264,"CZK 13,000",50.10614,14.5219,"Nepelova, Prague - Hloubětín",Studio,New build,30 m²,"CZK 2,000","CZK 15,000",,Personal,Brick building,Partially furnished,2,Yes,No,No,No,No,Yes,No,G,435,"1,338",677,"1,319",890,686,"1,267","1,297",846,269,01. 06. 2022,,,,,,,,,,,
697081,"CZK 44,000",50.08294,14.4439,"U Rajské zahrady, Prague - Žižkov",2 bedroom with open-plan kitchen,Excellent,96 m²,"CZK 6,560","CZK 88,000",,Personal,Brick building,Furnished,1,No,No,Yes,No,No,Yes,No,B,310,517,418,403,183,453,300,306,676,106,25. 05. 2022,,,,,,,,,,,
536098,"CZK 14,000",50.090469220676,14.451218128051,"Pernerova, Prague - Karlín",Studio,Excellent,33 m²,"CZK 1,500","CZK 30,000",,Personal,Brick building,Unfurnished,2,No,No,No,No,No,Yes,No,,367,465,234,364,151,430,172,992,425,360,01. 07. 2022,Other,,,,,,,,,,
716248,"CZK 15,500",50.06945,14.46176,"Arménská, Prague - Vršovice",2 bedroom,Excellent,53 m²,"CZK 2,000","CZK 22,000",,Personal,Brick building,Partially furnished,4,Yes,No,Yes,No,No,Yes,No,G,259,736,287,410,228,522,255,264,614,357,01. 06. 2022,,,,,,,,,,,
438163,"CZK 15,000",50.1295252,14.4159214,"Ratibořská, Prague - Bohnice",1 bedroom with open-plan kitchen,Excellent,42 m²,"CZK 3,264","CZK 15,000",,Personal,Prefab concrete building,Partially furnished,7,No,No,No,No,Yes,Yes,No,,184,402,362,332,325,409,495,643,"1,423",196,01. 06. 2022,District heating,1 to 10 years years,Standard materials and solutions,Middle floor,Overall,,,,,,
697090,"CZK 18,000",50.03557,14.48806,"Koštířova, Prague - Chodov",1 bedroom with open-plan kitchen,Good,82 m²,"CZK 4,950","CZK 36,000",,Personal,Brick building,Partially furnished,4,No,Yes,No,No,Yes,Yes,No,C,466,767,175,601,371,567,857,962,704,346,02. 05. 2022,Gas boiler,10 to 30 years years,Standard materials and solutions,Top floor,Overall,,,,,,
716625,"CZK 17,000",50.0424646,14.4441971,"Kremličkova, Prague - Krč",2 bedroom,Good,67 m²,"CZK 8,000","CZK 55,000",,Cooperative,Brick building,Unfurnished,2,No,No,Yes,No,No,No,No,G,326,335,188,461,218,264,365,196,849,383,02. 05. 2022,,,,,,,,,,,
563070,"CZK 20,250",50.1086988,14.375396,"Na Pískách, Prague - Dejvice",2 bedroom with open-plan kitchen,,64 m²,"CZK 3,160","CZK 40,500",,Personal,Brick building,Partially furnished,1,No,No,No,No,No,No,No,B,57,656,293,738,469,438,289,277,,,01. 06. 2022,,,,,,,,,,,
