Listing ID,Price,Latitude,Longitude,District,Layout,Floor Space,Fees,Furnishing and Fittings,Floor,Balcony,Terrace,Cellar,Loggia,Parking,Lift,Garage,Available from,Public transport stop,Post office,Shop,Bank,Restaurant,Pharmacy,School,Kindergarten,Sports field,Playground,Condition,Refundable security deposit,Ownership Type,Building Type,Age,Design,Heating,Total number of floors,Renovation,PENB,New building,Administration fee,Front garden,Developer name,Project name,Kód jednotky
694733,"CZK 21,000",50.1057314,14.44422,"U Průhonu b, Prague - Holešovice",Studio,32 m²,"CZK 7,000",Furnished,1,Yes,Yes,No,No,No,Yes,Yes,29. 01. 2022,299,437,281,449,312,304,607,789,18,459,,,,,,,,,,,,,,,,
703789,"CZK 13,600",50.05981,14.44846,"Dolní, Prague - Nusle",Studio,31 m²,"CZK 1,673",Unfurnished,1,No,No,Yes,No,No,No,No,01. 02. 2022,137,918,172,285,125,690,367,533,799,140,Excellent,"CZK 27,200",Personal,Brick building,over 50 years years,Premium materials and solutions,Gas boiler,Middle floor,Overall,G,,,,,,
622376,"CZK 23,900",50.080849,14.500276,"Počernická, Prague - Malešice",2 bedroom with open-plan kitchen,75 m²,"CZK 4,900",,7,No,Yes,Yes,No,Yes,Yes,Yes,01. 03. 2022,95,238,12,14,129,91,283,594,874,16,New build,"CZK 23,900",Personal,Brick building,,,,,,B,,,,,,
700302,"CZK 44,888",50.0907943,14.427063,"Dlouhá, Prague - Staré Město",2 bedroom with open-plan kitchen,62 m²,"CZK 14,962",Furnished,3,No,No,No,No,No,Yes,No,22. 02. 2022,2,191,16,48,1,127,128,306,209,259,,,,,,,,,,,,,,,,
42544,"CZK 12,500",50.05557395,14.48522035,"Záběhlická, Prague - Záběhlice",Studio,38 m²,"CZK 3,000",Furnished,2,No,No,Yes,No,No,No,No,01. 03. 2022,109,"1,437",285,"1,426",432,910,867,"1,071",335,471,Excellent,"CZK 15,500",Personal,Brick building,1 to 10 years years,Standard materials and solutions,Central heating,Middle floor,,,,,,,,
700495,"CZK 28,500",50.07847,14.41726,"Křemencova, Prague - Nové Město",3 bedroom with open-plan kitchen,131 m²,CZK 600,Partially furnished,2,No,No,Yes,No,No,Yes,No,22. 01. 2022,128,495,17,244,12,420,252,307,418,492,Excellent,"CZK 28,500",Personal,Brick building,,,Gas boiler,,,,,,,,,
704109,"CZK 16,000",50.09332,14.44768,"Sokolovská, Prague - Karlín",2 bedroom,57 m²,CZK 800,Partially furnished,1,No,No,No,No,No,No,No,01. 02. 2022,129,232,52,262,32,383,446,"1,205",539,211,Excellent,"CZK 16,000",Personal,Brick building,,,,,,,,,,,,
72896,"CZK 12,000",50.0768004519,14.4043958187,"Arbesovo náměstí, Prague - Smíchov",Studio,37 m²,"CZK 2,200",Unfurnished,3,No,No,No,No,No,No,No,01. 02. 2022,77,217,16,68,72,104,224,909,729,358,,"CZK 14,200",Personal,Brick building,,,Central heating,Middle floor,,G,,,,,,
643615,"CZK 10,000",50.060456,14.401308,"Nad Koulkou, Prague - Smíchov",1 bedroom,30 m²,CZK 750,Partially furnished,1,No,No,No,No,No,No,No,01. 02. 2021,147,825,190,"1,078",134,327,754,876,816,694,Excellent,"CZK 15,000",Personal,Brick building,,,,,,G,,,,,,
700489,"CZK 13,500",50.1069733,14.497176624888,"Ocelářská, Prague - Vysočany",Studio,28 m²,"CZK 2,500",Furnished,4,Yes,No,Yes,Yes,Yes,Yes,Yes,01. 02. 2022,358,734,452,568,442,475,550,739,409,266,New build,"CZK 15,000",Personal,Brick building,,,,,,B,,,,,,
177841,"CZK 20,000",50.1305193,14.4114826,"Zelenohorská, Prague - Bohnice",2 bedroom with open-plan kitchen,76 m²,"CZK 5,000",Partially furnished,8,No,No,No,Yes,No,Yes,No,,400,788,344,718,83,784,587,421,345,,Excellent,"CZK 40,000",Personal,Prefab concrete building,,,District heating,Middle floor,Overall,,,,,,,
689424,"CZK 13,000",50.069,14.4921,"Průběžná, Prague - Strašnice",2 bedroom,56 m²,"CZK 2,000",Furnished,4,Yes,No,Yes,No,No,Yes,No,31. 10. 2021,46,"1,017",210,721,99,227,252,572,322,160,Good,"CZK 15,000",Other,Brick building,,,,,,B,,,,,,
704105,"CZK 19,000",50.02361,14.57837,"V Pitkovičkách, Prague - Pitkovice",1 bedroom with open-plan kitchen,57 m²,"CZK 3,000",Partially furnished,3,No,Yes,No,No,Yes,No,No,28. 01. 2022,86,"1,438","1,260",177,,,,,,,New build,"CZK 30,000",Personal,Brick building,1 to 10 years years,Premium materials and solutions,Electric boiler,Top floor,,A,Yes,,,,,
699519,"CZK 18,760",50.0726277,14.3919683,"Grafická, Prague - Smíchov",1 bedroom with open-plan kitchen,79 m²,"CZK 6,253",Furnished,6,No,No,No,No,No,No,No,01. 02. 2022,187,"1,029",127,720,136,847,206,901,"1,059",126,,,,,,,,,,,,,,,,
337164,"CZK 10,500",50.10301,14.51164,"Poděbradská, Prague - Vysočany",Studio,33 m²,"CZK 3,500",Partially furnished,1,Yes,No,No,No,No,No,No,,177,"1,170",279,"1,000",323,783,281,"1,097","1,286",824,Excellent,"CZK 15,000",Personal,Other,10 to 30 years years,Standard materials and solutions,District heating,Middle floor,,,,,,,,
625951,"CZK 13,000",50.08211,14.318979,Prague - Ruzyně,Small studio,35 m²,"CZK 1,500",Furnished,1,No,No,No,No,No,No,No,01. 10. 2021,277,228,328,"1,199",995,407,,,,,New build,"CZK 20,000",Personal,Brick building,1 to 10 years years,,Gas boiler,Top floor,,A,,,,,,
679995,"CZK 28,500",50.0643299,14.4102127,"Strakonická, Prague - Smíchov",1 bedroom,43 m²,"CZK 9,500",Furnished,7,No,No,No,No,No,Yes,No,29. 01. 2022,211,382,250,989,170,745,812,"1,050",387,543,,,,,,,,,,,,,,,,
704097,"CZK 17,000",50.03424,14.52726,"Mirošovská, Prague - Háje",3 bedroom,75 m²,"CZK 5,500",Furnished,1,Yes,No,No,No,No,No,No,01. 02. 2022,60,704,391,398,281,182,367,219,342,281,Excellent,"CZK 34,000",Personal,Brick building,,,,,,G,,,,,,
700478,"CZK 18,000",50.07486,14.3615,"Na Císařce, Prague - Smíchov",1 bedroom with open-plan kitchen,59 m²,"CZK 2,750",Partially furnished,1,No,Yes,No,No,Yes,Yes,Yes,01. 02. 2022,523,"1,109","1,464",797,"1,041",670,325,130,,,Excellent,"CZK 27,000",Personal,Other,,,,,,G,,,,,,
519849,"CZK 21,000",50.0771546,14.4683767,Prague - Vinohrady,2 bedroom,59 m²,"CZK 3,500",Furnished,2,Yes,No,No,No,No,Yes,No,01. 03. 2022,141,452,19,213,144,197,107,869,229,124,Excellent,"CZK 24,980",Personal,Brick building,1 to 10 years years,,Central heating,Middle floor,Interior,,,,,,,
237284,"CZK 11,600",50.0721538,14.4054179,"Lidická, Prague - Smíchov",Studio,34 m²,"CZK 1,300",Partially furnished,4,No,No,No,No,No,No,No,,143,490,134,78,92,375,583,"1,063","1,258",726,Good,"CZK 12,900",Personal,Brick building,,Standard materials and solutions,Central heating,Middle floor,,G,,,,,,
118686,"CZK 30,000",50.0695036,14.3174676,"Na Fialce II, Prague - Řepy",2 bedroom with open-plan kitchen,110 m²,"CZK 7,000",Furnished,2,Yes,No,No,No,No,No,Yes,01. 06. 2022,358,"1,261",962,"1,327",648,"1,114",770,535,577,211,Excellent,"CZK 70,000",Personal,Brick building,10 to 30 years years,Premium materials and solutions,Gas boiler,Middle floor,,D,,,,,,
704095,"CZK 19,990",50.02384,14.52323,"Bohúňova, Prague - Chodov",2 bedroom with open-plan kitchen,76 m²,"CZK 1,876",Furnished,7,Yes,No,Yes,No,No,Yes,No,27. 01. 2022,352,"1,139",339,"1,070",261,618,231,742,"1,166",205,Excellent,"CZK 23,000",Personal,Brick building,10 to 30 years years,Standard materials and solutions,Central heating,Middle floor,Interior,C,,,,,,
704094,"CZK 15,990",50.13620277777,14.50588888888,"Tupolevova, Prague - Letňany",3 bedroom,70 m²,"CZK 3,698",Partially furnished,7,No,No,No,Yes,No,Yes,No,,206,929,180,277,364,407,296,548,243,380,Good,"CZK 19,688",Personal,Prefab concrete building,,,,,,G,,"CZK 19,688

                                
                                
                
i",,,,
537070,"CZK 16,000",50.1008494,14.4478499,"Jateční, Prague - Holešovice",1 bedroom with open-plan kitchen,53 m²,"CZK 2,000",Partially furnished,1,No,No,No,No,No,No,No,01. 03. 2022,185,285,181,396,199,206,218,370,560,165,Excellent,"CZK 16,000",Personal,Prefab concrete building,,Premium materials and solutions,,,Overall,D,,,,,,
686085,"CZK 27,000",50.0723321,14.4399493,"Jana Masaryka, Prague - Vinohrady",2 bedroom,82 m²,"CZK 9,000",Furnished,3,No,No,No,No,No,Yes,No,29. 01. 2022,155,369,147,651,45,545,205,328,671,484,,,,,,,,,,,,,,,,
704085,"CZK 11,500",50.0869795,14.4446955,"Husitská, Prague - Žižkov",1 bedroom with open-plan kitchen,42 m²,CZK 750,Partially furnished,3,No,Yes,No,No,No,No,No,28. 01. 2022,151,665,424,620,142,633,400,440,482,450,Excellent,"CZK 13,000",Personal,Brick building,,,,,,G,,,,,,
691513,"CZK 12,700",50.0085822,14.4666058,"Na Domovině, Prague - Libuš",Studio,40 m²,"CZK 2,500",Furnished,3,No,No,Yes,Yes,No,Yes,No,28. 01. 2022,222,567,435,426,479,965,"1,472",,,,New build,"CZK 20,000",Personal,Brick building,,Premium materials and solutions,District heating,,,C,Yes,,,,,
641328,"CZK 14,000",50.054931,14.441554,"Nad Jezerkou, Prague - Nusle",1 bedroom with open-plan kitchen,45 m²,"CZK 2,800",Furnished,2,No,No,Yes,No,No,No,No,01. 02. 2022,103,"1,015",212,450,80,571,351,326,"1,044",299,Excellent,"CZK 25,000",Personal,Brick building,1 to 10 years years,,,Middle floor,Overall,G,,,,,,
588338,"CZK 14,000",50.086071,14.563671,"U Hostavického potoka, Prague - Hostavice",1 bedroom with open-plan kitchen,51 m²,"CZK 3,100",Partially furnished,2,Yes,No,No,No,No,Yes,Yes,15. 02. 2022,260,236,603,73,,,,,,,New build,"CZK 20,000",Personal,Brick building,10 to 30 years years,Standard materials and solutions,District heating,Middle floor,,C,,,,,,
680093,"CZK 32,400",50.091319,14.4234523,"U Obecního dvora, Prague - Staré Město",2 bedroom,62 m²,"CZK 10,800",Furnished,2,No,No,No,No,No,Yes,No,29. 01. 2022,116,432,102,253,102,270,297,393,201,165,,,,,,,,,,,,,,,,
680056,"CZK 36,000",50.079465,14.4353199,"Mánesova, Prague - Vinohrady",1 bedroom with open-plan kitchen,59 m²,"CZK 12,000",Furnished,-1,No,No,No,No,No,No,No,29. 01. 2022,156,408,244,342,59,242,281,281,533,788,,,,,,,,,,,,,,,,
704080,"CZK 10,990",50.06690055555,14.45518166666,"Sportovní, Prague - Vršovice",Studio,25 m²,CZK 840,Furnished,,No,No,No,No,No,No,No,,93,23,92,272,64,272,327,516,279,390,Good,"CZK 11,830",Personal,Brick building,,,,,,G,,"CZK 11,830

                                
                                
                
i",,,,
367147,"CZK 17,800",50.0688382,14.3125558,"Laudova, Prague - Řepy",3 bedroom,80 m²,"CZK 5,500",Partially furnished,4,Yes,No,Yes,Yes,Yes,No,No,,138,726,624,793,647,533,310,193,924,105,Excellent,,Personal,Other,,,Central heating,Middle floor,Overall,,,,,,,
693718,"CZK 15,000",50.1401161,14.5074049,"Místecká, Prague - Letňany",1 bedroom with open-plan kitchen,60 m²,"CZK 2,000",Furnished,8,No,No,No,No,No,Yes,No,Ihned,245,774,94,784,270,100,302,359,458,179,New build,"CZK 30,000",Personal,Brick building,,Premium materials and solutions,,Middle floor,Overall,G,,,,,,
661718,"CZK 20,000",50.0982092,14.4844856,Prague - Vysočany,2 bedroom with open-plan kitchen,58 m²,"CZK 4,000",Partially furnished,1,Yes,No,Yes,No,Yes,No,No,27. 01. 2022,294,"1,091",534,"1,005",452,854,574,490,546,181,Excellent,"CZK 40,000",Personal,Brick building,,Premium materials and solutions,Gas boiler,,Overall,B,,,,,,
699274,"CZK 12,500",50.09689,14.3627,"Kladenská, Prague - Vokovice",Studio,30 m²,"CZK 2,000",Partially furnished,2,No,No,No,No,No,No,No,27. 01. 2022,295,99,187,303,211,244,479,485,"1,223",258,Excellent,"CZK 14,500",Personal,Brick building,,,,,,G,,,,,,
647193,"CZK 14,900",50.088368,14.458318,"Koněvova, Prague - Žižkov",1 bedroom with open-plan kitchen,44 m²,"CZK 3,300",Partially furnished,4,Yes,No,Yes,No,Yes,Yes,No,01. 04. 2022,191,272,178,281,131,206,334,505,187,404,New build,"CZK 30,000",Personal,Low-energy building,1 to 10 years years,,Central heating,Middle floor,,B,,,,,,
456329,"CZK 29,000",50.0380392,14.3213519,"Wiesenthalova, Prague - Řeporyje",3 bedroom with open-plan kitchen,84 m²,"CZK 5,500",Partially furnished,3,Yes,Yes,Yes,No,No,Yes,Yes,15. 02. 2022,109,"1,161",806,"1,019",617,817,720,"1,101",755,209,,"CZK 29,000",Personal,Other,1 to 10 years years,,District heating,Top floor,,C,,,,,,
619958,"CZK 26,000",50.036541,14.383217,"Pražského, Prague - Hlubočepy",4 bedroom,90 m²,"CZK 6,000",Furnished,2,Yes,No,No,No,No,Yes,No,07. 02. 2022,123,683,567,597,584,628,588,578,540,293,Excellent,"CZK 26,000",Personal,Other,10 to 30 years years,,District heating,Middle floor,Interior,G,,,,,,
650116,"CZK 11,500",50.1076654,14.5464152,"Lehovecká, Prague - Hloubětín",Studio,33 m²,"CZK 3,700",Partially furnished,6,No,No,Yes,Yes,Yes,Yes,No,10. 02. 2021,404,"1,149",440,818,604,942,521,914,"1,132",642,New build,"CZK 10,000",Personal,Low-energy building,1 to 10 years years,,,,,B,Yes,,,,,
704076,"CZK 15,990",49.969501495361,14.38659954071,"Jaromíra Vejvody, Prague - Zbraslav",1 bedroom with open-plan kitchen,63 m²,"CZK 2,557",Furnished,4,Yes,No,No,No,No,Yes,No,,182,"1,009",246,"1,100",321,140,674,244,163,,Excellent,"CZK 18,547",Personal,Brick building,,,,,,C,,"CZK 18,547

                                
                                
                
i",,,,
155003,"CZK 14,900",50.0741843,14.3824809,Prague - Smíchov,2 bedroom,60 m²,"CZK 3,500",Furnished,3,No,No,No,No,No,No,No,10. 01. 2022,297,"1,028",584,"1,210",632,"1,268",607,212,"1,125",312,Good,"CZK 20,000",Personal,Brick building,,,,,,,,,,,,
698322,"CZK 17,500",50.07683,14.46802,"náměstí Jiřího z Lobkovic, Prague - Vinohrady",1 bedroom with open-plan kitchen,66 m²,"CZK 2,200",Partially furnished,3,No,No,Yes,Yes,No,Yes,No,07. 02. 2022,147,439,67,299,57,280,20,784,143,118,Excellent,"CZK 50,000",Personal,Brick building,10 to 30 years years,Standard materials and solutions,District heating,Middle floor,Overall,D,,,,,,
690649,"CZK 11,000",49.98979,14.4071,"Na Homoli, Prague - Komořany",1 bedroom with open-plan kitchen,42 m²,"CZK 2,500",Unfurnished,,No,No,Yes,No,No,No,No,01. 02. 2022,241,153,201,"1,159",337,,,,,,Excellent,"CZK 15,000",Personal,Brick building,,,,,,G,,,,,,
680769,"CZK 19,500",50.0793798,14.4577498,Prague - Žižkov,2 bedroom,74 m²,"CZK 6,500",Furnished,1,No,No,No,No,No,No,No,01. 03. 2022,242,533,113,313,14,383,436,396,724,151,Excellent,"CZK 39,000",Personal,Brick building,,,,,,G,,,,,,
704074,"CZK 12,500",50.13676,14.50579,Prague - Letňany,1 bedroom with open-plan kitchen,42 m²,"CZK 3,000",Partially furnished,8,No,No,No,No,Yes,Yes,No,01. 02. 2022,268,991,242,339,426,415,234,611,305,318,Excellent,"CZK 12,500",Personal,Other,,,,,,G,,,,,,
704072,"CZK 14,500",50.07063,14.37678,"Plzeňská, Prague - Smíchov",1 bedroom with open-plan kitchen,60 m²,"CZK 1,000",Furnished,1,No,No,No,No,No,Yes,No,01. 03. 2022,214,84,178,459,208,567,280,687,712,346,Excellent,"CZK 29,000",Personal,Brick building,,,,,,G,,,,,,
460187,"CZK 12,400",50.0093964,14.4287506,"Angelovova, Prague - Modřany",1 bedroom,31 m²,"CZK 3,530",Furnished,2,No,No,Yes,No,Yes,Yes,No,01. 03. 2022,381,"1,034",126,"1,010",153,"1,035",209,437,285,209,Excellent,"CZK 15,900",Cooperative,Prefab concrete building,,Premium materials and solutions,District heating,,,D,,,,,,
704069,"CZK 14,990",50.04805416666,14.30194138888,"Svitákova, Prague - Stodůlky",1 bedroom with open-plan kitchen,46 m²,"CZK 4,107",Furnished,1,No,No,No,No,Yes,Yes,No,,422,366,207,378,"1,151","1,119",746,907,87,,New build,"CZK 19,097",Personal,Brick building,,,,,,C,Yes,"CZK 19,097

                                
                                
                
i",,,,
700476,"CZK 17,000",50.08624,14.51552,"Ungarova, Prague - Malešice",1 bedroom with open-plan kitchen,57 m²,"CZK 4,000",Partially furnished,1,Yes,No,Yes,No,Yes,Yes,Yes,24. 01. 2022,261,"1,170",703,"1,322",273,726,599,"1,097",19,253,Excellent,"CZK 30,000",Personal,Low-energy building,1 to 10 years years,,District heating,Raised ground floor,,C,,,,,,
596906,"CZK 24,200",50.054838,14.399466,"U Dívčích Hradů, Prague - Smíchov",2 bedroom with open-plan kitchen,64 m²,"CZK 3,300",Partially furnished,1,Yes,Yes,Yes,No,Yes,Yes,Yes,01. 04. 2022,136,"1,107",533,"1,024",522,"1,094",614,608,557,,New build,"CZK 24,200",Personal,Other,1 to 10 years years,Premium materials and solutions,,,,B,Yes,,28 m²,,,
469902,"CZK 14,000",50.0721293,14.4572455,"Mexická, Prague - Vršovice",1 bedroom with open-plan kitchen,58 m²,CZK 700,Partially furnished,4,No,No,No,No,No,Yes,No,01. 04. 2022,155,665,114,442,1,440,254,383,676,377,Excellent,"CZK 25,000",Personal,Brick building,,,Gas boiler,,,,,,,,,
627828,"CZK 24,900",50.038775,14.395989,"Na Srpečku, Prague - Hlubočepy",3 bedroom,83 m²,"CZK 3,000",Partially furnished,1,No,Yes,Yes,No,Yes,No,No,01. 05. 2022,138,776,733,795,620,578,654,,,,Excellent,"CZK 24,900",Personal,Brick building,1 to 10 years years,Standard materials and solutions,Gas boiler,Raised ground floor,Overall,B,,,600 m²,,,
423520,"CZK 14,400",50.1296248,14.4611519,"Šiškova, Prague - Kobylisy",Studio,45 m²,"CZK 2,396",Furnished,10,No,No,No,No,No,Yes,No,06. 02. 2022,127,783,107,629,334,441,533,180,853,52,Excellent,"CZK 16,800",Cooperative,Prefab concrete building,,Premium materials and solutions,District heating,Middle floor,Interior,B,,,,,,
447159,"CZK 26,000",50.0608762,14.2791488,"Věstonická, Prague - Zličín",2 bedroom with open-plan kitchen,82 m²,,Furnished,3,Yes,Yes,Yes,No,No,Yes,Yes,01. 03. 2022,163,771,"1,271","1,201",995,"1,325",673,100,,,Excellent,"CZK 26,000",Personal,Brick building,,Standard materials and solutions,Central heating,Top floor,,C,,,,,,
690506,"CZK 54,188",50.0809579,14.4249745,"Vodičkova, Prague - Nové Město",1 bedroom,35 m²,"CZK 18,062",Furnished,4,No,No,No,No,No,No,No,29. 01. 2022,134,476,148,50,45,79,203,785,249,355,,,,,,,,,,,,,,,,
704063,"CZK 16,000",50.06615,14.36774,"K Zastávce, Prague - Košíře",3 bedroom,77 m²,"CZK 3,000",Partially furnished,2,No,No,No,No,No,Yes,No,28. 01. 2022,577,850,376,659,591,619,672,"1,091",477,479,Good,"CZK 32,000",Cooperative,Prefab concrete building,,,,,,G,,,,,,
326191,"CZK 9,000",50.1160844,14.5019544,"Nad Krocínkou, Prague - Prosek",1 bedroom with open-plan kitchen,45 m²,"CZK 3,000",Partially furnished,,No,No,No,No,No,No,No,,112,898,271,326,357,404,699,657,539,240,,,Personal,Brick building,,,,,,,,,,,,
704062,"CZK 11,990",50.12341805555,14.63142388888,"U Zimoviště, Prague - Horní Počernice",1 bedroom with open-plan kitchen,57 m²,"CZK 2,319",Partially furnished,2,No,No,No,No,No,No,No,,355,764,"1,469",778,659,362,,,,,New build,"CZK 14,309",Personal,Brick building,,,,,,B,Yes,"CZK 14,309

                                
                                
                
i",,,,
553489,"CZK 24,000",50.0691881,14.3994734,"Na Zatlance, Prague - Smíchov",2 bedroom with open-plan kitchen,79 m²,"CZK 3,700",Unfurnished,3,No,No,Yes,No,Yes,Yes,Yes,01. 02. 2022,214,69,81,454,198,176,360,584,799,336,Excellent,"CZK 28,000",Personal,Brick building,1 to 10 years years,Premium materials and solutions,Gas boiler,,,C,,,,,,
700454,"CZK 14,500",50.03169,14.53943,"Štichova, Prague - Háje",2 bedroom with open-plan kitchen,56 m²,"CZK 4,000",Furnished,5,No,No,No,Yes,No,Yes,No,01. 02. 2022,374,724,647,692,479,855,648,350,714,207,Good,"CZK 20,000",Personal,Prefab concrete building,,,,,,G,,,,,,
132016,"CZK 18,000",50.1010657,14.5049,"U Harfy, Prague - Vysočany",2 bedroom,95 m²,CZK 450,Partially furnished,2,Yes,No,No,No,No,No,No,01. 06. 2018,221,"1,132",241,963,286,745,243,"1,059","1,249",787,,"CZK 18,000",Personal,Brick building,,,,,,,,,,,,
623290,"CZK 17,500",50.064877,14.42824,"Jaromírova, Prague - Nusle",1 bedroom with open-plan kitchen,37 m²,"CZK 3,400",,2,No,No,No,No,No,No,No,01. 06. 2021,150,490,83,509,147,216,470,608,470,365,Excellent,"CZK 35,000",Personal,Brick building,,,,,,B,,,,,,
129979,"CZK 18,500",50.0775642,14.4239107,"Školská, Prague - Nové Město",2 bedroom,70 m²,"CZK 4,000",Furnished,2,No,No,No,No,No,No,No,16. 01. 2022,173,601,24,304,52,294,218,354,350,291,,"CZK 37,000",Personal,Brick building,10 to 30 years years,Standard materials and solutions,Gas boiler,Middle floor,Interior,,,,,,,
278595,"CZK 13,000",50.0568456,14.400103,"Nad Kesnerkou, Prague - Smíchov",1 bedroom with open-plan kitchen,45 m²,"CZK 3,000",Partially furnished,1,No,No,No,No,No,No,No,17. 02. 2022,233,"1,093",402,"1,010",391,823,612,572,226,,,,Personal,Brick building,over 50 years years,,Gas boiler,Middle floor,Overall,A,,,150 m²,,,
704057,"CZK 13,990",50.09041027777,14.30721916666,"Ciolkovského, Prague - Ruzyně",1 bedroom with open-plan kitchen,43 m²,"CZK 2,909",Unfurnished,9,No,No,No,No,No,Yes,No,,188,229,135,122,241,179,323,"1,390","1,425",145,Excellent,"CZK 16,899",Personal,Prefab concrete building,,,,,,C,,"CZK 16,899

                                
                                
                
i",,,,
632315,"CZK 17,000",50.103938,14.503869,"Pod Harfou, Prague - Vysočany",1 bedroom with open-plan kitchen,67 m²,"CZK 4,500",Partially furnished,4,Yes,Yes,No,No,Yes,Yes,Yes,01. 04. 2022,214,960,250,628,414,752,331,725,942,452,New build,"CZK 17,000",Personal,Prefab concrete building,,,,,,A,,,,,,
264568,"CZK 13,600",50.0478182,14.4462395,"Vokáčova, Prague - Michle",1 bedroom with open-plan kitchen,43 m²,"CZK 2,500",Partially furnished,6,No,No,Yes,No,No,No,No,,275,480,154,109,107,133,407,677,809,320,Excellent,"CZK 15,000",Personal,Prefab concrete building,1 to 10 years years,Standard materials and solutions,District heating,Middle floor,Overall,B,,,,,,
665413,"CZK 14,500",50.0700464,14.3813528,Prague - Košíře,Studio,30 m²,"CZK 2,000",Furnished,3,No,No,No,Yes,No,Yes,No,01. 02. 2022,154,480,76,786,200,893,208,708,"1,106",439,New build,"CZK 16,500",Personal,Other,,,,,,G,,,,,,
698939,"CZK 18,300",50.0749602,14.4305105,"Legerova, Prague - Vinohrady",Studio,30 m²,"CZK 6,100",Furnished,6,No,No,No,No,No,Yes,No,29. 01. 2022,22,463,81,96,72,158,361,436,384,451,,,,,,,,,,,,,,,,
704052,"CZK 12,500",50.0705694,14.3791845,"Plzeňská, Prague - Košíře",1 bedroom,44 m²,CZK 600,Unfurnished,4,No,No,No,No,No,Yes,No,27. 01. 2022,0,592,103,967,125,"1,074",167,614,"1,012",345,Excellent,"CZK 12,500",Personal,Brick building,,,,,,G,,,,,,
704050,"CZK 12,000",50.04649475,14.324921425317,"U Jezera, Prague - Stodůlky",1 bedroom with open-plan kitchen,43 m²,"CZK 3,000",Unfurnished,6,No,No,Yes,No,No,Yes,No,28. 01. 2022,347,687,277,307,169,274,224,146,353,68,Good,"CZK 15,000",Personal,Prefab concrete building,,,,,,G,,,,,,
686327,"CZK 21,000",50.07233,14.44228,"Máchova, Prague - Vinohrady",1 bedroom with open-plan kitchen,40 m²,"CZK 2,000",Furnished,1,No,No,No,No,No,Yes,No,01. 01. 2022,157,366,61,737,92,680,373,364,475,288,Excellent,"CZK 21,000",Personal,Brick building,,,,,,G,,,,,,
223568,"CZK 24,000",50.0857482,14.4575749,"Jeseniova, Prague - Žižkov",2 bedroom with open-plan kitchen,81 m²,"CZK 3,800",Partially furnished,5,Yes,No,Yes,No,Yes,Yes,Yes,27. 01. 2022,219,283,167,589,256,262,149,108,364,214,New build,"CZK 2,000",Personal,Brick building,1 to 10 years years,,Central heating,Middle floor,,G,Yes,,,,,
520606,"CZK 21,895",50.045754631723,14.302769103705,Prague - Stodůlky,1 bedroom with open-plan kitchen,61 m²,"CZK 3,182",Furnished,2,Yes,No,No,No,No,No,No,12. 08. 2020,267,131,156,104,"1,031","1,128",734,895,118,,New build,"CZK 30,000",Personal,Brick building,1 to 10 years years,Premium materials and solutions,Central heating,Middle floor,Overall,B,Yes,,,,,
704035,"CZK 18,000",50.0679,14.45706,"Orelská, Prague - Vršovice",2 bedroom,80 m²,CZK 700,Partially furnished,4,No,No,Yes,No,No,Yes,No,01. 02. 2022,104,261,67,209,52,221,312,465,358,354,Excellent,"CZK 18,000",Personal,Brick building,,,,,,G,,,,,,
704034,"CZK 13,000",49.98822,14.41096,"Za Sídlištěm, Prague - Komořany",1 bedroom with open-plan kitchen,46 m²,"CZK 4,000",Partially furnished,8,No,No,Yes,No,No,Yes,No,01. 03. 2022,375,352,354,522,,,,,,,Excellent,"CZK 13,000",Personal,Prefab concrete building,,,,,,D,,,,,,
704032,"CZK 16,000",50.1038,14.51146,"Pod Harfou, Prague - Vysočany",1 bedroom with open-plan kitchen,53 m²,"CZK 4,000",Partially furnished,5,Yes,No,No,No,No,Yes,No,01. 02. 2022,328,161,"1,495","1,181",601,877,"1,233",957,55,,Excellent,"CZK 30,000",Personal,Brick building,,,,,,G,,,,,,
700448,"CZK 18,000",50.13447,14.51199,"Tvrdého, Prague - Letňany",3 bedroom,87 m²,"CZK 5,720",Partially furnished,1,Yes,No,No,No,No,No,No,24. 01. 2022,171,556,401,316,228,233,209,580,199,214,Excellent,"CZK 30,000",Personal,Brick building,,,,,,C,,,,,,
704025,"CZK 16,000",50.1394,14.44867,"K Beranovu, Prague - Dolní Chabry",1 bedroom with open-plan kitchen,55 m²,"CZK 3,000",Partially furnished,1,No,Yes,No,No,No,Yes,No,01. 02. 2022,284,"1,009",166,738,585,"1,093",138,,,,New build,"CZK 20,000",Personal,Brick building,,,,,,A,,,,,,
704024,"CZK 20,500",50.00216,14.43193,"Urbánkova, Prague - Modřany",3 bedroom,75 m²,"CZK 3,000",Partially furnished,1,No,No,No,Yes,Yes,Yes,No,27. 01. 2022,485,"1,473","1,304",715,220,161,"1,069",144,,,Excellent,"CZK 23,500",Personal,Prefab concrete building,,,,,,G,,,,,,
704021,"CZK 15,489",50.1309297,14.4826315,"Červenkova, Prague - Střížkov",2 bedroom with open-plan kitchen,64 m²,"CZK 3,972",,1,No,No,No,No,No,No,No,17. 01. 2022,291,"1,175",542,"1,275",131,535,168,567,"1,218",228,Good,"CZK 19,461",Personal,Other,,,,,,,,"CZK 2,323",,,,
704020,"CZK 9,804",50.03969895,14.45848458331,"Budějovická, Prague - Krč",Studio,22 m²,"CZK 2,562",,1,No,No,No,No,No,No,No,25. 05. 2019,245,"1,205",382,928,252,528,887,"1,030","1,163",582,Good,"CZK 12,366",Personal,Other,,,,,,,,"CZK 1,471",,,,
703887,"CZK 10,500",50.0257429,14.4915558,Prague - Chodov,1 bedroom with open-plan kitchen,43 m²,"CZK 3,500",,,No,No,No,No,No,Yes,No,Ihned,264,330,140,423,200,321,537,153,129,176,Good,"CZK 14,000",Personal,Prefab concrete building,,,,,,B,,,,,,
704013,"CZK 14,333",50.0753237,14.4575982,"Korunní, Prague - Vinohrady",Studio,29 m²,"CZK 4,777",Furnished,1,No,No,No,No,No,Yes,No,12. 03. 2022,159,612,67,290,33,373,307,359,795,244,,,,,,,,,,,,,,,,
694676,"CZK 27,788",50.0846396,14.4202484,"Michalská, Prague - Staré Město",2 bedroom,54 m²,"CZK 9,262",Furnished,7,No,No,No,No,No,Yes,No,28. 02. 2022,314,494,74,261,13,145,42,702,340,361,,,,,,,,,,,,,,,,
691034,"CZK 19,298",50.0583559,14.421281,"Podolská, Prague - Podolí",2 bedroom,54 m²,"CZK 6,432",Furnished,4,No,No,No,No,No,Yes,No,29. 01. 2022,147,167,51,1,38,164,120,602,545,210,,,,,,,,,,,,,,,,
704010,"CZK 12,500",50.10297,14.43574,"U Smaltovny, Prague - Holešovice",Small studio,36 m²,"CZK 2,000",Unfurnished,,No,No,No,No,No,No,No,01. 03. 2022,375,876,111,388,78,249,410,399,898,,Excellent,"CZK 25,000",Personal,Brick building,,,,,,G,,,,,,
512061,"CZK 12,900",50.0510834,14.3316885,"Harmonická, Prague - Stodůlky",Studio,47 m²,"CZK 3,000",Furnished,1,Yes,No,No,No,Yes,No,No,01. 02. 2022,240,842,391,807,507,362,774,510,503,263,Excellent,"CZK 20,000",Personal,Brick building,10 to 30 years years,,Central heating,Raised ground floor,,B,,,,,,
588123,"CZK 24,500",50.075306,14.41547,"Dittrichova, Prague - Nové Město",1 bedroom with open-plan kitchen,69 m²,"CZK 4,000",Furnished,,No,No,No,No,No,No,No,01. 02. 2022,117,263,234,291,45,337,175,523,739,462,Excellent,"CZK 28,500",Cooperative,Brick building,30 to 50 years years,Standard materials and solutions,Gas boiler,Ground floor,Interior,G,,,,,,
333374,"CZK 12,000",50.0775979,14.4869153,"Vinohradská, Prague - Strašnice",Studio,43 m²,"CZK 3,500",Partially furnished,6,Yes,No,No,No,No,Yes,Yes,01. 03. 2022,97,504,155,172,21,105,488,879,592,114,,"CZK 25,000",Personal,Other,,,District heating,,,C,,,,,,
681458,"CZK 18,000",50.08224,14.41475,"Krocínova, Prague - Staré Město",1 bedroom,55 m²,"CZK 3,900",Furnished,3,Yes,No,No,No,No,Yes,No,17. 01. 2022,251,923,174,197,38,175,385,341,297,346,Excellent,"CZK 25,000",Personal,Brick building,,,,,,B,,,,,,
210036,"CZK 14,000",50.1033768,14.4780188,"Vacínova, Prague - Libeň",1 bedroom with open-plan kitchen,39 m²,"CZK 2,500",Partially furnished,4,No,No,Yes,No,No,Yes,No,01. 10. 2019,200,108,56,309,153,235,334,306,134,356,Excellent,"CZK 14,000",Cooperative,Brick building,,Standard materials and solutions,Gas boiler,Middle floor,Overall,,,,,,,
546053,"CZK 16,500",50.0867074,14.4680377,Prague - Žižkov,1 bedroom with open-plan kitchen,50 m²,"CZK 2,200",Partially furnished,2,No,No,No,No,No,No,No,01. 03. 2022,193,449,126,272,150,416,449,303,319,342,Excellent,"CZK 16,500",Personal,Brick building,,Premium materials and solutions,Gas boiler,Middle floor,Overall,F,,,,,,
699472,"CZK 12,000",50.0666937,14.4352362,"Fričova, Prague - Vinohrady",1 bedroom,35 m²,"CZK 3,000",Furnished,1,No,Yes,No,No,No,Yes,No,,207,585,204,719,209,520,375,428,334,473,Good,"CZK 25,000",Personal,Prefab concrete building,,,District heating,Middle floor,,,,,25 m²,,,
704003,"CZK 8,600",50.1427,14.38711,"Otvovická, Prague - Suchdol",Studio,37 m²,CZK 600,Unfurnished,-1,No,Yes,No,No,Yes,No,No,15. 02. 2022,240,"1,142","1,373","1,105",697,"1,064",924,421,248,,Excellent,"CZK 17,200",Personal,Brick building,,,,,,A,,,,,,
630457,"CZK 9,000",50.071753,14.431997,"Lublaňská, Prague - Nové Město",Small studio,25 m²,"CZK 3,000",Furnished,2,No,No,No,No,No,No,No,12. 10. 2020,216,344,70,346,22,280,306,274,647,724,Good,,Other,Brick building,,,,,,E,,,,,,
698310,"CZK 29,000",50.07766,14.43357,"Římská, Prague - Vinohrady",1 bedroom with open-plan kitchen,50 m²,"CZK 6,000",Furnished,4,No,No,No,No,No,Yes,No,10. 01. 2022,183,233,230,245,81,172,512,512,508,662,New build,"CZK 58,000",Personal,Brick building,,,,,,G,,,,,,
654822,"CZK 13,500",50.11609,14.47138,"Františka Kadlece, Prague - Libeň",1 bedroom with open-plan kitchen,58 m²,"CZK 2,100",Furnished,1,No,No,No,No,Yes,No,No,01. 05. 2021,244,"1,115",124,"1,400",52,407,392,"1,238","1,046",437,Excellent,"CZK 16,000",Personal,Brick building,,,,,,B,,,,,,
703999,"CZK 10,000",50.0371135,14.381108,"Dreyerova, Prague - Hlubočepy",1 bedroom with open-plan kitchen,45 m²,"CZK 5,000",Furnished,4,No,No,No,Yes,Yes,No,No,01. 03. 2022,152,556,444,470,457,504,373,370,305,115,Excellent,,Personal,Prefab concrete building,,,,,,B,,,,,,
703996,"CZK 9,000",50.04201,14.39509,"Pod Žvahovem, Prague - Hlubočepy",Studio,25 m²,"CZK 2,000",Furnished,1,No,No,No,No,No,No,No,27. 01. 2022,80,137,185,597,193,343,284,,,,Good,"CZK 11,500",Personal,Brick building,,Standard materials and solutions,Geothermal heat pump,,,C,,,,,,
563281,"CZK 13,500",50.1248723,14.4438862,"Písečná, Prague - Troja",2 bedroom,40 m²,"CZK 4,000",Furnished,5,No,No,No,No,No,Yes,No,01. 03. 2022,107,"1,337",58,650,114,46,361,169,661,146,,"CZK 25,000",Personal,Prefab concrete building,1 to 10 years years,Standard materials and solutions,,Top floor,Overall,B,,,,,,
696248,"CZK 47,000",50.07906,14.44976,"Laubova, Prague - Vinohrady",3 bedroom,109 m²,"CZK 6,000",Partially furnished,2,Yes,No,No,No,Yes,Yes,No,01. 01. 2022,209,273,39,272,113,301,142,267,694,169,Excellent,"CZK 53,000",Personal,Brick building,,,,,,D,,,,,,
680038,"CZK 22,838",50.0687245,14.3688309,"Pod Školou, Prague - Košíře",2 bedroom with open-plan kitchen,65 m²,"CZK 7,612",Furnished,2,No,No,No,No,No,Yes,No,29. 01. 2022,257,773,307,429,264,322,165,"1,090",462,415,,,,,,,,,,,,,,,,
700434,"CZK 14,500",50.10109,14.42392,"Ovenecká, Prague - Bubeneč",1 bedroom with open-plan kitchen,34 m²,"CZK 3,000",Furnished,1,Yes,No,No,No,No,Yes,No,01. 02. 2022,153,201,31,125,44,158,406,275,237,,New build,"CZK 15,000",Personal,Brick building,,,,,,B,,,,,,
472763,"CZK 14,000",50.057244836602,14.374318458664,"Peroutkova, Prague - Jinonice",Studio,35 m²,"CZK 2,000",Furnished,2,Yes,No,No,No,No,No,No,,228,186,279,"1,291",146,272,777,130,"1,300",19,,,Personal,Brick building,,,,,,A,,,,,,
703988,"CZK 13,900",50.09002,14.49355,"Pod Lipami, Prague - Žižkov",1 bedroom with open-plan kitchen,47 m²,"CZK 3,600",Partially furnished,10,Yes,No,No,No,Yes,Yes,No,01. 02. 2022,547,797,803,"1,010",514,802,930,653,660,536,Good,"CZK 27,800",Personal,Prefab concrete building,,Standard materials and solutions,District heating,Middle floor,,A,,,,,,
545105,"CZK 14,500",50.0672795,14.3679445,"Musílkova, Prague - Košíře",1 bedroom with open-plan kitchen,50 m²,"CZK 3,150",Partially furnished,3,No,No,No,No,No,No,No,01. 01. 1970,306,785,262,594,448,505,364,858,230,452,,"CZK 20,000",Personal,Brick building,1 to 10 years years,Premium materials and solutions,Gas boiler,Top floor,Overall,C,Yes,,,,,
691002,"CZK 14,500",50.02073,14.45459,"V Štíhlách, Prague - Krč",1 bedroom with open-plan kitchen,39 m²,"CZK 2,500",Furnished,6,No,No,Yes,No,No,Yes,No,15. 02. 2022,399,554,442,280,108,793,996,714,596,,Excellent,"CZK 29,000",Personal,Prefab concrete building,,Standard materials and solutions,District heating,,Overall,G,,,,,,
700101,"CZK 5,950",49.98491,14.36412,"Vrážská, Prague - Radotín",Small studio,19 m²,"CZK 1,950",Furnished,1,No,No,No,No,Yes,Yes,No,19. 01. 2022,40,616,32,26,160,36,571,607,424,338,Excellent,"CZK 7,900",Personal,Other,1 to 10 years years,Standard materials and solutions,Central heating,Ground floor,Bathroom unit,G,,,,,,
644492,"CZK 9,450",50.101787,14.507409,"Poděbradská, Prague - Vysočany",Studio,35 m²,"CZK 3,450",Furnished,2,No,No,No,No,Yes,Yes,No,20. 01. 2022,86,"1,261",369,860,414,742,371,"1,187","1,377",781,New build,"CZK 16,350",Personal,Brick building,1 to 10 years years,Premium materials and solutions,Central heating,Middle floor,Overall,G,Yes,,,,,
579799,"CZK 17,000",50.018085,14.584155,"Žampiónová, Prague - Pitkovice",1 bedroom with open-plan kitchen,59 m²,"CZK 3,500",Furnished,1,Yes,No,No,No,No,No,No,11. 01. 2022,161,802,,,,,,,,,New build,"CZK 34,000",Personal,Brick building,,Standard materials and solutions,District heating,Middle floor,,C,,,,,,
564980,"CZK 18,000",50.0667631,14.4340247,"Rejskova, Prague - Vinohrady",1 bedroom with open-plan kitchen,45 m²,"CZK 3,200",Furnished,1,No,No,No,No,No,No,No,Ihned,376,608,330,743,244,499,398,451,271,390,,"CZK 20,000",Personal,Brick building,,,,Ground floor,Interior,,,,,,,
346444,"CZK 12,600",50.0478658367,14.5569324349,"Boloňská, Prague - Horní Měcholupy",Studio,33 m²,"CZK 3,000",Partially furnished,5,Yes,No,Yes,No,No,Yes,No,,35,844,178,921,286,988,492,344,633,275,Excellent,"CZK 20,000",Personal,Brick building,,,District heating,Top floor,,C,,,,,,
658807,"CZK 13,900",50.0657329,14.5055674,Prague - Strašnice,1 bedroom with open-plan kitchen,43 m²,"CZK 1,500",Furnished,1,No,No,No,No,Yes,No,No,04. 02. 2022,173,"1,135",450,810,342,501,486,479,820,322,Excellent,"CZK 13,900",Personal,Brick building,10 to 30 years years,Standard materials and solutions,Central heating,Middle floor,Interior,C,,,,,,
703986,"CZK 16,000",50.05011,14.54659,"Tenisová, Prague - Hostivař",1 bedroom with open-plan kitchen,40 m²,CZK 1,Partially furnished,1,No,No,No,Yes,No,Yes,No,01. 02. 2022,271,269,294,275,118,704,235,586,174,,Excellent,"CZK 25,000",Personal,Prefab concrete building,,,,,,G,,,,,,
703889,"CZK 14,000",50.0521863,14.3426725,"Mezi školami, Prague - Stodůlky",2 bedroom,43 m²,"CZK 2,109",,1,No,No,No,No,No,Yes,No,20. 01. 2022,288,372,276,354,252,318,246,86,"1,124",132,Good,"CZK 16,109",Personal,Other,,,,,,,,"CZK 2,100",,,,
703587,"CZK 17,000",50.08688,14.46863,"Malešická, Prague - Žižkov",1 bedroom with open-plan kitchen,43 m²,CZK 785,Furnished,4,No,Yes,No,No,No,No,No,01. 02. 2022,147,436,80,227,105,370,403,349,368,388,Excellent,"CZK 34,000",Personal,Brick building,,,,,,G,,,,,,
699860,"CZK 10,340",50.07791,14.47677,"Vinohradská, Prague - Vinohrady",1 bedroom,42 m²,"CZK 2,460",Partially furnished,5,No,No,No,No,No,Yes,No,19. 01. 2022,28,983,14,484,50,16,739,858,172,150,Excellent,"CZK 21,000",Personal,Brick building,,,,,,G,,,,,,
700376,"CZK 14,500",50.10378,14.45566,"Jankovcova, Prague - Holešovice",1 bedroom with open-plan kitchen,50 m²,"CZK 2,500",Partially furnished,5,No,No,Yes,No,No,Yes,No,24. 01. 2022,123,614,171,346,53,250,584,547,127,442,Excellent,"CZK 20,000",Personal,Brick building,over 50 years years,Standard materials and solutions,District heating,Middle floor,Interior,G,,,,,,
703980,"CZK 12,900",50.07124,14.39609,"Mozartova, Prague - Smíchov",Studio,35 m²,"CZK 3,000",Partially furnished,2,No,No,Yes,No,No,Yes,No,01. 03. 2022,334,604,178,391,202,562,321,"1,078",549,313,Excellent,"CZK 15,900",Personal,Brick building,,,,,,C,,,,,,
520499,"CZK 12,500",50.0529112,14.3417982,"Dominova, Prague - Stodůlky",1 bedroom with open-plan kitchen,44 m²,"CZK 4,000",Partially furnished,7,No,No,No,Yes,No,Yes,No,01. 12. 2019,343,418,371,423,350,336,307,175,"1,169",120,,"CZK 12,500",Personal,Prefab concrete building,,,,,,,,,,,,
703797,"CZK 15,000",50.10727,14.50628,"Za Lidovým domem, Prague - Vysočany",2 bedroom with open-plan kitchen,85 m²,"CZK 4,000",Furnished,1,No,Yes,No,No,No,Yes,Yes,01. 02. 2022,440,729,431,523,392,688,476,10,804,438,Excellent,"CZK 19,000",Personal,Brick building,10 to 30 years years,Standard materials and solutions,,,,C,,,32 m²,,,
697468,"CZK 22,350",50.1148427,14.4750191,"V Zahradách, Prague - Libeň",1 bedroom with open-plan kitchen,67 m²,"CZK 7,450",Furnished,2,Yes,Yes,No,No,No,Yes,Yes,01. 03. 2022,188,"1,403",485,"1,260",182,737,559,"1,425",906,405,,,,,,,,,,,,,,,,
682340,"CZK 21,000",50.0729545,14.4412201,"Jana Masaryka, Prague - Vinohrady",Studio,37 m²,"CZK 7,000",Furnished,4,No,No,No,No,No,Yes,Yes,29. 01. 2022,41,255,33,612,69,567,246,441,558,371,,,,,,,,,,,,,,,,
682344,"CZK 13,823",50.1044601,14.5518792,"Slévačská, Prague - Hloubětín",1 bedroom,54 m²,"CZK 4,607",Furnished,2,No,No,No,No,No,Yes,No,29. 01. 2022,256,674,499,"1,325",205,584,277,"1,192",804,230,,,,,,,,,,,,,,,,
700062,"CZK 12,675",50.0710373,14.4466006,"Kozácká, Prague - Vršovice",Studio,28 m²,"CZK 4,225",Furnished,2,No,No,No,No,No,No,No,20. 03. 2022,139,664,133,528,69,638,497,450,315,216,,,,,,,,,,,,,,,,
680002,"CZK 56,250",50.090911,14.4295366,"Soukenická, Prague - Nové Město",2 bedroom with open-plan kitchen,90 m²,"CZK 18,750",Furnished,4,Yes,Yes,No,No,No,Yes,Yes,29. 01. 2022,144,325,176,152,60,230,49,259,388,439,,,,,,,,,,,,,,,,
694734,"CZK 21,000",50.1057314,14.44422,"U Průhonu b, Prague - Holešovice",Studio,32 m²,"CZK 7,000",Furnished,1,No,Yes,No,No,No,Yes,Yes,29. 01. 2022,299,437,281,449,312,304,607,789,18,459,,,,,,,,,,,,,,,,
472911,"CZK 5,600",50.0255565,14.4096102,"Mezi Stráněmi, Prague - Hodkovičky",Small studio,20 m²,"CZK 1,400",Furnished,1,No,No,No,No,No,No,No,01. 01. 2022,400,"1,444",586,"1,202",455,"1,353",800,141,,,Excellent,"CZK 5,000",Personal,Brick building,1 to 10 years years,Standard materials and solutions,Central heating,Ground floor,,B,,,,,,
680071,"CZK 51,750",50.0802704,14.4260824,"Štěpánská, Prague - Nové Město",1 bedroom with open-plan kitchen,80 m²,"CZK 17,250",Furnished,6,No,No,No,No,No,Yes,No,29. 01. 2022,288,586,250,131,26,252,214,638,273,511,,,,,,,,,,,,,,,,
703975,"CZK 8,700",50.08624,14.43974,"Příběnická, Prague - Žižkov",Studio,17 m²,CZK 700,Unfurnished,1,No,No,No,No,No,No,No,14. 02. 2022,367,422,232,343,114,408,767,626,789,585,Good,"CZK 30,000",Personal,Brick building,,,,,,G,,,,,,
699991,"CZK 13,900",50.04573,14.31888,"Trávníčkova, Prague - Stodůlky",1 bedroom with open-plan kitchen,45 m²,"CZK 3,500",Partially furnished,4,No,No,No,No,No,Yes,No,01. 01. 1970,189,919,194,237,557,220,419,262,558,305,Excellent,,Personal,Prefab concrete building,,,,,,C,,,,,,
680097,"CZK 88,613",50.079282,14.4274522,"Ve Smečkách, Prague - Nové Město",3 bedroom with open-plan kitchen,82 m²,"CZK 29,537",Furnished,6,No,Yes,No,No,No,Yes,No,29. 01. 2022,262,583,62,229,43,244,476,576,376,483,,,,,,,,,,,,,,,,
680018,"CZK 30,750",50.0710929,14.4032595,"Stroupežnického, Prague - Smíchov",3 bedroom with open-plan kitchen,90 m²,"CZK 10,250",Furnished,2,No,No,No,No,No,Yes,No,29. 01. 2022,140,528,224,126,38,67,511,"1,001","1,181",559,,,,,,,,,,,,,,,,
11503,"CZK 9,700",50.0330419,14.4807117,"Augustinova, Prague - Chodov",Studio,33 m²,"CZK 2,500",Furnished,5,No,No,No,No,No,Yes,No,18. 02. 2022,253,919,59,"1,036",133,791,204,"1,119",157,251,Excellent,"CZK 12,000",Personal,Other,10 to 30 years years,Standard materials and solutions,District heating,,Interior,,,,,,,
532484,"CZK 15,000",50.07118,14.40823,Prague - Smíchov,1 bedroom with open-plan kitchen,36 m²,"CZK 3,500",Furnished,3,No,No,No,No,No,Yes,No,01. 02. 2022,177,595,136,91,139,402,655,"1,014",940,426,Excellent,"CZK 37,000",Personal,Brick building,1 to 10 years years,Premium materials and solutions,Gas boiler,Middle floor,Overall,E,,,,,,
703970,"CZK 11,000",50.13908,14.51277,"Stará náves, Prague - Letňany",Studio,33 m²,"CZK 3,000",Partially furnished,3,Yes,No,No,No,No,No,No,31. 01. 2022,404,397,572,851,300,348,458,750,708,159,Excellent,"CZK 22,000",Cooperative,Brick building,,,,,,B,,,,,,
703969,"CZK 14,900",50.0583,14.57919,"U Lipové aleje, Prague - Dubeč",1 bedroom with open-plan kitchen,58 m²,"CZK 2,900",Partially furnished,2,No,Yes,No,No,Yes,No,Yes,01. 04. 2022,363,"1,034",511,399,"1,355",31,,,,,Excellent,"CZK 14,900",Personal,Brick building,1 to 10 years years,Premium materials and solutions,Central heating,Top floor,,G,,,,,,
703964,"CZK 14,000",50.07037,14.47399,"Vršovická, Prague - Vršovice",1 bedroom with open-plan kitchen,55 m²,"CZK 3,200",Furnished,1,No,No,No,No,No,Yes,No,01. 02. 2022,211,291,118,329,71,339,242,284,279,220,Excellent,"CZK 17,200",Personal,Brick building,,,,,,G,,,,,,
680051,"CZK 36,000",50.079465,14.4353199,"Mánesova, Prague - Vinohrady",Studio,45 m²,"CZK 12,000",Furnished,4,No,No,No,No,No,Yes,No,29. 01. 2022,156,408,244,342,59,242,281,281,533,788,,,,,,,,,,,,,,,,
680059,"CZK 60,289",50.0821872,14.4175604,"Národní, Prague - Staré Město",2 bedroom,,"CZK 20,096",Furnished,1,No,No,No,No,No,No,No,29. 01. 2022,198,801,15,163,39,141,121,304,55,465,,,,,,,,,,,,,,,,
696583,"CZK 15,300",50.0236328,14.420109,"Na Výspě, Prague - Hodkovičky",1 bedroom,50 m²,"CZK 5,100",Furnished,1,No,No,No,No,No,No,No,15. 03. 2022,205,"1,125",579,"1,118",554,629,856,827,"1,391",591,,,,,,,,,,,,,,,,
694159,"CZK 24,500",50.07249,14.40939,Prague - Smíchov,1 bedroom,74 m²,CZK 750,Partially furnished,4,No,No,Yes,No,No,Yes,No,01. 02. 2022,99,534,87,145,53,449,563,777,975,534,Excellent,"CZK 35,000",Personal,Brick building,,Premium materials and solutions,Gas boiler,Top floor,Overall,,,,,,,
518117,"CZK 14,000",50.0576446,14.3674189,Prague - Jinonice,1 bedroom with open-plan kitchen,50 m²,"CZK 2,500",Unfurnished,2,Yes,No,No,No,No,No,No,01. 02. 2022,403,637,502,769,595,"1,012",575,"1,416",692,,Good,"CZK 15,500",Personal,Brick building,,,,,,,,,,,,
551303,"CZK 12,000",50.1274638,14.3791588,"Sídlištní, Prague - Lysolaje",Studio,36 m²,"CZK 2,000",Partially furnished,1,Yes,No,Yes,No,Yes,Yes,No,01. 03. 2022,59,"1,158",434,647,461,"1,139",770,"1,148",421,210,,"CZK 30,000",Personal,Brick building,10 to 30 years years,Standard materials and solutions,Gas boiler,Raised ground floor,Interior,,,,,,,
703954,"CZK 27,000",50.07122,14.38658,"Starokošířská, Prague - Košíře",2 bedroom with open-plan kitchen,102 m²,"CZK 2,500",Unfurnished,2,Yes,No,Yes,No,Yes,No,No,28. 01. 2022,143,767,190,947,165,"1,054",349,652,957,412,Excellent,"CZK 27,000",Personal,Brick building,,Standard materials and solutions,Gas boiler,Middle floor,Overall,G,,,,,,
683525,"CZK 15,000",50.1051406,14.4878892,"Kurta Konráda, Prague - Libeň",Studio,37 m²,"CZK 3,000",Partially furnished,9,No,No,Yes,Yes,Yes,Yes,Yes,17. 01. 2022,189,72,128,129,78,289,345,554,189,56,New build,"CZK 25,000",Personal,Brick building,1 to 10 years years,Premium materials and solutions,,,,B,,,,,,
373950,"CZK 8,000",50.0419626,14.3948406,"Pod Žvahovem, Prague - Hlubočepy",1 bedroom,32 m²,"CZK 2,000",Partially furnished,1,No,No,No,No,No,No,No,,69,127,175,607,203,333,274,,,,,,Personal,Brick building,,,,,,,,,,,,
699836,"CZK 11,408",50.0727107,14.4298541,"Tyršova, Prague - Nové Město",Studio,24 m²,"CZK 3,802",Furnished,1,No,No,No,No,No,No,No,14. 02. 2022,207,626,116,221,143,278,376,548,644,639,,,,,,,,,,,,,,,,
703953,"CZK 15,000",50.07235,14.34757,"U Homolky, Prague - Motol",Studio,50 m²,"CZK 3,000",Furnished,1,No,Yes,No,No,No,No,No,01. 02. 2022,258,252,207,360,"1,000",884,599,,,,Excellent,"CZK 30,000",Personal,Prefab concrete building,,,,,,G,,,,,,
222235,"CZK 7,000",50.0989676,14.3460997,"V středu, Prague - Vokovice",1 bedroom,23 m²,"CZK 2,000",Furnished,1,No,No,No,No,No,No,No,,308,"1,320",222,"1,005",86,469,301,347,207,125,,"CZK 10,000",Personal,Brick building,,Standard materials and solutions,Central heating,Ground floor,,D,,,,,,
703947,"CZK 23,500",50.07527,14.45191,"Korunní, Prague - Vinohrady",2 bedroom with open-plan kitchen,80 m²,"CZK 1,500",Unfurnished,1,No,No,No,No,No,No,No,01. 02. 2022,138,345,92,295,118,98,253,392,588,319,New build,"CZK 25,000",Personal,Brick building,1 to 10 years years,Premium materials and solutions,Gas boiler,Middle floor,Overall,C,,,,,,
699425,"CZK 23,000",50.0614,14.44811,"Nuselská, Prague - Nusle",1 bedroom with open-plan kitchen,65 m²,"CZK 3,500",Unfurnished,3,Yes,No,Yes,No,Yes,Yes,Yes,31. 03. 2022,59,836,31,412,103,474,490,510,743,376,New build,"CZK 50,000",Personal,Low-energy building,,,,,,B,,,,,,
511377,"CZK 18,000",50.1274142,14.3793094,Prague - Lysolaje,2 bedroom,62 m²,"CZK 3,751",Furnished,5,No,No,Yes,No,Yes,Yes,No,01. 04. 2022,145,"1,304",581,793,608,"1,285",793,"1,294",567,131,Excellent,"CZK 36,000",Personal,Brick building,10 to 30 years years,Premium materials and solutions,Central heating,Attic,Overall,C,,,,,,
703943,"CZK 12,000",50.02361,14.57837,"V Pitkovičkách, Prague - Pitkovice",Studio,35 m²,"CZK 3,000",Partially furnished,2,No,No,No,No,Yes,No,No,27. 01. 2022,86,"1,438","1,260",177,,,,,,,New build,"CZK 20,000",Personal,Brick building,1 to 10 years years,Premium materials and solutions,Electric boiler,Top floor,,A,Yes,,,,,
687848,"CZK 19,000",50.10727,14.50628,"Za Lidovým domem, Prague - Vysočany",2 bedroom with open-plan kitchen,56 m²,"CZK 5,000",Unfurnished,1,No,Yes,No,No,Yes,Yes,Yes,01. 02. 2022,440,729,431,523,392,688,476,10,804,438,Excellent,,Personal,Brick building,,,,,,A,,,,,,
703942,"CZK 16,000",50.04279,14.49376,"Klapálkova, Prague - Chodov",3 bedroom,81 m²,"CZK 4,500",Partially furnished,3,No,No,Yes,Yes,No,Yes,No,27. 01. 2022,127,895,124,941,472,"1,420",408,"1,397","1,042",217,Excellent,"CZK 20,000",Personal,Prefab concrete building,,,,,,C,,,,,,
700413,"CZK 43,000",50.08748,14.40481,"Mostecká, Prague - Malá Strana",2 bedroom with open-plan kitchen,105 m²,"CZK 9,000",Furnished,1,No,No,No,No,No,No,No,14. 02. 2022,60,119,94,65,46,279,98,508,710,411,Excellent,"CZK 52,000",Personal,Brick building,,,,,,G,,,,,,
552055,"CZK 24,500",50.0798449,14.4585164,"Sudoměřská, Prague - Žižkov",3 bedroom,64 m²,"CZK 3,900",Furnished,5,No,No,No,No,No,Yes,No,01. 12. 2021,267,538,210,354,1,455,470,295,623,189,Excellent,"CZK 35,000",Personal,Brick building,1 to 10 years years,Premium materials and solutions,Gas boiler,Middle floor,Overall,,,,,,,
689077,"CZK 26,250",50.0633237,14.4440058,"Mečislavova, Prague - Nusle",1 bedroom with open-plan kitchen,65 m²,"CZK 8,750",Furnished,2,No,No,No,No,No,No,No,29. 01. 2022,242,542,99,271,176,314,456,822,634,593,,,,,,,,,,,,,,,,
703938,"CZK 18,750",50.0716124,14.4594622,"Slovinská, Prague - Vršovice",1 bedroom with open-plan kitchen,56 m²,"CZK 6,250",Furnished,5,Yes,No,No,No,No,Yes,No,01. 02. 2022,152,674,40,445,81,448,262,312,748,277,,,,,,,,,,,,,,,,
703936,"CZK 13,000",50.04395,14.32171,"Neustupného, Prague - Stodůlky",1 bedroom with open-plan kitchen,45 m²,"CZK 4,000",Partially furnished,11,No,No,No,No,No,Yes,No,01. 02. 2022,367,823,328,299,630,362,170,422,427,270,Excellent,"CZK 17,000",Cooperative,Prefab concrete building,,,,,,G,,,,,,
700407,"CZK 15,000",50.13335,14.50671,"Tupolevova, Prague - Letňany",Studio,50 m²,"CZK 3,600",Partially furnished,2,No,No,No,Yes,No,Yes,No,01. 02. 2022,135,"1,092",255,417,434,571,377,269,254,419,New build,"CZK 20,000",Personal,Prefab concrete building,,,,,,B,,,,,,
499226,"CZK 11,500",50.0570682,14.4302357,"Na Dolinách, Prague - Nusle",Studio,30 m²,"CZK 2,620",Furnished,4,No,No,No,No,Yes,Yes,No,02. 03. 2022,76,771,301,304,11,277,713,492,107,151,Excellent,"CZK 15,000",Personal,Brick building,10 to 30 years years,Premium materials and solutions,Central heating,Middle floor,Overall,,,,,,,
699545,"CZK 14,200",50.06589,14.42188,"Neklanova, Prague - Vyšehrad",1 bedroom with open-plan kitchen,55 m²,"CZK 3,800",Unfurnished,3,No,No,No,No,No,Yes,No,25. 02. 2022,190,"1,005",158,185,171,222,355,498,385,526,Excellent,"CZK 18,000",Personal,Brick building,,,,,,G,,,,,,
225253,"CZK 10,000",50.1252431145,14.4691799952,"U Slovanky, Prague - Libeň",Studio,38 m²,"CZK 3,000",Partially furnished,4,No,No,Yes,No,No,Yes,No,01. 01. 2022,225,577,311,379,180,389,516,675,743,184,New build,"CZK 26,000",Personal,Brick building,1 to 10 years years,Standard materials and solutions,District heating,Middle floor,,,Yes,,,,,
694515,"CZK 9,000",50.07075,14.36128,"Pod Kotlářkou, Prague - Smíchov",Studio,22 m²,"CZK 1,500",Furnished,2,Yes,No,No,No,No,No,No,01. 12. 2021,13,"1,118",639,820,556,713,932,"1,187",378,632,Excellent,"CZK 10,000",Personal,Brick building,,,,,,A,,,,,,
703930,"CZK 30,000",50.07815,14.42136,"Vodičkova, Prague - Nové Město",2 bedroom with open-plan kitchen,85 m²,"CZK 6,250",Furnished,1,No,No,No,No,No,No,No,01. 02. 2022,153,445,38,134,25,176,300,557,590,500,New build,"CZK 20,000",Personal,Other,,,,,,G,,,,,,
703926,"CZK 16,176",50.0645777,14.4426105,"Vlastislavova, Prague - Nusle",2 bedroom,53 m²,"CZK 1,388",,1,No,No,No,No,No,No,No,19. 01. 2022,155,377,157,157,81,127,432,663,648,503,Good,"CZK 17,564",Personal,Other,,,,,,,,"CZK 2,426",,,,
679626,"CZK 12,900",50.02978,14.44976,"Štúrova, Prague - Krč",1 bedroom with open-plan kitchen,40 m²,"CZK 2,500",Partially furnished,10,No,No,Yes,No,No,Yes,No,01. 02. 2022,124,"1,295",188,113,701,843,"1,175",560,381,,Excellent,"CZK 25,000",Personal,Prefab concrete building,,Standard materials and solutions,District heating,Middle floor,Interior,C,,,,,,
700430,"CZK 30,000",50.01264,14.38504,"Pod Akáty, Prague - Velká Chuchle",2 bedroom with open-plan kitchen,88 m²,"CZK 3,000",Partially furnished,2,Yes,No,No,No,Yes,No,No,22. 01. 2022,251,321,336,323,663,,,,,,New build,"CZK 33,000",Personal,Brick building,,,,,,G,,,,,,
700542,"CZK 15,000",50.08692,14.46883,"Malešická, Prague - Žižkov",1 bedroom with open-plan kitchen,44 m²,"CZK 3,600",Partially furnished,5,No,Yes,Yes,No,No,Yes,No,01. 03. 2022,121,421,49,195,73,338,372,380,336,419,Good,"CZK 30,000",Personal,Brick building,,,,,,C,,,,,,
700400,"CZK 18,000",50.09058,14.47011,"Koněvova, Prague - Žižkov",1 bedroom with open-plan kitchen,60 m²,"CZK 4,500",Partially furnished,4,Yes,No,No,No,No,Yes,No,01. 04. 2022,25,923,31,238,79,210,444,398,523,394,Excellent,"CZK 40,000",Personal,Brick building,,,,,,G,,,,,,
700401,"CZK 40,000",50.01264,14.38504,"Pod Akáty, Prague - Velká Chuchle",3 bedroom with open-plan kitchen,148 m²,"CZK 4,000",Partially furnished,1,No,Yes,No,No,Yes,No,No,21. 01. 2022,251,321,336,323,663,,,,,,New build,"CZK 44,000",Personal,Brick building,,,,,,G,,,,,,
680075,"CZK 37,500",50.0372353,14.482405,"Hněvkovská, Prague - Chodov",1 bedroom with open-plan kitchen,40 m²,"CZK 12,500",Furnished,-1,No,Yes,No,No,No,No,No,29. 01. 2022,469,"1,480",408,"1,340",370,"1,305",889,"1,194",334,309,,,,,,,,,,,,,,,,
680055,"CZK 36,000",50.079465,14.4353199,"Mánesova, Prague - Vinohrady",1 bedroom,62 m²,"CZK 12,000",Furnished,1,No,Yes,No,No,No,Yes,No,29. 01. 2022,156,408,244,342,59,242,281,281,533,788,,,,,,,,,,,,,,,,
679997,"CZK 37,500",50.073194,14.4364932,"Uruguayská, Prague - Vinohrady",2 bedroom,65 m²,"CZK 12,500",Furnished,4,No,No,No,No,No,Yes,No,29. 01. 2022,271,101,117,353,35,204,64,230,885,796,,,,,,,,,,,,,,,,
679998,"CZK 37,500",50.0932606,14.457484,"Lyčkovo náměstí, Prague - Karlín",1 bedroom,46 m²,"CZK 12,500",Furnished,3,No,No,No,No,No,Yes,No,29. 01. 2022,254,835,179,436,125,299,66,"1,356",350,193,,,,,,,,,,,,,,,,
703923,"CZK 20,000",50.06921,14.41698,"Plavecká, Prague - Nové Město",2 bedroom,85 m²,"CZK 2,000",Partially furnished,4,No,No,No,No,No,Yes,No,01. 02. 2022,279,838,114,279,45,274,133,196,186,169,Excellent,"CZK 20,000",Cooperative,Brick building,,,,,,G,,,,,,
700392,"CZK 13,900",50.1026,14.44354,"Argentinská, Prague - Holešovice",1 bedroom with open-plan kitchen,56 m²,"CZK 2,700",Partially furnished,2,Yes,No,Yes,No,Yes,Yes,No,24. 01. 2022,63,254,135,529,224,252,238,390,429,86,Excellent,"CZK 14,000",Personal,Brick building,30 to 50 years years,Standard materials and solutions,Gas boiler,Middle floor,Exterior,D,,,,,,
687894,"CZK 35,000",50.1026798,14.423257,"Ovenecká, Prague - Bubeneč",4 bedroom,145 m²,"CZK 7,000",Partially furnished,3,No,No,Yes,No,Yes,No,No,26. 01. 2022,326,374,221,298,115,331,416,341,123,,Excellent,,Personal,Brick building,,,Gas boiler,,,G,,,,,,
690184,"CZK 60,000",50.0757302,14.4269087,"Ječná, Prague - Nové Město",1 bedroom with open-plan kitchen,,"CZK 20,000",Furnished,3,No,No,No,No,No,No,No,29. 01. 2022,177,647,182,40,38,122,28,102,350,194,,,,,,,,,,,,,,,,
703904,"CZK 19,500",50.08823,14.36949,"Na Petynce, Prague - Břevnov",1 bedroom with open-plan kitchen,52 m²,"CZK 2,000",Furnished,1,No,No,No,No,No,No,No,26. 01. 2022,261,747,18,873,217,292,298,558,616,401,New build,"CZK 19,500",Personal,Brick building,,,,,,G,,,,,,
703902,"CZK 16,990",50.11035555555,14.4866525,"Podvinný mlýn, Prague - Libeň",1 bedroom with open-plan kitchen,59 m²,"CZK 2,716",Furnished,4,Yes,No,Yes,No,Yes,Yes,No,,584,735,483,794,51,850,423,575,412,560,Excellent,"CZK 19,706",Personal,Brick building,,,,,,C,,"CZK 19,706

                                
                                
                
i",,,,
105313,"CZK 17,000",50.0576898259,14.46641922,"V Dolině, Prague - Michle",1 bedroom with open-plan kitchen,78 m²,"CZK 4,000",Partially furnished,3,Yes,No,No,No,No,No,No,01. 04. 2022,317,"1,209",422,"1,405",718,442,750,"1,116",223,,,"CZK 17,000",Personal,Other,,,Central heating,Middle floor,,,,,,,,
703899,"CZK 15,000",50.05182,14.43587,"Plamínkové, Prague - Nusle",3 bedroom,68 m²,"CZK 6,000",Partially furnished,6,No,No,No,No,No,Yes,No,05. 02. 2022,216,703,258,217,350,163,122,95,513,134,Excellent,"CZK 30,000",Personal,Prefab concrete building,,,,,,C,,,,,,
394152,"CZK 12,000",50.0875586,14.3439497,"Brunclíkova, Prague - Břevnov",2 bedroom,53 m²,"CZK 4,000",Unfurnished,3,Yes,No,No,No,No,No,No,07. 02. 2022,119,462,110,175,208,193,325,209,719,78,,,Personal,Prefab concrete building,,Standard materials and solutions,District heating,Middle floor,Overall,C,,,,,,
703895,"CZK 15,000",50.1394,14.44867,"K Beranovu, Prague - Dolní Chabry",Studio,40 m²,"CZK 1,800",Partially furnished,1,No,Yes,No,No,No,Yes,No,01. 02. 2022,284,"1,009",166,738,585,"1,093",138,,,,New build,"CZK 30,000",Personal,Low-energy building,,,,,,A,,,,,,
9448,"CZK 16,500",50.0554029275,14.4239115715,"Pod Klaudiánkou, Prague - Podolí",1 bedroom with open-plan kitchen,33 m²,"CZK 2,900",Furnished,1,No,Yes,No,No,No,No,Yes,15. 02. 2022,296,647,467,506,392,644,447,807,207,410,Excellent,"CZK 33,000",Personal,Brick building,10 to 30 years years,Premium materials and solutions,Other,Ground floor,,B,,,41 m²,,,
639658,"CZK 12,000",50.071303,14.48217,"V Olšinách, Prague - Vršovice",1 bedroom with open-plan kitchen,53 m²,"CZK 3,800",Unfurnished,1,No,No,Yes,No,No,Yes,No,01. 02. 2022,251,419,151,263,216,320,543,415,642,204,Excellent,"CZK 12,000",Personal,Brick building,,,,,,B,,,,,,
679970,"CZK 24,225",50.0876118,14.4080467,"Míšeňská, Prague - Malá Strana",Studio,35 m²,"CZK 8,075",Furnished,2,No,No,No,No,No,No,No,15. 02. 2022,249,259,109,237,65,537,295,274,806,231,,,,,,,,,,,,,,,,
703891,"CZK 14,925",50.0643299,14.4102127,"Strakonická, Prague - Smíchov",Studio,30 m²,"CZK 4,975",Furnished,2,No,No,No,No,No,Yes,No,29. 01. 2022,211,382,250,989,170,745,812,"1,050",387,543,,,,,,,,,,,,,,,,
703857,"CZK 10,000",50.06272,14.44914,"Kloboučnická, Prague - Nusle",2 bedroom,47 m²,"CZK 3,000",Partially furnished,2,No,No,No,No,No,Yes,No,01. 02. 2022,281,870,353,574,278,621,602,436,914,493,Excellent,"CZK 7,000",Personal,Brick building,,,,,,C,,,,,,
703885,"CZK 13,000",50.14589,14.44956,"Perštejnská, Prague - Dolní Chabry",1 bedroom with open-plan kitchen,55 m²,"CZK 3,000",Unfurnished,1,Yes,No,No,No,Yes,No,No,27. 01. 2022,152,184,160,136,137,898,833,349,,,Excellent,"CZK 16,000",Personal,Brick building,,,,,,E,,,,,,
690538,"CZK 12,900",50.04595,14.32223,"Mukařovského, Prague - Stodůlky",Studio,27 m²,CZK 133,Partially furnished,7,No,No,Yes,No,Yes,Yes,No,26. 11. 2021,,,,,,,,,,,New build,"CZK 25,800",Personal,Other,,,,,,A,Yes,,,Luka Residential s.r.o.,Luka Living Rental apartments,708
693967,"CZK 23,900",50.04595,14.32223,"Mukařovského, Prague - Stodůlky",3 bedroom,79 m²,CZK 133,Furnished,4,No,Yes,Yes,No,Yes,Yes,No,20. 01. 2022,,,,,,,,,,,New build,"CZK 47,800",Personal,Other,1 to 10 years years,Premium materials and solutions,,Middle floor,,A,Yes,,,Luka Residential s.r.o.,Luka Living Rental apartments,418
698442,"CZK 26,500",50.04595,14.32223,"Mukařovského, Prague - Stodůlky",2 bedroom with open-plan kitchen,88 m²,CZK 133,Furnished,8,No,Yes,Yes,No,Yes,Yes,No,26. 01. 2022,,,,,,,,,,,Excellent,"CZK 53,000",Personal,Other,1 to 10 years years,Premium materials and solutions,,Middle floor,,A,Yes,,,Luka Residential s.r.o.,Luka Living Rental apartments,808
669336,"CZK 20,300",50.04595,14.32223,"Mukařovského, Prague - Stodůlky",1 bedroom with open-plan kitchen,50 m²,CZK 133,Furnished,13,No,Yes,Yes,No,Yes,Yes,No,07. 02. 2022,,,,,,,,,,,Excellent,"CZK 40,600",Personal,Other,1 to 10 years years,Premium materials and solutions,,Middle floor,,A,Yes,,,Luka Residential s.r.o.,Luka Living Rental apartments,1304
693963,"CZK 19,100",50.04595,14.32223,"Mukařovského, Prague - Stodůlky",2 bedroom,52 m²,CZK 133,Furnished,10,No,No,Yes,No,Yes,Yes,No,14. 01. 2022,,,,,,,,,,,Excellent,"CZK 38,200",Personal,Other,1 to 10 years years,Premium materials and solutions,,Middle floor,,A,Yes,,,Luka Residential s.r.o.,Luka Living Rental apartments,1016
681607,"CZK 24,500",50.04595,14.32223,"Mukařovského, Prague - Stodůlky",2 bedroom with open-plan kitchen,67 m²,CZK 133,Furnished,1308,No,Yes,Yes,No,Yes,Yes,No,07. 02. 2022,,,,,,,,,,,New build,"CZK 49,000",Personal,Other,1 to 10 years years,Premium materials and solutions,District heating,Middle floor,,A,Yes,,,Luka Residential s.r.o.,Luka Living Rental apartments,711
686770,"CZK 13,100",50.04595,14.32223,"Mukařovského, Prague - Stodůlky",Studio,31 m²,CZK 133,Furnished,4,No,No,Yes,No,Yes,Yes,No,07. 03. 2022,,,,,,,,,,,Excellent,"CZK 26,200",Personal,Other,1 to 10 years years,,,Middle floor,,A,Yes,,,Luka Residential s.r.o.,Luka Living Rental apartments,425T
698940,"CZK 59,250",50.0873557,14.4001355,"Vlašská, Prague - Malá Strana",2 bedroom with open-plan kitchen,90 m²,"CZK 19,750",Furnished,2,No,No,No,No,No,No,No,01. 03. 2022,171,434,49,337,17,310,367,699,784,255,,,,,,,,,,,,,,,,
619927,"CZK 11,800",50.031865,14.393208,"Lumiérů, Prague - Hlubočepy",1 bedroom,40 m²,"CZK 2,200",Furnished,2,No,No,No,No,No,No,No,31. 01. 2022,92,"1,442",756,"1,349",209,"1,407",99,,,,Good,"CZK 14,000",Cooperative,Brick building,,,District heating,Middle floor,Exterior,G,,,,,,
700369,"CZK 10,000",50.0274402,14.3708399,"U Šípků, Prague - Hlubočepy",Small studio,32 m²,"CZK 2,000",Furnished,1,No,No,No,No,No,No,No,01. 02. 2022,301,"1,108",474,"1,106",456,"1,098",260,368,174,502,Excellent,"CZK 12,000",Personal,Other,,,,,,B,,,,,,
703872,"CZK 13,500",50.1038249,14.4797219,"Sokolovská, Prague - Libeň",2 bedroom,55 m²,CZK 600,Partially furnished,3,No,No,No,No,No,Yes,No,01. 02. 2022,86,234,81,291,132,391,427,431,93,325,Excellent,"CZK 13,500",Personal,Brick building,,,,,,G,,,,,,
644591,"CZK 22,000",50.0692867,14.4339185,"U Zvonařky, Prague - Vinohrady",1 bedroom with open-plan kitchen,60 m²,"CZK 4,750",Furnished,1,Yes,No,No,No,Yes,Yes,Yes,09. 02. 2022,104,427,260,486,31,545,329,280,727,810,New build,"CZK 20,000",Personal,Brick building,,Premium materials and solutions,Gas boiler,Raised ground floor,Interior,D,Yes,,,,,
144771,"CZK 17,000",50.0758072,14.4602045,"Čáslavská, Prague - Vinohrady",1 bedroom with open-plan kitchen,66 m²,"CZK 4,500",Furnished,2,No,No,Yes,No,No,Yes,No,01. 03. 2022,67,377,64,323,35,278,507,301,557,210,,"CZK 17,000",Personal,Brick building,,,Gas boiler,Middle floor,,,,,,,,
696244,"CZK 49,000",50.07906,14.44976,"Laubova, Prague - Vinohrady",3 bedroom,118 m²,"CZK 6,000",Partially furnished,4,No,Yes,No,No,Yes,Yes,No,01. 01. 2022,209,273,39,272,113,301,142,267,694,169,Excellent,"CZK 55,000",Personal,Brick building,,,,,,D,,,,,,
657357,"CZK 12,999",50.10667,14.53982,"Poděbradská, Prague - Hloubětín",1 bedroom with open-plan kitchen,53 m²,"CZK 4,999",Furnished,2,Yes,No,No,No,No,Yes,No,01. 02. 2022,78,298,165,279,223,300,438,334,496,232,Excellent,"CZK 20,000",Personal,Brick building,,,,,,G,,,,,,
703862,"CZK 20,000",50.05862,14.42969,"Marie Cibulkové, Prague - Nusle",1 bedroom with open-plan kitchen,49 m²,"CZK 3,681",Partially furnished,6,No,No,No,No,Yes,Yes,No,26. 01. 2022,260,860,224,335,122,200,769,252,290,213,New build,,Personal,Other,1 to 10 years years,Premium materials and solutions,Central heating,,,C,Yes,,,,,
690719,"CZK 47,235",50.0824664,14.4140344,"Divadelní, Prague - Staré Město",4 bedroom,110 m²,"CZK 15,745",Furnished,7,No,Yes,No,No,No,Yes,No,20. 02. 2022,260,938,207,294,98,143,489,445,401,362,,,,,,,,,,,,,,,,
699969,"CZK 17,000",50.06901,14.51067,"Dürerova, Prague - Strašnice",2 bedroom with open-plan kitchen,70 m²,"CZK 4,200",Partially furnished,2,No,No,Yes,No,Yes,Yes,No,27. 01. 2022,168,210,"1,416",261,290,498,324,"1,203",154,,Excellent,"CZK 15,000",Cooperative,Prefab concrete building,,Standard materials and solutions,District heating,,Overall,G,,,,,,
623917,"CZK 9,950",50.071962,14.432714,"Koubkova, Prague - Vinohrady",Small studio,20 m²,"CZK 2,950",Furnished,3,Yes,No,No,No,No,Yes,Yes,05. 07. 2021,155,283,79,285,75,329,300,213,645,732,New build,"CZK 12,900",Personal,Brick building,1 to 10 years years,Premium materials and solutions,Central heating,Middle floor,Overall,G,,,,,,
619337,"CZK 11,500",50.105327,14.50215,"Freyova, Prague - Vysočany",Studio,30 m²,"CZK 3,000",,10,No,No,No,No,No,Yes,No,01. 03. 2022,407,741,349,410,281,694,475,506,687,234,Excellent,"CZK 11,500",Personal,Prefab concrete building,,,,,,A,,,,,,
627227,"CZK 11,950",50.076033,14.434163,"Anglická, Prague - Vinohrady",Studio,31 m²,"CZK 3,950",Furnished,2,No,Yes,No,No,Yes,Yes,No,06. 12. 2021,132,87,158,41,94,282,369,485,488,641,Excellent,"CZK 15,900",Personal,Brick building,1 to 10 years years,Premium materials and solutions,Central heating,Middle floor,Overall,G,Yes,,,,,
695001,"CZK 16,000",50.101841946188,14.452939237593,"Tusarova, Prague - Holešovice",1 bedroom with open-plan kitchen,45 m²,"CZK 3,000",Furnished,4,No,No,No,No,No,Yes,No,01. 01. 2022,181,539,89,261,7,198,400,363,176,277,New build,"CZK 16,000",Personal,Brick building,,,,,,B,,,,,,
691753,"CZK 21,375",50.0776816,14.4596393,"Vinohradská, Prague - Vinohrady",1 bedroom with open-plan kitchen,63 m²,"CZK 7,125",Furnished,4,No,No,No,No,No,Yes,No,29. 01. 2022,139,286,63,144,80,96,617,515,661,148,,,,,,,,,,,,,,,,
587029,"CZK 17,000",50.02053,14.57886,Prague - Pitkovice,1 bedroom with open-plan kitchen,67 m²,"CZK 4,900",Furnished,2,Yes,No,No,No,No,No,No,15. 02. 2022,125,"1,271",230,,,,,,,,New build,"CZK 22,000",Personal,Brick building,,,,,,G,,,,,,
703852,"CZK 12,300",50.06878,14.41582,"Podskalská, Prague - Nové Město",Small studio,26 m²,"CZK 1,000",Partially furnished,8,No,No,No,No,No,Yes,No,01. 04. 2022,172,954,25,422,62,232,276,306,329,156,Excellent,"CZK 13,300",Cooperative,Brick building,,,,,,G,,,,,,
703851,"CZK 16,500",50.07105,14.46905,"Novorossijská, Prague - Vršovice",2 bedroom,64 m²,"CZK 3,800",Partially furnished,3,Yes,No,No,No,No,Yes,No,27. 01. 2022,128,458,285,370,266,281,222,148,729,245,Excellent,"CZK 12,000",Personal,Brick building,,,,,,G,,,,,,
255166,"CZK 12,500",50.0357188,14.5006237,"Benkova, Prague - Chodov",Small studio,31 m²,,Furnished,11,No,No,Yes,No,No,No,No,01. 03. 2022,260,383,407,"1,025",209,465,273,272,479,95,,"CZK 12,500",Cooperative,Prefab concrete building,,,Central heating,,Overall,C,,,,,,
695067,"CZK 19,000",50.101887608886,14.45268887592,"Tusarova, Prague - Holešovice",1 bedroom with open-plan kitchen,47 m²,"CZK 3,000",Furnished,3,No,No,No,No,No,Yes,No,01. 02. 2022,181,539,89,261,7,198,400,363,176,277,New build,"CZK 19,000",Personal,Brick building,,,,,,B,,,,,,
695003,"CZK 16,000",50.101752312999,14.45294761878,"Tusarova, Prague - Holešovice",1 bedroom,44 m²,"CZK 3,000",Furnished,4,No,No,No,No,No,Yes,No,01. 01. 2022,188,545,95,268,25,205,407,369,113,246,New build,"CZK 16,000",Personal,Brick building,,,,,,B,,,,,,
66020,"CZK 18,500",50.0866182,14.4531338,"Roháčova, Prague - Žižkov",2 bedroom,74 m²,CZK 810,Partially furnished,1,No,No,No,Yes,No,No,No,01. 05. 2022,120,255,151,447,58,317,291,355,291,496,Excellent,"CZK 37,000",,Brick building,1 to 10 years years,Premium materials and solutions,Gas boiler,Middle floor,Overall,D,,,,,,
703844,"CZK 20,000",50.0685073,14.438092,"Perucká, Prague - Vinohrady",1 bedroom with open-plan kitchen,42 m²,"CZK 3,500",Furnished,3,No,Yes,Yes,No,Yes,Yes,No,14. 02. 2022,544,663,441,769,469,742,530,451,635,750,New build,"CZK 20,000",Personal,Brick building,,,,,,G,,,,,,
491078,"CZK 14,600",50.0570883,14.4959689,"Jabloňová, Prague - Záběhlice",1 bedroom with open-plan kitchen,38 m²,"CZK 3,400",Furnished,12,No,No,No,Yes,No,Yes,No,01. 02. 2022,101,643,176,946,292,77,207,699,228,207,Excellent,"CZK 30,000",Personal,Prefab concrete building,,Standard materials and solutions,District heating,Middle floor,Overall,,,,,,,
667199,"CZK 9,500",50.00972,14.46059,"Libušská, Prague - Libuš",Studio,42 m²,"CZK 2,000",Partially furnished,,No,Yes,No,No,No,No,No,01. 03. 2022,60,133,379,245,356,898,"1,330",964,,,Excellent,"CZK 10,000",Cooperative,Brick building,,,,,,D,,,,,,
530853,"CZK 17,000",50.0532112,14.4206756,"U Kublova, Prague - Podolí",Other,69 m²,"CZK 1,000",Partially furnished,4,No,No,Yes,No,No,No,No,01. 02. 2022,298,810,184,610,212,807,580,"1,099",214,345,Excellent,"CZK 34,000",Personal,Brick building,1 to 10 years years,Premium materials and solutions,Other,Attic,Overall,B,,,,,,
652889,"CZK 17,500",50.06268,14.442082,"Táborská, Prague - Nusle",1 bedroom with open-plan kitchen,53 m²,"CZK 4,400",Furnished,2,Yes,No,No,No,No,No,No,01. 02. 2022,0,488,0,188,158,79,221,639,420,359,Excellent,"CZK 17,500",Personal,Brick building,,,,,,D,,,,,,
654482,"CZK 16,000",50.0905,14.47285,"Buchovcova, Prague - Žižkov",2 bedroom,47 m²,"CZK 2,800",Furnished,2,No,No,No,No,No,Yes,No,01. 02. 2022,249,"1,016",92,312,77,135,336,291,411,337,Excellent,"CZK 16,000",Personal,Brick building,,,,,,C,,,,,,
593117,"CZK 13,500",50.071856,14.371181,"Nad Buďánkami ​Ⅰ, Prague - Smíchov",Studio,36 m²,"CZK 2,000",Partially furnished,4,Yes,Yes,No,No,No,No,No,01. 06. 2021,309,518,286,670,538,566,763,"1,044",482,474,Excellent,"CZK 13,500",Personal,Brick building,,Standard materials and solutions,Central heating,Top floor,,G,,,,,,
555302,"CZK 32,000",50.0750555,14.4531749,Prague - Vinohrady,2 bedroom,79 m²,"CZK 4,000",Furnished,3,No,No,No,No,No,Yes,No,31. 01. 2022,146,311,101,261,137,64,218,489,530,253,Excellent,"CZK 45,000",Personal,Brick building,1 to 10 years years,Premium materials and solutions,Gas boiler,Middle floor,Overall,,,,,,,
699206,"CZK 16,000",50.11047,14.45104,"Jankovcova, Prague - Holešovice",Studio,34 m²,"CZK 2,100",Furnished,2,No,No,No,No,Yes,No,No,01. 02. 2022,20,950,490,763,452,549,406,"1,225",679,370,New build,"CZK 18,100",Personal,Other,,,,,,G,,,,,,
692479,"CZK 20,880",50.0713305,14.4638794,"Na Míčánkách, Prague - Vršovice",1 bedroom with open-plan kitchen,49 m²,"CZK 6,960",Furnished,2,No,No,No,No,No,Yes,No,29. 01. 2022,84,743,87,659,277,595,408,307,678,198,,,,,,,,,,,,,,,,
696416,"CZK 36,000",50.0740202,14.4399148,"Francouzská, Prague - Vinohrady",2 bedroom with open-plan kitchen,87 m²,"CZK 12,000",Furnished,7,No,Yes,No,No,No,Yes,No,28. 02. 2022,154,287,73,428,33,408,72,565,703,470,,,,,,,,,,,,,,,,
696414,"CZK 14,175",50.073014,14.4308483,"Tyršova, Prague - Nové Město",Studio,24 m²,"CZK 4,725",Furnished,5,No,No,No,No,No,Yes,No,01. 03. 2022,182,528,118,213,29,198,369,452,636,686,,,,,,,,,,,,,,,,
692907,"CZK 12,825",50.0236328,14.420109,"Na Výspě, Prague - Hodkovičky",1 bedroom,18 m²,"CZK 4,275",Furnished,1,No,No,No,No,No,No,No,02. 02. 2022,205,"1,125",579,"1,118",554,629,856,827,"1,391",591,,,,,,,,,,,,,,,,
572796,"CZK 12,950",50.0936933,14.4600893,"Na Střelnici, Prague - Karlín",1 bedroom,35 m²,CZK 750,Furnished,1,Yes,No,No,No,No,No,No,01. 02. 2022,390,"1,048",140,658,285,521,157,"1,057",572,88,,"CZK 30,000",Cooperative,Brick building,,,,,,,,,,,,
703706,"CZK 21,100",50.02114,14.46663,"V Zeleném údolí, Prague - Kunratice",2 bedroom with open-plan kitchen,73 m²,"CZK 3,750",Partially furnished,5,Yes,Yes,No,No,No,Yes,Yes,25. 01. 2022,302,"1,259","1,136",89,429,684,118,,,,New build,"CZK 30,000",Personal,Brick building,10 to 30 years years,Standard materials and solutions,Central heating,Middle floor,,C,,,,,,
607626,"CZK 35,000",50.10628,14.46818,"Smrčkova, Prague - Libeň",1 bedroom with open-plan kitchen,76 m²,"CZK 4,500",Partially furnished,,No,Yes,Yes,No,Yes,Yes,Yes,01. 04. 2022,608,"1,396",719,810,364,731,571,"1,222",253,367,New build,"CZK 39,500",Personal,Brick building,1 to 10 years years,Premium materials and solutions,,Ground floor,,B,Yes,,,,,
703823,"CZK 11,000",50.05527,14.50337,"Hvozdíková, Prague - Záběhlice",2 bedroom,52 m²,"CZK 1,000",Furnished,2,No,No,No,Yes,No,No,No,08. 04. 2022,199,336,628,837,227,600,686,373,797,266,Excellent,"CZK 20,000",Personal,Prefab concrete building,,,,,,G,,,,,,
703821,"CZK 16,000",50.04529,14.45471,"Bítovská, Prague - Michle",2 bedroom with open-plan kitchen,65 m²,"CZK 5,600",Furnished,1,No,No,No,No,No,No,No,26. 01. 2022,356,550,506,532,254,504,406,375,462,108,Excellent,"CZK 20,000",Personal,Prefab concrete building,,,,,,G,,,,,,
703820,"CZK 10,500",50.09882,14.48151,"Novovysočanská, Prague - Libeň",Studio,25 m²,"CZK 2,200",Partially furnished,5,No,No,No,No,No,Yes,No,31. 03. 2022,62,"1,492",591,"1,153",512,"1,255",701,694,828,422,New build,"CZK 20,000",Personal,Brick building,,,,,,B,,,,,,
578835,"CZK 13,000",50.130495,14.475523,"Chabařovická, Prague - Kobylisy",1 bedroom with open-plan kitchen,45 m²,"CZK 2,500",Partially furnished,7,No,No,No,No,No,Yes,No,01. 01. 1970,372,596,69,725,342,636,250,261,"1,469",156,,"CZK 26,000",Personal,Prefab concrete building,,Standard materials and solutions,District heating,Middle floor,Overall,C,,,,,,
695853,"CZK 15,000",50.098175,14.4055829,"Muchova, Prague - Dejvice",Studio,35 m²,"CZK 3,900",Furnished,3,No,No,No,No,No,No,No,17. 01. 2022,49,770,106,189,97,190,340,993,128,458,Excellent,"CZK 18,900",Personal,Brick building,,,Gas boiler,Middle floor,,G,,,,,,
694846,"CZK 59,738",50.0902503,14.4293691,"Truhlářská, Prague - Nové Město",2 bedroom with open-plan kitchen,186 m²,"CZK 19,912",Furnished,3,No,No,No,No,No,Yes,No,01. 02. 2022,176,468,153,183,95,334,340,266,546,580,,,,,,,,,,,,,,,,
696838,"CZK 45,000",50.090911,14.4295366,"Soukenická, Prague - Nové Město",1 bedroom with open-plan kitchen,50 m²,"CZK 15,000",Furnished,4,No,No,No,No,No,Yes,Yes,20. 02. 2022,144,325,176,152,60,230,49,259,388,439,,,,,,,,,,,,,,,,
696412,"CZK 21,600",50.0654522,14.409929,"Strakonická, Prague - Smíchov",1 bedroom with open-plan kitchen,60 m²,"CZK 7,200",Furnished,6,No,No,No,No,No,Yes,No,15. 02. 2022,276,508,376,863,221,634,685,923,376,417,,,,,,,,,,,,,,,,
673879,"CZK 14,000",50.09076,14.66856,"Medinská, Prague - Klánovice",2 bedroom with open-plan kitchen,65 m²,"CZK 4,000",Partially furnished,2,Yes,No,Yes,No,Yes,No,Yes,01. 09. 2021,339,656,175,443,474,352,610,560,578,,Good,"CZK 18,000",Personal,Brick building,,,,,,A,,,,,,
570411,"CZK 13,000",50.117378704321,14.509146350386,"U Voborníků, Prague - Vysočany",1 bedroom,32 m²,"CZK 2,500",Partially furnished,1,No,No,No,No,No,No,No,01. 11. 2021,136,"1,279",507,795,187,765,986,268,942,403,New build,"CZK 39,000",Personal,Brick building,1 to 10 years years,Standard materials and solutions,Central heating,Middle floor,Overall,,,,,,,
198973,"CZK 10,000",50.0464879,14.4427116,"U nových domů III, Prague - Krč",Studio,31 m²,"CZK 2,500",Partially furnished,1,No,No,Yes,No,No,No,No,15. 01. 2022,291,414,111,356,137,313,174,583,593,332,Excellent,"CZK 15,000",Personal,Brick building,,Standard materials and solutions,Gas boiler,Raised ground floor,Overall,C,,,300 m²,,,
697606,"CZK 12,500",50.05397,14.3422,"Běhounkova, Prague - Stodůlky",1 bedroom with open-plan kitchen,35 m²,"CZK 2,900",Unfurnished,5,No,No,No,No,No,Yes,No,05. 01. 2022,243,534,240,539,442,204,423,163,"1,153",129,Excellent,"CZK 30,700",Personal,Prefab concrete building,10 to 30 years years,Premium materials and solutions,District heating,Middle floor,Overall,D,,,,,,
577002,"CZK 17,000",50.118464,14.422005,Prague - Troja,1 bedroom with open-plan kitchen,43 m²,"CZK 3,500",Unfurnished,1,No,No,No,No,No,No,No,01. 01. 2022,399,778,398,794,980,582,"1,071",806,,,,"CZK 51,000",Personal,Brick building,,,,,,C,,,,,,
607379,"CZK 14,500",50.074462,14.414953,"Gorazdova, Prague - Nové Město",Studio,24 m²,"CZK 2,900",Furnished,2,No,No,No,No,No,Yes,No,01. 09. 2021,149,414,72,318,57,331,326,674,890,457,Excellent,"CZK 30,000",Personal,Brick building,1 to 10 years years,Standard materials and solutions,Central heating,Middle floor,Overall,E,,,,,,
699551,"CZK 17,933",50.0754859,14.4856652,"Irkutská, Prague - Vinohrady",1 bedroom with open-plan kitchen,60 m²,"CZK 5,978",Furnished,3,No,No,No,No,No,No,No,01. 03. 2022,202,655,227,405,291,338,661,768,874,396,,,,,,,,,,,,,,,,
696835,"CZK 25,500",50.0471114,14.4429584,"Krchlebská, Prague - Krč",1 bedroom with open-plan kitchen,41 m²,"CZK 8,500",Furnished,5,No,No,No,No,No,No,No,20. 02. 2022,394,499,253,432,280,389,317,725,696,412,,,,,,,,,,,,,,,,
697479,"CZK 22,500",50.1059511,14.4731393,"Světova, Prague - Libeň",2 bedroom with open-plan kitchen,80 m²,"CZK 7,500",Furnished,3,No,No,No,No,No,No,No,01. 03. 2022,44,595,43,80,28,96,206,509,351,252,,,,,,,,,,,,,,,,
689254,"CZK 25,500",50.0876118,14.4080467,"Míšeňská, Prague - Malá Strana",1 bedroom with open-plan kitchen,46 m²,"CZK 8,500",Furnished,2,No,No,No,No,No,No,No,29. 01. 2022,249,259,109,237,65,537,295,274,806,231,,,,,,,,,,,,,,,,
697543,"CZK 22,500",50.1013742,14.4358954,"Šternberkova, Prague - Holešovice",2 bedroom,83 m²,"CZK 7,500",Furnished,3,Yes,No,No,No,No,Yes,No,02. 03. 2022,184,870,174,226,62,375,320,"1,488",599,931,,,,,,,,,,,,,,,,
699746,"CZK 10,000",50.0923,14.43166,"Klimentská, Prague - Nové Město",4 bedroom,90 m²,"CZK 2,500",Furnished,2,Yes,No,Yes,No,No,Yes,No,01. 02. 2022,191,512,94,345,78,271,75,226,588,175,Excellent,"CZK 10,000",Personal,Prefab concrete building,,,,,,G,,,,,,
699550,"CZK 26,250",50.0902986,14.4271043,"Benediktská, Prague - Staré Město",1 bedroom with open-plan kitchen,50 m²,"CZK 8,750",Furnished,3,No,No,No,No,No,Yes,No,17. 03. 2022,51,118,74,93,1,171,160,250,261,336,,,,,,,,,,,,,,,,
698725,"CZK 15,000",50.1117598,14.4781227,"Pod Labuťkou, Prague - Libeň",3 bedroom,70 m²,"CZK 5,000",Furnished,1,No,No,No,No,No,No,No,11. 03. 2022,160,"1,333",485,"1,024",121,669,803,"1,065",747,6,,,,,,,,,,,,,,,,
693404,"CZK 22,125",50.1085928,14.4915135,"U školičky, Prague - Libeň",2 bedroom with open-plan kitchen,63 m²,"CZK 7,375",Furnished,5,No,No,No,No,No,No,No,29. 01. 2022,181,533,222,533,196,258,442,227,114,112,,,,,,,,,,,,,,,,
699548,"CZK 45,000",50.0885763,14.423344,"Týnská, Prague - Staré Město",3 bedroom,100 m²,"CZK 15,000",Furnished,3,No,No,No,No,No,No,No,17. 03. 2022,143,354,108,199,36,219,154,136,9,154,,,,,,,,,,,,,,,,
699079,"CZK 33,750",50.0790219,14.4245347,"Školská, Prague - Nové Město",Studio,26 m²,"CZK 11,250",Furnished,1,Yes,No,No,No,No,Yes,No,13. 03. 2022,326,716,122,141,29,217,161,519,502,456,,,,,,,,,,,,,,,,
680048,"CZK 39,750",50.079465,14.4353199,"Mánesova, Prague - Vinohrady",1 bedroom with open-plan kitchen,75 m²,"CZK 13,250",Furnished,4,No,No,No,No,No,Yes,No,29. 01. 2022,156,408,244,342,59,242,281,281,533,788,,,,,,,,,,,,,,,,
703807,"CZK 10,500",50.05439,14.44174,"Nad Jezerkou, Prague - Nusle",1 bedroom with open-plan kitchen,43 m²,"CZK 3,600",Unfurnished,,No,No,No,No,No,No,No,01. 02. 2022,66,978,175,413,17,609,314,288,"1,007",262,Good,"CZK 14,100",Personal,Brick building,,,,,,D,,,,,,
680095,"CZK 63,113",50.0761284,14.4327244,"Londýnská, Prague - Vinohrady",3 bedroom,70 m²,"CZK 21,037",Furnished,3,No,Yes,No,No,No,No,No,29. 01. 2022,100,264,66,90,3,201,314,391,396,647,,,,,,,,,,,,,,,,
680027,"CZK 44,973",50.1025661,14.4522431,"Na Maninách, Prague - Holešovice",1 bedroom with open-plan kitchen,69 m²,"CZK 14,991",Furnished,6,Yes,Yes,No,No,No,Yes,No,29. 01. 2022,105,350,144,146,109,151,432,394,290,329,,,,,,,,,,,,,,,,
703808,"CZK 46,313",50.0865843,14.4323212,"Dlážděná, Prague - Nové Město",1 bedroom with open-plan kitchen,60 m²,"CZK 15,437",Furnished,4,No,No,No,No,No,Yes,No,27. 03. 2022,110,274,157,129,77,143,300,496,282,367,,,,,,,,,,,,,,,,
700639,"CZK 41,850",50.0883535,14.4185437,"Maiselova, Prague - Josefov",2 bedroom,89 m²,"CZK 13,950",Furnished,3,No,No,No,No,No,No,No,19. 02. 2022,190,239,178,330,3,452,307,572,33,553,,,,,,,,,,,,,,,,
680086,"CZK 25,500",50.0901585,14.3426685,"Na Okraji, Prague - Veleslavín",1 bedroom with open-plan kitchen,90 m²,"CZK 8,500",Furnished,1,No,No,No,No,No,No,No,29. 01. 2022,142,547,112,211,216,280,208,0,878,210,,,,,,,,,,,,,,,,
680079,"CZK 56,250",50.0766855,14.4294035,"Sokolská, Prague - Nové Město",1 bedroom with open-plan kitchen,45 m²,"CZK 18,750",Furnished,4,No,No,No,No,No,No,No,29. 01. 2022,212,525,185,151,68,162,317,392,109,262,,,,,,,,,,,,,,,,
699037,"CZK 17,100",50.0717643,14.4385436,"Americká, Prague - Vinohrady",Studio,27 m²,"CZK 5,700",Furnished,4,No,No,No,No,No,Yes,No,29. 01. 2022,272,322,70,607,60,509,83,250,792,565,,,,,,,,,,,,,,,,
703802,"CZK 10,500",50.11506,14.56703,"Sicherova, Prague - Kyje",Studio,35 m²,"CZK 2,300",Partially furnished,3,Yes,No,No,No,No,Yes,No,25. 01. 2022,419,"1,059",834,"1,428","1,337",846,,,,,New build,"CZK 10,500",Personal,Low-energy building,,,,,,B,,,,,,
703799,"CZK 18,500",50.05919,14.2832,"Milotická, Prague - Zličín",2 bedroom,60 m²,"CZK 4,000",Partially furnished,2,Yes,No,Yes,No,Yes,Yes,No,25. 01. 2022,433,756,923,853,710,977,320,"1,022",116,,New build,"CZK 37,000",Personal,Brick building,,,,,,G,Yes,,,,,
496946,"CZK 15,000",50.0218224,14.4407186,"Písnická, Prague - Kamýk",2 bedroom,66 m²,"CZK 5,000",Unfurnished,4,No,No,Yes,Yes,No,Yes,No,,128,674,164,648,722,549,409,412,800,282,Excellent,"CZK 20,000",Personal,Prefab concrete building,,Standard materials and solutions,District heating,Middle floor,Interior,,,,,,,
703793,"CZK 25,000",50.0556,14.4954,"Hyacintová, Prague - Záběhlice",4 bedroom,110 m²,"CZK 6,000",Furnished,6,Yes,No,Yes,No,No,Yes,Yes,01. 02. 2022,169,716,288,"1,128",62,189,148,629,204,341,Excellent,"CZK 35,000",Personal,Brick building,,,,,,G,,,,,,
379118,"CZK 12,100",49.999400230001,14.410353649738,"Benáčanova, Prague - Modřany",Studio,35 m²,"CZK 2,400",Partially furnished,3,Yes,No,Yes,No,No,Yes,No,,61,"1,008",908,"1,103",275,756,893,758,461,221,New build,,Personal,Brick building,1 to 10 years years,,District heating,,,,Yes,,,,,
569427,"CZK 17,000",50.0862158,14.4443522,"Řehořova, Prague - Žižkov",Studio,34 m²,"CZK 3,000",Furnished,5,No,No,No,No,No,Yes,No,01. 02. 2022,411,641,400,515,317,608,376,415,469,841,,"CZK 17,000",Personal,Brick building,1 to 10 years years,,Electric boiler,Top floor,Overall,,,,,,,
703788,"CZK 12,941",50.0215761,14.4894951,"Jana Růžičky, Prague - Kunratice",1 bedroom with open-plan kitchen,45 m²,"CZK 3,136",,1,No,No,No,No,No,No,No,24. 01. 2022,111,891,165,984,391,184,210,194,471,92,Good,"CZK 16,077",Personal,Other,,,,,,,,"CZK 1,941",,,,
680099,"CZK 29,925",50.0845694,14.4671948,"Pitterova, Prague - Žižkov",1 bedroom with open-plan kitchen,,"CZK 9,975",Furnished,7,No,No,No,No,No,Yes,Yes,29. 01. 2022,221,235,240,630,210,69,520,374,219,292,,,,,,,,,,,,,,,,
695225,"CZK 16,245",50.0739772,14.4306534,"Legerova, Prague - Vinohrady",Studio,33 m²,"CZK 5,415",Furnished,2,No,No,No,No,No,Yes,No,29. 01. 2022,132,574,130,206,94,143,358,427,494,560,,,,,,,,,,,,,,,,
688331,"CZK 29,250",50.0830689,14.4668702,"Olšanská d, Prague - Žižkov",1 bedroom with open-plan kitchen,85 m²,"CZK 9,750",Furnished,4,No,Yes,No,No,No,Yes,Yes,29. 01. 2022,213,228,353,747,332,258,643,491,336,409,,,,,,,,,,,,,,,,
703786,"CZK 11,500",50.1057629,14.4769956,"Ronkova, Prague - Libeň",Studio,24 m²,"CZK 1,154",,1,No,No,No,No,No,No,No,01. 02. 2022,133,408,192,430,4,361,445,217,434,64,Good,"CZK 10,933",Personal,Other,,,,,,,,"CZK 1,467",,,,
263023,"CZK 12,000",50.0570518499,14.2811066211,"Sazovická, Prague - Zličín",Studio,33 m²,"CZK 2,500",Furnished,4,Yes,No,No,No,Yes,No,No,,276,"1,019",939,868,953,993,342,"1,215",175,,,"CZK 14,500",Personal,Brick building,,,,,,,,,,,,
703783,"CZK 19,000",50.0298,14.48466,"Hrabákova, Prague - Chodov",2 bedroom with open-plan kitchen,72 m²,"CZK 4,500",Partially furnished,5,No,No,Yes,Yes,No,Yes,No,20. 02. 2022,285,465,21,628,245,358,293,666,446,125,Excellent,"CZK 30,000",Cooperative,Prefab concrete building,,,,,,B,,,,,,
688580,"CZK 12,900",50.0378,14.33674,"Bašteckého, Prague - Stodůlky",1 bedroom with open-plan kitchen,56 m²,"CZK 4,240",Furnished,1,No,No,Yes,No,No,Yes,No,17. 10. 2021,260,630,239,843,103,502,192,564,112,74,Excellent,"CZK 26,000",Personal,Brick building,,Standard materials and solutions,Central heating,Raised ground floor,,G,,,,,,
695370,"CZK 29,700",50.0739894,14.440101,"Francouzská, Prague - Vinohrady",2 bedroom,92 m²,"CZK 9,900",Furnished,7,No,Yes,No,No,No,Yes,No,10. 02. 2022,149,274,60,441,20,421,59,552,690,457,,,,,,,,,,,,,,,,
703776,"CZK 9,000",50.0384812,14.5624117,"Rezlerova, Prague - Petrovice",2 bedroom with open-plan kitchen,67 m²,"CZK 3,000",Furnished,5,No,No,No,No,No,Yes,No,29. 01. 2022,224,428,391,353,407,414,360,454,764,51,,,,,,,,,,,,,,,,
680007,"CZK 45,000",50.082182161145,14.415757035582,"Karoliny Světlé, Prague - Staré Město",2 bedroom,72 m²,"CZK 15,000",Furnished,3,No,No,No,No,No,Yes,No,29. 01. 2022,186,811,109,132,85,110,274,275,231,398,,,,,,,,,,,,,,,,
398657,"CZK 15,900",50.0560071,14.446201,"U Družstva Život, Prague - Nusle",1 bedroom with open-plan kitchen,56 m²,CZK 927,Partially furnished,3,No,No,No,No,No,No,No,,362,967,113,521,349,959,264,180,844,345,,"CZK 15,900",Personal,Brick building,1 to 10 years years,Premium materials and solutions,,,Overall,,,,,,,
672559,"CZK 20,500",50.0477662,14.4642496,Prague - Michle,2 bedroom,61 m²,"CZK 4,000",Partially furnished,1,No,Yes,Yes,No,Yes,Yes,No,16. 08. 2021,348,764,349,826,340,811,101,136,621,325,New build,,Personal,Brick building,,,Central heating,Ground floor,,G,Yes,,45 m²,,,
703772,"CZK 11,000",49.9670426,14.383874,"Tunelářů, Prague - Zbraslav",2 bedroom with open-plan kitchen,68 m²,"CZK 7,000",Partially furnished,2,No,No,Yes,Yes,No,Yes,No,01. 02. 2022,200,"1,354",196,129,273,606,468,116,,,Good,"CZK 20,000",Cooperative,Prefab concrete building,,,,,,B,,,,,,
703771,"CZK 13,000",50.0716753,14.3708825,"Nad Buďánkami ​Ⅰ, Prague - Smíchov",1 bedroom with open-plan kitchen,40 m²,"CZK 3,250",Furnished,1,No,No,Yes,No,No,No,No,01. 03. 2022,338,546,315,699,567,594,792,"1,073",511,502,Excellent,"CZK 13,000",Personal,Brick building,,Standard materials and solutions,Gas boiler,Middle floor,Overall,D,,,,,,
703767,"CZK 14,000",50.03565,14.33923,"Janského, Prague - Stodůlky",1 bedroom with open-plan kitchen,45 m²,"CZK 3,750",Furnished,3,No,No,Yes,No,No,Yes,No,01. 02. 2022,265,291,238,"1,144",374,251,69,167,383,170,Excellent,"CZK 28,000",Personal,Prefab concrete building,,,District heating,,Overall,G,,,,,,
624657,"CZK 36,000",50.094842,14.464376,"Molákova, Prague - Karlín",4 bedroom with open-plan kitchen,110 m²,"CZK 6,000",Furnished,5,No,No,Yes,No,No,Yes,No,25. 01. 2022,348,"1,409",373,"1,019",285,882,160,698,932,329,Excellent,"CZK 30,000",Personal,Prefab concrete building,,Premium materials and solutions,District heating,,Overall,G,,,,,,
696924,"CZK 31,706",50.0183023,14.5625656,"Ibišková, Prague - Křeslice",4 bedroom with open-plan kitchen,180 m²,"CZK 10,569",Furnished,1,Yes,Yes,No,No,No,No,Yes,29. 01. 2022,695,843,921,,,,,,,,,,,,,,,,,,,,,,,
690503,"CZK 26,400",50.0779159,14.4375296,"Vinohradská, Prague - Vinohrady",1 bedroom with open-plan kitchen,40 m²,"CZK 8,800",Furnished,7,No,No,No,No,No,Yes,No,29. 01. 2022,75,316,151,67,35,51,260,350,400,731,,,,,,,,,,,,,,,,
700159,"CZK 39,819",50.0928722,14.4500782,"Křižíkova a, Prague - Karlín",5 bedroom,125 m²,"CZK 13,273",Furnished,4,Yes,No,No,No,No,Yes,Yes,29. 01. 2022,123,293,167,222,66,246,411,"1,258",283,254,,,,,,,,,,,,,,,,
690488,"CZK 18,000",50.0820746,14.482309,"Na Třebešíně, Prague - Strašnice",1 bedroom with open-plan kitchen,46 m²,"CZK 6,000",Furnished,1,No,No,No,No,No,No,No,29. 01. 2022,211,"1,258",662,"1,150",181,848,"1,132",609,96,214,,,,,,,,,,,,,,,,
703624,"CZK 13,000",50.1266889,14.505251,"Kytlická, Prague - Prosek",1 bedroom with open-plan kitchen,60 m²,"CZK 3,000",Partially furnished,1,No,No,Yes,Yes,No,Yes,No,01. 02. 2022,305,926,187,955,395,"1,070",179,601,"1,439",228,Excellent,"CZK 16,000",Personal,Brick building,,,,,,A,,,,,,
703761,"CZK 12,500",50.03556,14.41117,"Zelinářská, Prague - Braník",1 bedroom with open-plan kitchen,44 m²,CZK 800,Partially furnished,2,No,No,No,No,No,No,No,01. 02. 2022,178,359,220,154,278,389,196,"1,176",207,,Excellent,"CZK 12,000",Personal,Brick building,,,,,,G,,,,,,
703754,"CZK 11,500",50.01114,14.45032,"Smotlachova, Prague - Kamýk",1 bedroom with open-plan kitchen,49 m²,"CZK 3,000",Partially furnished,6,No,No,No,No,No,Yes,No,25. 01. 2022,386,"1,062",433,528,"1,113",702,917,568,132,,Excellent,"CZK 14,500",Personal,Prefab concrete building,,,,,,D,,,,,,
700262,"CZK 8,000",50.0830792,14.3637665,"8. listopadu, Prague - Břevnov",Small studio,25 m²,"CZK 2,900",Partially furnished,-1,No,No,No,No,No,No,No,20. 01. 2022,137,224,88,91,16,259,251,752,169,220,Good,"CZK 19,000",Personal,Brick building,,,,,,G,,,,,,
700615,"CZK 19,000",50.09525,14.50889,"Mezilehlá, Prague - Hrdlořezy",1 bedroom with open-plan kitchen,55 m²,"CZK 6,700",Furnished,1,Yes,Yes,Yes,No,No,Yes,Yes,01. 03. 2022,189,499,654,463,962,728,"1,279","1,091",262,,New build,"CZK 20,000",Personal,Brick building,,,,,,G,,,,,,
700154,"CZK 9,800",50.12683,14.46463,Prague - Kobylisy,Studio,23 m²,"CZK 3,000",Partially furnished,13,No,No,No,No,No,Yes,No,01. 02. 2022,269,510,258,278,243,472,163,205,823,210,Good,"CZK 20,000",Personal,Prefab concrete building,,,District heating,Middle floor,,G,,,,,,
681224,"CZK 9,000",50.07048,14.39916,"Mrázovka, Prague - Smíchov",Small studio,18 m²,"CZK 2,000",Furnished,-1,No,No,No,No,No,No,No,01. 09. 2021,329,258,251,246,225,307,73,726,713,232,Excellent,"CZK 9,000",Other,Brick building,,,,,,G,,,,,,
700259,"CZK 20,000",50.10428,14.45279,"Přístavní, Prague - Holešovice",3 bedroom with open-plan kitchen,90 m²,"CZK 6,000",Furnished,5,No,No,No,No,No,Yes,No,01. 02. 2022,126,494,83,189,70,195,635,598,291,363,Good,"CZK 40,000",Personal,Brick building,,,,Attic,,G,,,,,,
680081,"CZK 33,750",50.0800377,14.4184609,"Opatovická, Prague - Nové Město",1 bedroom,,"CZK 11,250",Furnished,3,No,No,No,No,No,No,No,29. 01. 2022,208,625,166,256,8,279,151,489,199,646,,,,,,,,,,,,,,,,
691037,"CZK 41,625",50.0806286,14.4175374,"Ostrovní, Prague - Nové Město",3 bedroom with open-plan kitchen,112 m²,"CZK 13,875",Furnished,4,No,Yes,No,No,No,Yes,No,29. 01. 2022,168,738,31,217,8,217,106,336,114,565,,,,,,,,,,,,,,,,
690487,"CZK 15,334",50.0839446,14.4142188,"Karoliny Světlé, Prague - Staré Město",1 bedroom,29 m²,"CZK 5,111",Furnished,2,No,No,No,No,No,No,No,29. 01. 2022,121,731,23,390,14,376,531,533,489,221,,,,,,,,,,,,,,,,
680003,"CZK 52,500",50.090911,14.4295366,"Soukenická, Prague - Nové Město",2 bedroom with open-plan kitchen,90 m²,"CZK 17,500",Furnished,4,No,No,No,No,No,Yes,Yes,29. 01. 2022,144,325,176,152,60,230,49,259,388,439,,,,,,,,,,,,,,,,
630075,"CZK 11,900",50.132957,14.434955,"Pekařova, Prague - Bohnice",Studio,36 m²,"CZK 2,100",Partially furnished,3,Yes,Yes,No,No,Yes,No,No,Ihned,407,437,262,418,959,836,491,336,310,,New build,"CZK 24,000",Personal,Brick building,1 to 10 years years,Standard materials and solutions,Gas boiler,Top floor,,B,Yes,,,,,
703740,"CZK 12,000",50.06017,14.42715,"Mikuláše z Husi, Prague - Nusle",Studio,29 m²,CZK 500,Partially furnished,2,No,No,No,No,No,No,No,27. 01. 2022,9,649,93,298,53,393,470,139,99,309,Good,"CZK 12,000",Personal,Brick building,,,,,,D,,,,,,
703739,"CZK 18,500",50.05954,14.42121,"Pod Vyšehradem, Prague - Podolí",3 bedroom,105 m²,"CZK 7,500",Partially furnished,5,No,No,Yes,No,No,No,No,01. 02. 2022,74,128,68,161,122,75,280,570,513,170,Excellent,"CZK 10,000",Personal,Brick building,,,,,,G,,,,,,
696032,"CZK 25,000",50.07848,14.42791,"Krakovská, Prague - Nové Město",1 bedroom with open-plan kitchen,58 m²,"CZK 3,800",Furnished,4,No,No,No,No,Yes,Yes,No,04. 01. 2022,243,661,215,230,104,322,458,539,202,445,Excellent,"CZK 50,000",Personal,Brick building,1 to 10 years years,Premium materials and solutions,Central heating,Middle floor,Overall,G,,,,,,
689177,"CZK 19,000",50.07306,14.43085,"Tyršova, Prague - Nové Město",1 bedroom with open-plan kitchen,34 m²,"CZK 3,600",Furnished,4,No,No,No,No,No,Yes,No,01. 03. 2022,183,529,119,213,30,197,368,453,637,687,Excellent,"CZK 38,000",Personal,Brick building,,,,,,G,,,,,,
698920,"CZK 15,000",50.04736,14.30975,"Vlachova, Prague - Stodůlky",1 bedroom with open-plan kitchen,50 m²,"CZK 3,500",Furnished,2,No,No,Yes,Yes,No,Yes,No,11. 01. 2022,345,300,195,"1,153",105,612,523,166,278,26,Excellent,,Cooperative,Prefab concrete building,,,,,,G,,,,,,
698562,"CZK 16,500",50.09064,14.47279,"Buchovcova, Prague - Žižkov",1 bedroom with open-plan kitchen,37 m²,"CZK 2,500",Furnished,6,No,No,Yes,No,No,Yes,No,17. 01. 2022,227,"1,032",108,296,61,119,353,307,395,321,New build,"CZK 33,000",Personal,Brick building,1 to 10 years years,Standard materials and solutions,Gas boiler,Top floor,,G,,,,,,
664545,"CZK 11,900",50.10117,14.36018,"Tobrucká, Prague - Vokovice",Studio,35 m²,"CZK 3,000",Furnished,5,No,No,No,No,No,Yes,No,01. 10. 2021,523,733,612,593,503,623,437,344,"1,218",113,Excellent,"CZK 14,900",Personal,Prefab concrete building,,,,,,G,,,,,,
680049,"CZK 39,750",50.079465,14.4353199,"Mánesova, Prague - Vinohrady",1 bedroom with open-plan kitchen,75 m²,"CZK 13,250",Furnished,3,No,No,No,No,No,Yes,No,29. 01. 2022,156,408,244,342,59,242,281,281,533,788,,,,,,,,,,,,,,,,
698962,"CZK 15,641",50.0719016,14.3887227,"Plzeňská, Prague - Košíře",1 bedroom with open-plan kitchen,53 m²,"CZK 5,214",Furnished,4,Yes,No,No,No,No,No,No,29. 01. 2022,111,"1,148",101,913,158,"1,036",498,826,"1,228",330,,,,,,,,,,,,,,,,
680004,"CZK 47,250",50.090911,14.4295366,"Soukenická, Prague - Nové Město",1 bedroom with open-plan kitchen,50 m²,"CZK 15,750",Furnished,4,Yes,No,No,No,No,Yes,Yes,29. 01. 2022,144,325,176,152,60,230,49,259,388,439,,,,,,,,,,,,,,,,
703728,"CZK 14,500",50.09937,14.43645,"Antonínská, Prague - Holešovice",2 bedroom,47 m²,"CZK 3,400",Partially furnished,4,Yes,No,Yes,No,No,Yes,No,01. 03. 2022,147,"1,015",165,218,191,127,173,"1,247",540,709,Excellent,"CZK 20,000",Personal,Brick building,,,Central heating,Middle floor,,G,,,,,,
695878,"CZK 14,000",50.10655,14.44807,"Poupětova, Prague - Holešovice",Studio,43 m²,"CZK 4,000",Furnished,5,Yes,No,Yes,No,No,Yes,No,12. 12. 2021,227,435,138,327,192,341,357,789,409,342,Excellent,"CZK 14,000",Personal,Brick building,,,,,,A,,,,,,
434137,"CZK 15,000",50.039087,14.423027,"Zelený pruh, Prague - Braník",1 bedroom with open-plan kitchen,77 m²,"CZK 2,000",Partially furnished,3,No,No,No,No,Yes,No,No,01. 01. 2022,11,"1,173",709,"1,180",176,"1,119",945,852,"1,241",139,Excellent,"CZK 20,000",Personal,Brick building,1 to 10 years years,Standard materials and solutions,Gas boiler,Attic,Interior,D,,,,,,
696819,"CZK 27,000",50.10938,14.37939,"Na Zavadilce, Prague - Dejvice",3 bedroom,115 m²,CZK 550,Partially furnished,1,No,No,Yes,Yes,Yes,No,No,01. 01. 1970,204,452,"1,443",518,876,531,472,763,482,,Excellent,"CZK 27,000",Personal,Brick building,,,Gas boiler,,Interior,G,,,800 m²,,,
598101,"CZK 32,000",50.132957,14.434955,"Pekařova, Prague - Bohnice",2 bedroom with open-plan kitchen,85 m²,"CZK 5,000",Furnished,1,Yes,Yes,Yes,No,Yes,No,Yes,01. 04. 2022,407,437,262,418,959,836,491,336,310,,New build,"CZK 50,000",Personal,Brick building,,Premium materials and solutions,Gas boiler,Ground floor,,A,Yes,,96 m²,,,
697991,"CZK 20,306",50.0739772,14.4306534,"Legerova, Prague - Vinohrady",Studio,38 m²,"CZK 6,769",Furnished,2,No,No,No,No,No,No,No,29. 01. 2022,132,574,130,206,94,143,358,427,494,560,,,,,,,,,,,,,,,,
694839,"CZK 36,000",50.0940007,14.4535929,"Sokolovská a, Prague - Karlín",1 bedroom with open-plan kitchen,62 m²,"CZK 12,000",Furnished,4,Yes,No,No,No,No,Yes,Yes,01. 02. 2022,109,421,13,160,21,228,518,"1,364",384,467,,,,,,,,,,,,,,,,
703715,"CZK 15,900",50.09219,14.44872,"Karlínské náměstí, Prague - Karlín",1 bedroom,59 m²,"CZK 2,400",Partially furnished,4,No,No,No,No,No,Yes,No,25. 01. 2022,199,102,64,307,45,331,240,"1,332",358,91,Excellent,"CZK 16,300",Personal,Brick building,,,,,,D,,,,,,
703714,"CZK 17,000",50.11498,14.62655,"Ve Žlíbku, Prague - Horní Počernice",2 bedroom with open-plan kitchen,80 m²,"CZK 5,000",Furnished,2,Yes,Yes,Yes,No,Yes,No,Yes,01. 02. 2022,206,"1,466",533,785,229,901,423,639,,,Excellent,"CZK 17,000",Personal,Brick building,,,,,,B,,,,,,
699862,"CZK 25,000",50.11031,14.38019,"Na Špitálce, Prague - Dejvice",3 bedroom,78 m²,"CZK 1,547",Unfurnished,2,No,No,Yes,No,No,No,No,18. 01. 2022,150,283,348,940,595,303,709,651,,,Good,"CZK 25,000",Personal,Brick building,,Standard materials and solutions,Gas boiler,Top floor,,G,,,,,,
465579,"CZK 19,000",50.0887865,14.4671627,"Žerotínova, Prague - Žižkov",2 bedroom,70 m²,CZK 550,Furnished,2,Yes,No,No,No,No,Yes,No,01. 01. 2022,165,729,52,150,161,178,401,424,370,262,Excellent,"CZK 30,000",Personal,Brick building,,,Other,,Overall,B,,,,,,
703712,"CZK 17,500",50.06745,14.40788,"Na Valentince, Prague - Smíchov",1 bedroom with open-plan kitchen,47 m²,"CZK 2,500",Unfurnished,4,No,Yes,No,No,No,Yes,No,01. 02. 2022,132,600,326,571,182,496,845,"1,083",589,338,New build,"CZK 35,000",Personal,Other,,,Gas boiler,Middle floor,,G,,,,,,
314904,"CZK 16,000",50.1016462,14.4183555,"Jana Zajíce, Prague - Bubeneč",2 bedroom with open-plan kitchen,78 m²,"CZK 6,700",Partially furnished,2,No,No,No,No,No,Yes,No,,114,449,111,328,101,534,199,153,309,,,,Personal,Brick building,,,Gas boiler,Middle floor,,,,,,,,
543569,"CZK 12,900",50.0704284,14.4512084,"Košická, Prague - Vršovice",Studio,45 m²,"CZK 1,600",Unfurnished,3,No,No,Yes,No,No,Yes,No,01. 03. 2022,126,555,100,102,59,417,178,355,334,272,Excellent,"CZK 25,800",Personal,Brick building,1 to 10 years years,Standard materials and solutions,Gas boiler,Middle floor,Overall,,,,,,,
688191,"CZK 22,500",50.0291416,14.531568,"Mnichovická, Prague - Háje",3 bedroom,78 m²,"CZK 7,500",Furnished,11,No,No,No,No,No,Yes,No,01. 02. 2022,298,519,190,207,386,448,309,344,508,132,,,,,,,,,,,,,,,,
680045,"CZK 32,250",50.079465,14.4353199,"Mánesova, Prague - Vinohrady",1 bedroom,57 m²,"CZK 10,750",Furnished,5,No,No,No,No,No,Yes,No,29. 01. 2022,156,408,244,342,59,242,281,281,533,788,,,,,,,,,,,,,,,,
690495,"CZK 31,875",50.0718291,14.4385892,"Americká, Prague - Vinohrady",3 bedroom,72 m²,"CZK 10,625",Furnished,5,No,No,No,No,No,Yes,No,29. 01. 2022,274,300,81,587,69,312,103,253,793,568,,,,,,,,,,,,,,,,
703707,"CZK 10,000",50.02978,14.44976,"Štúrova, Prague - Krč",Studio,26 m²,"CZK 2,800",Furnished,1,No,No,No,No,No,No,No,26. 01. 2022,124,"1,295",188,113,701,843,"1,175",560,381,,Excellent,"CZK 10,000",Personal,Prefab concrete building,,,,,,G,,,,,,
703700,"CZK 17,500",50.10811,14.44456,"Plynární, Prague - Holešovice",1 bedroom with open-plan kitchen,57 m²,"CZK 4,000",Partially furnished,2,No,No,Yes,No,No,No,No,25. 01. 2022,168,658,261,670,72,147,351,"1,013",379,279,Excellent,"CZK 17,500",Personal,Brick building,,,,,,C,,,,,,
616136,"CZK 13,000",50.061735,14.362174,"Naskové, Prague - Košíře",Small studio,30 m²,"CZK 2,000",Unfurnished,,No,Yes,No,No,No,Yes,No,01. 02. 2022,268,"1,191","1,185",882,"1,278",546,388,811,250,,New build,"CZK 15,000",Personal,Brick building,1 to 10 years years,Premium materials and solutions,District heating,Ground floor,,B,,,39 m²,,,
703693,"CZK 32,000",50.05779,14.45373,"Týmlova, Prague - Michle",3 bedroom with open-plan kitchen,121 m²,"CZK 3,600",Partially furnished,2,No,No,No,No,No,No,No,15. 03. 2022,336,697,550,366,114,"1,160",343,643,229,299,Excellent,"CZK 60,000",Personal,Brick building,,,,,,G,Yes,,,,,
700313,"CZK 17,500",50.0905,14.47422,"Biskupcova, Prague - Žižkov",1 bedroom with open-plan kitchen,45 m²,"CZK 1,000",Furnished,4,No,No,Yes,No,No,Yes,No,01. 01. 1970,169,"1,035",158,235,39,140,297,356,334,397,Excellent,"CZK 25,000",Personal,Brick building,,,,,,G,,,,,,
703690,"CZK 32,000",50.10432,14.44973,"Komunardů, Prague - Holešovice",2 bedroom with open-plan kitchen,106 m²,"CZK 3,700",Partially furnished,4,No,Yes,No,No,Yes,Yes,No,01. 02. 2022,51,136,81,98,51,102,448,410,288,391,New build,"CZK 71,400",Personal,Other,1 to 10 years years,Premium materials and solutions,,,,B,Yes,,,,,
703689,"CZK 8,000",50.07485,14.49166,"Nad Primaskou, Prague - Strašnice",Small studio,19 m²,"CZK 1,800",Unfurnished,3,No,No,Yes,No,No,No,No,01. 03. 2022,145,226,123,194,139,170,134,452,649,183,Excellent,"CZK 9,800",Personal,Brick building,,,,,,G,,,,,,
3423,"CZK 24,000",50.066621,14.434258,"Rejskova, Prague - Vinohrady",3 bedroom,110 m²,"CZK 4,000",Furnished,5,No,No,Yes,Yes,No,Yes,No,01. 01. 2022,310,586,307,720,267,522,375,428,293,413,Excellent,"CZK 35,000",Personal,Brick building,1 to 10 years years,Standard materials and solutions,Gas boiler,Middle floor,Overall,,,,20 m²,,,
699629,"CZK 12,000",50.1072,14.43865,"Za Papírnou, Prague - Holešovice",Studio,34 m²,"CZK 2,000",Partially furnished,5,No,No,Yes,No,No,No,No,01. 02. 2022,199,"1,081",449,"1,119",289,398,231,"1,289",452,383,Excellent,"CZK 12,000",Personal,Brick building,,,,,,G,,,,,,
695957,"CZK 13,900",50.04257,14.44224,"Krčská, Prague - Krč",2 bedroom,67 m²,"CZK 1,400",Partially furnished,4,No,No,Yes,No,No,No,No,01. 01. 1970,240,223,273,437,194,256,488,269,737,273,Excellent,"CZK 27,800",Personal,Brick building,,,District heating,Top floor,,G,,,,,,
703686,"CZK 14,800",50.0852,14.37356,"Mládeže, Prague - Břevnov",1 bedroom with open-plan kitchen,60 m²,"CZK 3,600",Partially furnished,4,No,No,No,No,No,Yes,No,01. 02. 2022,176,793,266,456,252,159,187,292,464,347,Excellent,"CZK 28,000",Personal,Brick building,,Standard materials and solutions,Central heating,Middle floor,,G,,,,,,
699775,"CZK 18,500",50.10432,14.44973,"Komunardů, Prague - Holešovice",Studio,48 m²,"CZK 2,785",Furnished,2,No,Yes,No,No,Yes,Yes,No,01. 02. 2022,51,136,81,98,51,102,448,410,288,391,New build,"CZK 42,570",Personal,Other,1 to 10 years years,Premium materials and solutions,,,,B,,,,,,
489262,"CZK 14,000",50.0214212,14.3597803,"Dominínská, Prague - Slivenec",2 bedroom,83 m²,"CZK 4,000",Furnished,2,No,No,No,No,No,No,No,01. 01. 2022,115,640,294,228,534,455,,,,,Excellent,"CZK 20,000",Personal,Brick building,1 to 10 years years,Standard materials and solutions,Geothermal heat pump,Top floor,Overall,C,,,,,,
613482,"CZK 13,000",50.069526,14.369954,"Pod Kavalírkou, Prague - Košíře",1 bedroom,62 m²,"CZK 3,000",Partially furnished,5,No,No,No,No,No,No,No,04. 04. 2022,125,488,133,221,31,118,264,"1,202",584,120,Excellent,"CZK 13,000",Personal,Brick building,,Standard materials and solutions,,Attic,,G,,,,,,
694841,"CZK 26,078",50.0940007,14.4535929,"Sokolovská a, Prague - Karlín",Studio,34 m²,"CZK 8,693",Furnished,6,Yes,No,No,No,No,Yes,Yes,01. 02. 2022,109,421,13,160,21,228,518,"1,364",384,467,,,,,,,,,,,,,,,,
537847,"CZK 8,500",50.1504574,14.5846082,"Krasnická, Prague - Vinoř",Small studio,21 m²,CZK 1,Furnished,,No,No,No,No,Yes,No,No,01. 01. 2022,286,"1,197",851,"1,236",947,697,637,"1,026",709,,Excellent,"CZK 8,500",Personal,Brick building,,Standard materials and solutions,Other,Ground floor,Overall,,,,,,,
572011,"CZK 16,500",50.0796951,14.4226227,"Vodičkova, Prague - Nové Město",Studio,35 m²,"CZK 1,500",Furnished,4,No,No,No,No,No,Yes,No,01. 02. 2022,32,662,17,27,49,163,134,701,448,424,Excellent,"CZK 18,000",Personal,Brick building,,,,,,D,,,,,,
537551,"CZK 7,500",50.109462,14.5024246,Prague - Vysočany,Studio,31 m²,"CZK 3,500",Partially furnished,1,No,No,No,No,No,No,No,15. 02. 2022,194,280,118,125,234,239,169,364,339,324,,"CZK 11,000",Cooperative,Brick building,,,,,,G,,,,,,
703677,"CZK 18,000",50.10831,14.48244,"Nad Kolčavkou, Prague - Libeň",2 bedroom with open-plan kitchen,70 m²,"CZK 4,000",Partially furnished,4,No,No,No,No,No,Yes,No,01. 02. 2022,454,862,459,529,6,865,319,722,575,399,Good,"CZK 22,000",Personal,Brick building,,,,,,G,,,,,,
545404,"CZK 21,500",50.0723281,14.4350983,"Londýnská, Prague - Vinohrady",2 bedroom with open-plan kitchen,87 m²,"CZK 3,500",Partially furnished,2,No,Yes,No,No,No,No,No,04. 01. 2022,169,130,65,316,9,306,144,93,829,910,,,Personal,Brick building,,,Central heating,Middle floor,Interior,D,,,,,,
