Price,Fees,Refundable security deposit,Listing ID,Layout,Avaliable from,Floor,EPC,Floor space,Fully furnished,Condition,Building type,Balcony,Cellar,Lift,New-build,Parking,Garage,public_transport,post,shop,bank,restaurant,pharmacy,school,kindergarten,sports_field,playground,District,Latitude,Longitude,Age,Ownership,Designe,Reconstruction,Terrace,Heating,Enclosed balcony,Administrative fee,Plot type,Plot space,"You will rent this apartment for approximately CZK 26,625 CZK"
"CZK 18,000","CZK 4,500","CZK 18,000",724217,2+kk,8/1/2022,2,A,56 m²,Partly,New-build,Brick,1.0,1.0,1.0,1.0,1.0,1.0,197.85,1085.29,563.0,1431.92,200.57,1068.45,712.91,937.56,690.78,260.9,Prague - Chodov,50.04004,14.49888,,,,,,,,,,,
"CZK 15,750","CZK 5,250",,724740,1 bedroom,9/3/2022,3,,30 m²,Fully furnished,,,,,,,,,217.38,2062.48,1281.33,4705.18,629.6,1074.91,597.5,3134.16,2915.46,646.77,"Švihovská, Prague - Písnice",49.9954018,14.4704771,,,,,,,,,,,
"CZK 16,000","CZK 5,500",CZK 0,724732,2+kk,7/4/2022,2,B,59 m²,Partly,New-build,Low-energy,1.0,1.0,1.0,1.0,1.0,,290.01,935.67,535.99,747.66,667.29,450.6,572.23,606.77,1276.35,481.92,Prague - Horní Měcholupy,50.04111,14.56876,,,,,,,,,,,
"CZK 19,800","CZK 6,600",,724736,3+1,8/31/2022,5,,90 m²,Fully furnished,,,,,1.0,,,,82.8,397.93,96.94,404.98,135.48,353.78,131.46,217.55,654.74,661.34,"Blanická, Prague - Vinohrady",50.0746503,14.439294,,,,,,,,,,,
"CZK 16,000","CZK 3,500","CZK 16,000",448560,2+kk,7/4/2022,2,B,51 m²,Partly,Very good,Prefab concrete,,,1.0,,,,227.37,259.16,190.25,329.28,123.0,273.52,789.96,952.36,1293.57,401.17,"Hnězdenská, Prague - Troja",50.1263568,14.4202859,10 to 30 years,Personal,Standard,,,,,,,,
"CZK 16,000","CZK 2,500","CZK 16,000",534135,2+kk,7/10/2022,6,B,45 m²,Fully furnished,,Brick,,,1.0,,,,81.93,654.6,56.19,181.42,25.98,116.74,485.09,764.37,474.91,794.97,Prague - Holešovice,50.1024478,14.433039,Over 50 years,Personal,Standard,Complete,,,,,,,
"CZK 17,500","CZK 2,200","CZK 35,000",724729,2+kk,7/4/2022,2,B,54 m²,Fully furnished,New-build,Other,,,,1.0,,1.0,640.2,2301.2,658.92,2161.71,735.95,2237.09,1279.01,3846.78,3469.94,28.65,Prague - Újezd u Průhonic,50.00866,14.54417,,,,,,,,,,,
"CZK 13,000","CZK 3,500","CZK 25,000",361151,Studio,8/1/2022,4,B,32 m²,Partly,,Brick,1.0,,1.0,,1.0,,215.32,438.18,296.02,743.11,644.93,658.37,353.14,432.92,563.02,240.72,"Nad přehradou, Prague - Horní Měcholupy",50.042408,14.5513031,Up to 10 years,Personal,,,,,,,,,
"CZK 26,000","CZK 5,500","CZK 52,000",724726,2+kk,7/5/2022,4,A,54 m²,Fully furnished,New-build,Low-energy,,,,,1.0,,153.44,380.74,504.8,688.34,451.05,368.92,583.47,542.42,454.53,84.82,Prague - Žižkov,50.08271,14.46634,,,,,,,,,,,
"CZK 21,009","CZK 7,003",,722293,Studio,8/2/2022,1,,27 m²,Fully furnished,,,1.0,,,,,,356.54,736.2,458.21,353.24,376.04,829.05,1040.15,326.58,1014.22,65.27,"Buštěhradská, Prague - Střešovice",50.0968441,14.3897247,,,,,1.0,,,,,,
"CZK 12,500","CZK 3,500","CZK 20,000",583876,Studio,7/4/2022,6,B,34 m²,Fully furnished,New-build,Low-energy,1.0,1.0,1.0,,,1.0,246.43,1479.72,314.47,1251.15,393.68,1415.72,1157.71,1364.61,485.88,103.36,"Moravcových, Prague - Vysočany",50.111861,14.515958,Up to 10 years,Personal,,,,Distance,,,,,
"CZK 15,000","CZK 3,500","CZK 30,000",724722,Studio,8/1/2022,1,D,37 m²,Fully furnished,Very good,Brick,1.0,,1.0,,,,85.49,721.89,243.82,380.05,188.36,223.98,504.8,430.4,1044.75,346.96,Prague - Prosek,50.11913,14.49709,,,,,1.0,,1.0,,,,
"CZK 18,000","CZK 6,000","CZK 24,000",724169,2+kk,8/1/2022,4,G,62 m²,Fully furnished,New-build,Brick,1.0,1.0,1.0,1.0,1.0,1.0,157.65,460.15,319.12,458.96,444.21,464.19,642.41,845.71,714.23,167.02,Prague - Záběhlice,50.05611,14.51485,,,,,,,,,,,
"CZK 22,800","CZK 2,800","CZK 25,000",614902,2+kk,7/1/2022,5,C,56 m²,Fully furnished,Very good,Brick,,,1.0,,,,159.44,629.52,80.03,406.17,33.78,404.51,219.12,350.66,680.83,382.42,"Mexická, Prague - Vršovice",50.071939,14.457635,Up to 10 years,Personal,Luxurious,Complete,,Gas boiler,,,,,
"CZK 19,250","CZK 3,250","CZK 35,000",646414,2+kk,8/1/2022,1,A,40 m²,Fully furnished,New-build,Brick,,,,,,,1.84,879.25,439.31,880.4,740.24,773.17,524.18,403.03,241.18,380.38,"Podbělohorská, Prague - Smíchov",50.075042,14.372218,Up to 10 years,Personal,,Complete,1.0,Central,,,,,
"CZK 32,000","CZK 6,000","CZK 50,000",532872,4+1,8/1/2022,1,G,112 m²,Partly,Good,Brick,1.0,1.0,,,,,211.18,707.65,333.25,586.65,147.42,792.81,488.67,1611.99,128.46,83.62,Prague - Bubeneč,50.1006887,14.4164618,Over 50 years,Personal,Standard,,,Other,,,,,
"CZK 29,500","CZK 1,520","CZK 85,000",724154,2 bedroom,6/29/2022,5,G,77 m²,Unfurnished,Very good,Brick,,,,,,,199.84,767.47,137.73,530.27,184.47,573.51,355.34,582.91,358.08,301.7,Prague - Bubeneč,50.10102,14.40399,,,,,,,,,,,
"CZK 37,500","CZK 12,500",,720700,2+kk,7/6/2022,2,,60 m²,Fully furnished,,,,,1.0,,,,241.61,542.2,98.71,270.79,176.01,313.55,455.64,821.55,633.96,593.3,"Mečislavova, Prague - Nusle",50.0633237,14.4440058,,,,,,,,,,,
"CZK 17,300","CZK 3,100","CZK 10,000",724716,2 bedroom,9/11/2022,2,G,52 m²,Fully furnished,Very good,Brick,,,1.0,,,,253.69,1068.57,247.9,798.67,232.74,218.12,537.61,360.7,578.34,297.89,Prague - Strašnice,50.06868,14.4963,,,,,,,1.0,,,,
"CZK 30,000","CZK 3,000","CZK 33,000",708966,3+kk,3/2/2022,1,G,78 m²,Partly,New-build,Brick,1.0,,,,1.0,,251.45,320.91,336.17,3090.14,2600.5,2658.27,323.18,2567.15,2130.89,663.19,"Pod Akáty, Prague - Velká Chuchle",50.01264,14.38504,,Personal,,,,,,,,,
"CZK 15,000","CZK 2,800","CZK 20,000",673486,Studio,10/1/2022,5,B,44 m²,Partly,New-build,Brick,1.0,,1.0,1.0,1.0,,70.82,1162.85,634.32,877.46,533.01,948.92,712.76,418.74,581.79,289.1,"Olgy Havlové, Prague - Žižkov",50.0876624,14.4794388,,Personal,,,1.0,Central,,,,,
"CZK 17,900","CZK 3,500","CZK 45,000",715422,2+kk,5/6/2022,3,C,49 m²,Unfurnished,New-build,Other,1.0,,,,,,52.71,885.21,523.81,874.84,30.45,729.9,997.92,464.81,1208.95,324.79,"Limuzská, Prague - Strašnice",50.07828,14.5085,,Personal,,,,Central,,,,,
"CZK 15,000","CZK 3,000","CZK 15,000",723320,2+kk,8/1/2022,1,G,58 m²,Partly,Good,Prefab concrete,,1.0,,,,,243.0,882.66,381.49,856.35,775.58,902.77,351.9,369.25,977.65,374.19,Prague - Lhotka,50.02483,14.44414,,,Standard,,,,,,,,
"CZK 23,000","CZK 4,000","CZK 40,000",721039,4+kk,6/3/2022,2,C,72 m²,Fully furnished,Very good,Prefab concrete,,,,,1.0,,219.78,207.3,64.33,294.21,51.09,390.76,366.36,185.31,404.97,123.34,Prague - Háje,50.03254,14.53207,,,,,,,,,,,
"CZK 12,000","CZK 2,800","CZK 12,000",724330,Studio,6/30/2022,7,B,23 m²,Partly,Very good,Other,,,1.0,,,,454.04,809.88,434.66,484.42,353.37,771.43,492.68,609.29,683.92,296.54,Prague - Vysočany,50.10533,14.50202,,,,,,,,,,,
"CZK 25,990","CZK 4,560","CZK 30,550",724703,3+1,7/5/2022,8,G,73 m²,Fully furnished,Good,Prefab concrete,1.0,1.0,1.0,,,,230.71,363.54,185.46,1043.95,179.71,360.25,128.83,277.71,295.53,116.41,"Prusíkova, Prague - Stodůlky",50.03613861111,14.33899416666,,Personal,,,,,,"CZK 30,550",,,
"CZK 17,000","CZK 2,400","CZK 20,000",724700,2+kk,7/4/2022,4,G,45 m²,Fully furnished,Very good,Brick,1.0,1.0,1.0,,,,255.28,1642.21,253.76,1682.19,270.57,259.65,810.52,415.67,1258.27,67.93,Prague - Hostivař,50.04474,14.51544,,,,,,,,,,,
"CZK 60,000","CZK 20,000",,717694,2+kk,7/6/2022,3,,,Fully furnished,,,,,,,,,177.2,646.63,182.16,39.81,37.58,122.34,27.5,101.85,349.84,194.18,"Ječná, Prague - Nové Město",50.0757302,14.4269087,,,,,,,,,,,
"CZK 13,000","CZK 4,000","CZK 20,000",554005,2+kk,9/1/2022,3,G,45 m²,Unfurnished,,Prefab concrete,,1.0,1.0,,,,295.91,432.79,298.72,612.71,199.51,213.51,274.96,380.15,630.79,314.0,"Michnova, Prague - Chodov",50.0306828,14.5217282,,Personal,Standard,,,Central,,,,,
"CZK 14,500","CZK 4,500","CZK 20,000",582958,2+kk,9/1/2022,3,C,51 m²,Partly,Very good,Brick,,1.0,1.0,,1.0,1.0,241.92,871.57,34.61,704.83,409.42,829.47,203.7,2069.42,1078.72,158.89,"Sazovická, Prague - Zličín",50.057864,14.282579,Up to 10 years,Personal,Standard,,,Central,1.0,,,,
"CZK 17,990","CZK 3,203","CZK 21,193",724697,2+kk,7/5/2022,5,B,57 m²,Unfurnished,New-build,Other,1.0,1.0,1.0,1.0,1.0,,645.22,964.85,875.39,2559.26,685.03,982.52,1070.9,898.54,1849.03,658.2,"Hrašeho, Prague - Čimice",50.13906861111,14.42643305555,,Personal,,,,,,"CZK 21,193",,,
"CZK 16,000","CZK 3,500","CZK 30,000",724696,2 bedroom,8/15/2022,1,C,60 m²,Unfurnished,Very good,Prefab concrete,,1.0,,,,,272.9,416.54,306.62,252.64,455.91,517.37,197.18,469.08,577.46,342.15,Prague - Háje,50.02985,14.53319,,,,,,Central,1.0,,,,
"CZK 15,900","CZK 2,500",CZK 0,724653,2+kk,10/1/2022,3,B,45 m²,Partly,New-build,Brick,,1.0,1.0,1.0,1.0,,101.97,622.17,257.21,412.56,238.41,483.85,237.72,57.55,550.69,311.67,Prague - Žižkov,50.08781,14.4725,Up to 10 years,Personal,Luxurious,Complete,,Central,,,,,
"CZK 7,500",CZK 0,"CZK 15,000",724692,3+1,8/1/2022,5,G,63 m²,Fully furnished,Very good,Prefab concrete,1.0,1.0,1.0,,,,104.67,745.53,173.45,868.68,402.1,153.89,477.35,366.26,945.52,155.81,Prague - Chodov,50.02711,14.52102,,Personal,,Complete,,Distance,1.0,,,,
CZK 1,CZK 800,CZK 1,724123,1 bedroom,6/29/2022,4,G,57 m²,Unfurnished,Under construction,Brick,,,,,,,261.32,369.9,189.95,760.08,189.22,495.41,255.48,280.96,452.06,238.59,Prague - Vinohrady,50.07363,14.44468,,,,,,,,,,,
"CZK 17,500","CZK 1,000","CZK 35,000",724126,2+kk,6/29/2022,1,G,43 m²,Fully furnished,New-build,Brick,1.0,,,1.0,1.0,,206.3,658.53,137.46,872.34,117.56,286.26,418.01,1457.4,885.21,383.62,Prague - Újezd nad Lesy,50.07752,14.65038,,,,,,,,,,,
"CZK 17,000","CZK 2,500","CZK 34,000",724688,3+1,7/25/2022,1,G,55 m²,Partly,Very good,Brick,,,,,1.0,,303.34,1545.34,910.88,1538.0,894.12,969.56,873.94,1167.13,1353.64,327.98,Prague - Hodkovičky,50.02125,14.41856,,,,,,,,,,,
"CZK 14,500","CZK 1,700","CZK 25,000",644343,2+kk,8/1/2022,2,F,53 m²,Partly,Very good,Brick,1.0,1.0,,,,,354.86,1203.0,310.31,1279.99,328.24,423.54,199.87,663.16,161.44,80.67,"Krejčího, Prague - Libeň",50.113661,14.466423,,Cooperative,,,,,,,,,
"CZK 9,500","CZK 2,000","CZK 10,000",724687,Studio,9/1/2022,2,G,30 m²,Unfurnished,Good,Brick,,,,,,,304.93,1155.23,71.44,1438.31,20.15,445.42,428.89,306.3,538.28,489.15,Prague - Libeň,50.11575,14.47113,,,,,,,,,,,
"CZK 6,000","CZK 1,000","CZK 5,000",692180,3+1,9/2/2022,1,G,65 m²,Fully furnished,Very good,Prefab concrete,1.0,,1.0,,,,129.39,654.2,376.46,1487.44,204.23,416.42,217.88,217.88,198.57,263.06,"Brodského, Prague - Chodov",50.0376,14.50418,,Other,Standard,,,,,,,,
"CZK 14,000","CZK 4,500","CZK 14,000",724685,2+kk,8/1/2022,5,A,57 m²,Partly,Very good,Prefab concrete,,1.0,1.0,,,,216.44,517.64,171.19,880.87,171.5,514.34,280.49,431.8,200.56,80.55,Prague - Stodůlky,50.03687,14.33719,,,,,,,,,,,
"CZK 48,000","CZK 16,000",,717684,3+1,8/2/2022,5,,72 m²,Fully furnished,,,,,1.0,,,,273.55,299.9,80.57,586.7,68.95,312.33,103.27,252.88,792.89,567.68,"Americká, Prague - Vinohrady",50.0718291,14.4385892,,,,,,,,,,,
"CZK 9,500","CZK 3,500","CZK 10,000",724683,Small studio,8/1/2022,2,G,28 m²,Fully furnished,Very good,Brick,1.0,1.0,1.0,,,,166.58,777.6,98.52,161.07,44.85,143.4,306.37,653.4,383.48,341.21,Prague - Nové Město,50.08129,14.42175,,,,,,,,,,,
"CZK 15,900","CZK 5,000","CZK 32,000",720255,2+kk,7/1/2022,1,A,35 m²,Partly,New-build,Brick,,,,1.0,1.0,,,,,,,,,,,,Prague - Chodov,50.0401,14.48907,,,,,,,,,,,
"CZK 16,000","CZK 5,000","CZK 33,000",720260,2+kk,7/1/2022,1,A,42 m²,Partly,New-build,Brick,,,,1.0,1.0,,,,,,,,,,,,Prague - Chodov,50.0401,14.48907,,,,,,,,,,,
"CZK 12,000",CZK 300,"CZK 12,000",523543,6+1,6/13/2022,4,,130 m²,Fully furnished,,Brick,,,,,,,247.3,334.94,287.76,345.77,91.45,381.84,241.84,1025.19,885.8,264.59,"Janáčkovo nábřeží, Prague - Smíchov",50.0773068,14.4080995,,Personal,,Exterior,,,,,,,
"CZK 14,900","CZK 5,000","CZK 30,000",720261,2+kk,7/1/2022,1,A,45 m²,Partly,New-build,Brick,,,,1.0,1.0,,,,,,,,,,,,Prague - Chodov,50.0401,14.48907,,,,,1.0,,,,,,
"CZK 22,500",CZK 0,"CZK 34,000",724112,2 bedroom,10/1/2022,1,G,50 m²,Partly,Very good,Brick,,1.0,,,,,223.09,740.62,215.3,404.59,207.61,474.03,404.07,276.61,298.27,269.34,Prague - Nusle,50.06368,14.42373,,,,,,,,,,,
"CZK 15,000","CZK 3,965","CZK 30,000",670414,2+kk,9/1/2022,4,B,58 m²,Fully furnished,New-build,Brick,1.0,,1.0,,,1.0,298.92,1555.45,474.48,1216.5,290.41,845.64,667.97,705.02,623.56,481.18,"V Zahradách, Prague - Libeň",50.11494,14.47612,10 to 30 years,Personal,,,,Central,,,,,
"CZK 14,900","CZK 5,000","CZK 30,000",720267,Studio,7/1/2022,2,A,35 m²,Partly,New-build,Brick,,,,1.0,1.0,,,,,,,,,,,,Prague - Chodov,50.0401,14.48907,,,,,,,,,,,
"CZK 16,000","CZK 5,000","CZK 32,000",720270,Studio,7/1/2022,1,A,42 m²,Partly,New-build,Brick,,,,1.0,1.0,,,,,,,,,,,,Prague - Chodov,50.0401,14.48907,,,,,,,,,,,
"CZK 18,000","CZK 3,850","CZK 21,850",314235,2+kk,6/28/2022,2,,60 m²,Unfurnished,New-build,Brick,1.0,,,,,1.0,603.04,1474.15,1101.83,1604.73,1376.67,1410.76,1637.14,1535.11,1368.6,523.53,"Vidlák, Prague - Hostavice",50.0933097176,14.5630865833,,Personal,,,,,,,,,
"CZK 20,000","CZK 5,000","CZK 40,000",486984,Studio,7/11/2022,1,,48 m²,Fully furnished,,Low-energy,,1.0,1.0,1.0,,1.0,99.26,361.63,490.78,556.87,427.65,345.52,452.0,519.02,404.9,293.38,"Olšanská, Prague - Žižkov",50.0830187,14.4654473,Up to 10 years,Personal,,,1.0,,1.0,,,,
"CZK 12,000",CZK 750,"CZK 24,000",724672,1 bedroom,7/4/2022,3,G,51 m²,Unfurnished,Very good,Brick,,1.0,,,,,119.95,1153.11,93.25,151.46,130.57,98.23,217.4,440.03,250.34,312.89,Prague - Žižkov,50.09146,14.47332,,,,,,,,,,,
"CZK 24,000","CZK 2,000","CZK 40,000",723910,3+1,9/1/2022,2,G,79 m²,Partly,Very good,Brick,1.0,1.0,,,,,237.02,843.2,191.79,619.85,114.39,618.19,432.8,347.63,586.67,230.14,Prague - Vršovice,50.07198,14.46205,,,Standard,,,,,,,,
"CZK 16,000","CZK 2,000","CZK 16,000",407391,2 bedroom,8/1/2022,2,C,63 m²,Fully furnished,Very good,Brick,1.0,,,,1.0,,756.04,645.81,666.88,2935.48,777.9,628.15,1349.07,521.53,2225.26,319.83,"Vehlovická, Prague - Čimice",50.1418764,14.4210868,,Personal,Standard,,,Gas boiler,,,,,
"CZK 21,500","CZK 3,500","CZK 30,000",695442,2 bedroom,7/1/2022,4,G,70 m²,Partly,Good,Brick,,,1.0,,,,118.29,670.2,187.03,312.26,48.04,14.26,444.24,1923.69,345.16,746.55,"Dukelských hrdinů, Prague - Holešovice",50.10348,14.43225,,Personal,,,,,,,,,
"CZK 12,500","CZK 3,500","CZK 25,000",724671,Studio,8/1/2022,3,B,34 m²,Fully furnished,New-build,Low-energy,1.0,,1.0,1.0,,1.0,518.47,1006.6,256.51,3083.75,240.6,1129.45,1023.85,130.02,2001.81,164.0,Prague - Čakovice,50.15646,14.51509,,,,,,,,,,,
"CZK 23,000","CZK 4,000","CZK 23,000",695067,2+kk,2/1/2022,3,B,47 m²,Fully furnished,New-build,Brick,,,1.0,,,,181.38,538.71,88.67,261.45,6.72,198.21,400.23,362.63,176.46,277.43,"Tusarova, Prague - Holešovice",50.101887608886,14.45268887592,,Personal,,,,,,,,,
"CZK 22,000","CZK 4,000","CZK 30,000",724593,3+1,7/10/2022,1,G,78 m²,Unfurnished,Very good,Brick,,,,,,,275.99,237.57,187.93,147.65,110.52,275.78,212.62,309.08,345.47,403.05,Prague - Smíchov,50.07431,14.40502,,,,,,,,,,,
"CZK 79,000","CZK 20,000","CZK 158,000",714217,3+kk,7/1/2022,4,B,164 m²,Fully furnished,New-build,Other,,1.0,1.0,,1.0,,384.26,1775.9,682.53,228.18,659.39,778.18,602.6,888.16,165.88,617.77,"Ke Dvoru, Prague - Vokovice",50.09653,14.34031,,Personal,Luxurious,,1.0,Distance,,,,,
"CZK 16,074","CZK 5,358",,724236,Studio,7/6/2022,3,,27 m²,Fully furnished,,,,,,,,,356.54,735.0,453.42,353.01,373.67,572.85,1041.11,326.33,1013.94,65.27,"Buštěhradská, Prague - Střešovice",50.0968441,14.3897247,,,,,,,,,,,
"CZK 13,990","CZK 2,429","CZK 16,419",724667,2+kk,7/5/2022,7,F,40 m²,Fully furnished,Good,Prefab concrete,,1.0,1.0,,,,90.11,347.99,277.17,355.32,288.14,343.93,183.31,177.43,908.79,427.17,"Novodvorská, Prague - Braník",50.02595305555,14.43094388888,,Personal,,,,,,"CZK 16,419",,,
"CZK 19,000","CZK 4,000","CZK 35,000",724666,2+kk,8/10/2022,2,G,53 m²,Fully furnished,New-build,Brick,,,,,,,515.72,1592.09,1152.15,1542.36,868.5,1100.81,701.25,621.88,402.37,116.68,Prague - Smíchov,50.07555,14.36079,,,,,,,1.0,,,,
"CZK 10,000","CZK 3,000","CZK 13,000",724664,Small studio,7/4/2022,4,G,21 m²,Partly,Very good,Brick,,,,,,,83.12,107.31,13.27,101.25,33.01,122.39,297.31,407.24,362.9,463.34,Prague - Žižkov,50.08417,14.45159,,,,,,,,,,,
"CZK 15,000","CZK 4,500","CZK 40,000",690939,2+kk,7/1/2022,8,B,41 m²,Partly,Very good,Prefab concrete,1.0,,1.0,,1.0,,174.46,172.95,79.71,2502.65,185.1,123.29,374.59,1558.26,1468.67,118.63,"Žukovského, Prague - Ruzyně",50.090668,14.3081756,30 - 50 years,Personal,Standard,Complete,,Distance,,,,,
"CZK 21,990","CZK 2,898","CZK 24,888",724661,3+kk,7/5/2022,8,G,75 m²,Partly,Good,Prefab concrete,,1.0,1.0,,,,160.63,558.54,263.99,258.01,134.0,265.96,153.66,667.55,558.02,251.01,"Přímětická, Prague - Michle",50.04637305555,14.44896111111,,Personal,,,,,,"CZK 24,888",,,
"CZK 29,400","CZK 5,000","CZK 34,400",720415,2+kk,5/30/2022,1,G,90 m²,Fully furnished,New-build,Other,,,1.0,,1.0,1.0,338.49,1248.67,777.04,957.6,399.57,957.91,1181.0,168.16,888.66,114.86,Prague - Vysočany,50.11566,14.51013,,,,,,,,,,,
"CZK 17,000","CZK 4,500","CZK 40,000",721765,2+kk,7/1/2022,4,G,55 m²,Partly,New-build,Brick,,,,,,,469.82,1002.94,516.83,1785.28,521.02,614.13,432.57,395.23,480.78,205.34,Prague - Libuš,50.01273,14.44535,,,,,,,,,,,
"CZK 27,000","CZK 6,500","CZK 33,500",724102,4+kk,6/29/2022,1,F,110 m²,Unfurnished,Very good,Brick,,1.0,,,,,221.91,1454.82,87.21,845.4,294.99,253.45,444.69,138.34,503.18,523.88,Prague - Dejvice,50.10798,14.38969,,,,,,,,,,,
"CZK 19,000","CZK 4,700","CZK 30,000",724086,3+1,9/1/2022,3,B,73 m²,Partly,Very good,Prefab concrete,,,1.0,,,,138.41,1021.31,106.59,654.39,195.46,187.05,495.71,431.15,1738.84,221.68,Prague - Černý Most,50.10596,14.57308,,,,,,,1.0,,,,
"CZK 22,950","CZK 7,650",,720321,Studio,7/29/2022,1,,30 m²,Fully furnished,,,,,,,,,132.37,501.79,36.37,411.65,20.42,261.97,31.33,216.92,578.69,177.33,"Klimentská, Prague - Nové Město",50.0922767,14.4324355,,,,,,,,,,,
"CZK 15,000","CZK 5,000",,724652,Studio,9/1/2022,6,,30 m²,Fully furnished,,,,,,,,,62.55,211.53,81.32,128.57,14.62,208.26,157.68,356.92,390.85,451.63,"Heydukova, Prague - Libeň",50.1035007,14.4751127,,,,,,,,,,,
"CZK 30,000","CZK 2,600","CZK 60,000",724650,2 bedroom,7/4/2022,4,G,91 m²,Partly,Very good,Brick,1.0,1.0,1.0,,,,302.0,238.01,247.55,266.19,121.13,325.91,148.52,400.64,944.25,459.99,Prague - Nové Město,50.07634,14.41639,,,Luxurious,Complete,,,,,,,
"CZK 19,000","CZK 6,000","CZK 25,000",724647,3+kk,7/4/2022,5,G,49 m²,Partly,Good,Brick,,1.0,,,,,195.13,677.09,272.52,491.63,193.45,240.55,250.1,211.03,546.19,371.92,Prague - Břevnov,50.08551,14.37249,,,,,1.0,,1.0,,,,
"CZK 16,000",CZK 0,"CZK 16,000",550011,4+1,7/5/2019,19,A,26 m²,Fully furnished,New-build,Low-energy,1.0,1.0,1.0,1.0,1.0,1.0,110.29,517.45,40.44,41.35,24.43,76.41,292.45,181.86,1302.89,204.35,"Petržílkova, Prague - Stodůlky",50.050706268831,14.348084754523,Up to 10 years,Cooperative,Luxurious,Complete,1.0,Distance,1.0,,,,
"CZK 18,000",CZK 700,"CZK 18,700",724644,2 bedroom,7/4/2022,3,G,70 m²,Unfurnished,Good,Brick,,,,,,,177.41,1162.87,784.53,1784.42,248.45,1289.01,812.14,1209.67,507.67,576.45,Prague - Hostivař,50.05548,14.53938,,,,,,,,,,,
"CZK 19,000","CZK 3,000","CZK 20,000",705090,Studio,7/7/2022,1,C,31 m²,Fully furnished,Very good,Brick,,,,,,,113.34,289.06,83.65,400.81,17.89,95.25,270.37,279.09,374.04,331.65,"Sokolovská, Prague - Karlín",50.0925008,14.4438167,Up to 10 years,Cooperative,Luxurious,Complete,,Central,,,,,
"CZK 36,000","CZK 6,000","CZK 42,000",724642,2 bedroom,7/4/2022,3,G,72 m²,Unfurnished,Very good,Brick,1.0,,1.0,,,1.0,190.62,241.74,3.79,258.03,141.41,283.34,114.97,303.2,637.85,149.7,Prague - Vinohrady,50.07889,14.4503,,,,,,,,,,,
"CZK 57,000","CZK 8,830","CZK 65,830",720855,4+kk,6/2/2022,3,G,110 m²,Unfurnished,Very good,Brick,1.0,1.0,1.0,,1.0,,91.01,254.74,137.58,110.13,57.48,149.86,319.23,477.31,263.02,386.4,Prague - Nové Město,50.08676,14.43233,,,,,,,,,,,
"CZK 32,000","CZK 6,000","CZK 38,000",724619,2+kk,7/4/2022,4,G,83 m²,Unfurnished,Very good,Brick,,,1.0,,,,344.33,616.92,69.31,274.61,44.69,137.75,322.3,866.01,188.27,454.99,Prague - Karlín,50.0938,14.45505,,,,,,,,,,,
"CZK 30,000","CZK 7,000","CZK 37,000",724616,3+kk,7/4/2022,4,G,113 m²,Unfurnished,Good,Brick,,,,,,,134.84,389.72,10.81,375.7,11.2,30.53,358.82,90.64,282.58,389.14,Prague - Vinohrady,50.07711,14.44353,,,,,,,,,,,
"CZK 17,925","CZK 5,975",,722005,Studio,8/11/2022,2,,33 m²,Fully furnished,,,,,1.0,,,,101.18,101.45,145.17,163.35,18.04,264.85,443.76,1400.9,420.74,148.07,"Sokolovská, Prague - Karlín",50.0933405,14.449225,,,,,,,,,,,
"CZK 21,000","CZK 7,000",,724608,2 bedroom,8/4/2022,9,,53 m²,Fully furnished,,,,,1.0,,,,125.93,351.52,458.39,239.89,349.44,469.18,335.68,124.41,1424.09,330.78,"Arabská, Prague - Vokovice",50.0992269,14.3632307,,,,,,,,,,,
"CZK 33,150","CZK 11,050",,717601,2 bedroom,7/6/2022,3,,65 m²,Fully furnished,,,,,1.0,,,,167.88,319.4,98.79,226.57,101.05,409.22,227.05,243.11,631.69,429.01,"Na Zbořenci, Prague - Nové Město",50.0769346,14.4169603,,,,,,,,,,,
"CZK 30,000","CZK 10,000",,718922,Studio,7/6/2022,5,,45 m²,Fully furnished,,,,,1.0,,,,241.61,542.2,98.71,270.79,176.01,313.55,455.64,821.55,633.96,593.3,"Mečislavova, Prague - Nusle",50.0633237,14.4440058,,,,,,,,,,,
"CZK 33,750","CZK 11,250",,719175,2 bedroom,7/17/2022,-1,,50 m²,Fully furnished,,,,,1.0,,,,210.86,382.06,250.08,989.18,169.53,744.75,811.66,1049.67,387.48,543.22,"Strakonická, Prague - Smíchov",50.0643299,14.4102127,,,,,,,,,,,
"CZK 37,500","CZK 12,500",,718920,2+kk,8/4/2022,3,,60 m²,Fully furnished,,,1.0,,1.0,,,,241.61,542.2,98.71,270.79,176.01,313.55,455.64,821.55,633.96,593.3,"Mečislavova, Prague - Nusle",50.0633237,14.4440058,,,,,1.0,,,,,,
"CZK 32,250","CZK 10,750",,724079,Studio,8/28/2022,4,,27 m²,Fully furnished,,,,,1.0,,,,275.28,321.52,72.5,617.26,60.27,467.19,25.57,60.76,793.43,562.96,"Americká, Prague - Vinohrady",50.0717643,14.4385436,,,,,,,,,,,
"CZK 33,750","CZK 11,250",,724600,2+kk,9/2/2022,4,,56 m²,Fully furnished,,,,,,,,,91.98,204.34,98.75,50.9,42.55,154.76,196.57,433.55,409.29,205.78,"náměstí Bratří Synků, Prague - Nusle",50.0640124,14.439955,,,,,,,,,,,
"CZK 33,750","CZK 11,250",,718218,2+kk,7/6/2022,2,,45 m²,Fully furnished,,,,,1.0,,,,210.86,382.06,250.08,989.18,169.53,744.75,811.66,1049.67,387.48,543.22,"Strakonická, Prague - Smíchov",50.0643299,14.4102127,,,,,,,,,,,
"CZK 13,000","CZK 3,000","CZK 15,000",655889,2+kk,8/1/2022,5,G,41 m²,Partly,Very good,Prefab concrete,,,1.0,,,,115.91,449.01,165.69,364.84,146.49,417.57,628.96,336.44,397.27,79.79,"Kovařovicova, Prague - Krč",50.04237,14.43795,,Personal,,,,,1.0,,,,
"CZK 15,000","CZK 3,010","CZK 15,000",724554,Studio,8/1/2022,5,G,38 m²,Fully furnished,Very good,Prefab concrete,1.0,,1.0,,,,315.67,988.1,523.0,748.54,344.96,791.15,693.83,329.38,477.17,307.51,Prague - Žižkov,50.08858,14.48141,Up to 10 years,,,,,,,,,,
"CZK 15,500","CZK 8,000",CZK 0,724582,4+kk,7/14/2022,9,C,63 m²,Partly,Very good,Prefab concrete,,1.0,1.0,,,1.0,253.59,643.72,53.28,280.84,314.16,375.62,390.76,203.87,435.71,207.14,Prague - Háje,50.02864,14.52961,,,,,,,1.0,,,,
"CZK 20,000","CZK 6,000","CZK 30,000",483897,3+kk,8/1/2022,2,,92 m²,Fully furnished,Very good,Brick,,1.0,,,1.0,,137.91,1008.34,405.32,637.44,539.18,1087.18,1284.46,996.81,1069.33,273.85,"Uzoučká, Prague - Suchdol",50.13279,14.36972,Up to 10 years,Personal,Standard,,,Gas boiler,,,,,
"CZK 8,500","CZK 5,000",CZK 0,523647,Studio,7/14/2022,5,C,31 m²,Partly,,Prefab concrete,,1.0,1.0,,,,112.67,622.4,409.67,1455.64,237.43,444.99,181.86,186.08,181.86,314.31,"Brodského, Prague - Chodov",50.0375938,14.5041351,,Personal,,Complete,,Central,,,,,
"CZK 16,000","CZK 5,000","CZK 32,000",617958,3+1,7/1/2022,2,,75 m²,Unfurnished,Good,Prefab concrete,1.0,,1.0,,,,213.98,700.66,231.78,676.94,221.26,684.78,108.59,557.51,102.32,86.41,"Drimlova, Prague - Stodůlky",50.039086,14.337624,10 to 30 years,Personal,,,,Central,,,,,
"CZK 30,000","CZK 8,000","CZK 30,000",606434,3+1,9/12/2022,2,G,106 m²,Partly,Good,Brick,1.0,,1.0,,,,278.74,223.11,343.94,342.19,68.45,417.84,193.38,839.03,1058.67,308.53,"Janáčkovo Nábřeží, Prague - Smíchov",50.075681,14.408523,,Personal,Standard,Complete,,Central,,,,,
"CZK 18,000","CZK 5,500","CZK 23,500",724573,2+kk,7/3/2022,4,G,55 m²,Partly,Very good,Brick,,1.0,1.0,,1.0,,107.33,379.42,91.24,282.93,161.43,388.98,731.08,257.07,502.24,175.6,Prague - Dejvice,50.10023,14.39253,,,,,,,,,,,
"CZK 16,000","CZK 4,000","CZK 20,000",724572,Studio,7/3/2022,4,C,44 m²,Fully furnished,New-build,Brick,,,1.0,1.0,,,145.74,122.09,199.62,338.5,304.59,445.73,360.63,454.11,826.39,399.99,"Pod Klamovkou, Prague - Košíře",50.0693726,14.37604275,,Personal,Luxurious,Complete,,Central,,,,,
"CZK 19,900","CZK 1,900","CZK 39,000",724571,2+kk,8/1/2022,3,G,45 m²,Partly,Very good,Brick,,,,,,,185.36,165.49,252.08,2475.46,225.26,207.32,392.19,267.6,1105.89,136.41,Prague - Braník,50.03559,14.41069,,,,,,,,,,,
"CZK 27,000","CZK 8,400","CZK 35,400",400077,3+1,7/1/2022,2,C,109 m²,Partly,,Brick,1.0,,1.0,,,,217.79,597.56,265.89,683.05,336.87,315.43,400.63,752.22,652.55,483.58,"Talichova, Prague - Břevnov",50.0879235,14.3636788,,Personal,,,1.0,Central,,,,,
"CZK 25,000","CZK 6,500","CZK 25,000",443057,3+kk,8/1/2022,5,,68 m²,Fully furnished,,Brick,,1.0,1.0,,,,322.53,458.92,300.29,485.87,265.43,360.84,370.67,553.6,711.95,373.27,"Radlická, Prague - Smíchov",50.066358,14.4027444,,Personal,,,,Central,,,,,
"CZK 17,500","CZK 4,000","CZK 21,500",724567,2+kk,7/3/2022,3,C,43 m²,Fully furnished,Very good,Low-energy,,,1.0,,,,83.09,278.62,205.88,378.41,5.96,503.36,395.91,397.31,304.34,390.61,Prague - Libeň,50.10418,14.47862,10 to 30 years,Personal,Standard,Complete,,Central,,,,,
"CZK 15,000","CZK 2,000","CZK 17,000",480743,Studio,7/1/2022,4,,43 m²,Unfurnished,New-build,Brick,1.0,,1.0,1.0,1.0,1.0,204.9,251.55,125.07,364.98,282.63,259.02,847.82,736.32,692.68,223.49,"Soukalova, Prague - Modřany",50.0038161,14.4155874,Up to 10 years,Personal,Standard,,,Distance,,,,,
"CZK 14,500","CZK 5,000","CZK 40,000",537244,2 bedroom,8/1/2022,8,C,51 m²,Partly,,Prefab concrete,,1.0,1.0,,1.0,,525.24,735.54,615.0,595.97,506.06,625.79,439.42,413.37,1312.64,101.54,"Tobrucká, Prague - Vokovice",50.1016601,14.3597364,30 - 50 years,Cooperative,,Exterior,,Central,,,,,
"CZK 13,000","CZK 6,000","CZK 18,000",724564,Studio,7/4/2022,4,G,30 m²,Fully furnished,Very good,Brick,,1.0,1.0,,,,173.11,480.68,157.09,182.99,54.28,49.65,571.37,625.94,121.51,764.35,Prague - Karlín,50.09218,14.43936,,,,,,,,,,,
"CZK 17,000","CZK 4,500","CZK 35,000",197576,2+kk,8/1/2021,3,,56 m²,Fully furnished,,Brick,,1.0,1.0,,,,77.17,239.92,106.3,82.01,140.44,135.38,497.16,699.8,348.57,238.06,"Bratří Dohalských, Prague - Vysočany",50.1108029,14.4995092,10 to 30 years,Personal,Standard,,,Distance,,,,,
"CZK 24,000","CZK 5,000","CZK 58,000",609333,2+kk,8/1/2022,3,G,66 m²,Fully furnished,New-build,Brick,,,1.0,,1.0,1.0,70.63,316.15,440.2,605.53,386.45,304.32,500.65,477.82,389.93,167.72,"Olšanská, Prague - Žižkov",50.083025,14.465472,Up to 10 years,Personal,Luxurious,,,Central,,,,,
"CZK 15,000","CZK 2,500","CZK 15,000",723903,2+kk,8/1/2022,1,G,45 m²,Fully furnished,Good,Prefab concrete,,1.0,1.0,,1.0,,75.49,951.99,829.18,2227.48,373.16,438.71,661.21,1599.7,1462.97,464.39,Prague - Krč,50.01986,14.46292,,,Standard,Bathroom unit,,Central,,,,,
"CZK 26,250","CZK 8,750",,723508,2+kk,8/4/2022,3,,48 m²,Fully furnished,,,,,1.0,,,,378.96,558.46,187.78,832.78,50.41,819.92,518.84,300.42,563.69,288.95,"Rybalkova, Prague - Vinohrady",50.0719171,14.4429188,,,,,,,,,,,
"CZK 19,500","CZK 2,300","CZK 40,000",718728,2+kk,5/16/2022,4,C,73 m²,Partly,Very good,Brick,,1.0,1.0,,,1.0,229.47,2023.05,1162.12,1925.67,345.81,1458.48,876.34,1467.0,1212.04,798.47,"Vorařská, Prague - Modřany",50.01368,14.40018,,Personal,,,,,,,,,
"CZK 29,520","CZK 9,840",,717600,2+kk,7/6/2022,3,,39 m²,Fully furnished,,,,,,,,,416.82,407.31,197.18,385.84,61.6,672.56,443.17,554.95,732.4,173.97,"Na Kampě, Prague - Malá Strana",50.0861053,14.4085409,,,,,,,,,,,
"CZK 10,875","CZK 3,625",,724549,1 bedroom,7/30/2022,2,,86 m²,Fully furnished,,,,,,,,,187.92,540.11,78.52,148.85,119.92,344.81,567.68,372.93,358.39,484.06,"Vrázova, Prague - Smíchov",50.0711107,14.4074285,,,,,,,,,,,
"CZK 15,000","CZK 4,500","CZK 30,000",724548,1 bedroom,8/1/2022,1,G,36 m²,Fully furnished,Good,Prefab concrete,,1.0,1.0,,,,218.5,978.72,232.06,501.62,518.54,504.29,182.89,264.21,341.09,424.32,Prague - Letňany,50.13374,14.50727,,,,,,,1.0,,,,
"CZK 43,775","CZK 5,500","CZK 87,550",715590,3+kk,6/1/2022,4,A,113 m²,Unfurnished,New-build,Brick,,1.0,1.0,1.0,,,54.41,721.72,20.35,63.58,98.99,37.75,186.97,1474.95,176.86,470.99,Prague - Holešovice,50.09912,14.43261,,Personal,,Complete,,Central,,,,,
"CZK 33,750","CZK 11,250",,724540,3+kk,8/8/2022,7,,85 m²,Fully furnished,,,,,1.0,,,,43.1,275.33,86.81,107.67,29.44,58.04,584.89,359.35,612.41,136.97,"Jičínská, Prague - Žižkov",50.0780714,14.460831,,,,,,,,,,,
"CZK 56,475","CZK 18,825",,723104,3+kk,7/6/2022,2,,67 m²,Fully furnished,,,1.0,,1.0,,,,110.1,273.82,156.66,129.22,76.56,142.67,300.13,496.4,282.11,367.31,"Dlážděná, Prague - Nové Město",50.0865843,14.4323212,,,,,1.0,,,,,,
"CZK 19,000","CZK 2,000","CZK 19,000",292712,2 bedroom,8/1/2022,,A,50 m²,Partly,Very good,Low-energy,,,,,1.0,,103.2,432.16,400.15,340.01,354.51,494.07,755.28,761.41,591.42,593.43,"Při hranici, Prague - Sedlec",50.1354932,14.3835595,Over 50 years,Personal,Standard,Complete,,Geothermal,,,,,
"CZK 20,139","CZK 6,713",,723356,Studio,8/5/2022,5,,24 m²,Fully furnished,,,,,1.0,,,,204.75,529.92,107.76,271.28,117.3,198.17,381.93,473.46,640.15,688.11,"Tyršova, Prague - Nové Město",50.073014,14.4308483,,,,,,,,,,,
"CZK 18,881","CZK 6,294",,717606,Studio,8/31/2022,1,,28 m²,Fully furnished,,,,,,,,,192.2,792.19,136.81,285.46,92.76,475.4,242.58,336.79,507.76,82.3,"U Zeměpisného ústavu, Prague - Bubeneč",50.1033901,14.4020568,,,,,,,,,,,
"CZK 25,000","CZK 4,900","CZK 50,000",722371,2+kk,6/30/2022,,G,52 m²,Fully furnished,Very good,Brick,,,,,,,257.94,176.82,349.18,313.01,110.88,385.78,174.23,537.57,525.12,350.31,Prague - Smíchov,50.07558,14.40817,,,,,,,,,,,
"CZK 26,000","CZK 8,123","CZK 52,000",712288,3+1,7/1/2022,2,G,92 m²,Fully furnished,Very good,Prefab concrete,1.0,,1.0,,,,337.8,318.61,296.95,240.45,420.31,790.8,511.3,195.73,286.08,670.29,"Kazašská, Prague - Vršovice",50.06747,14.46649,,Personal,Standard,,,Distance,,,,,
"CZK 21,500","CZK 1,000","CZK 21,500",563355,3+kk,8/1/2022,3,B,70 m²,Fully furnished,Very good,Brick,,,,,,,339.61,435.48,193.82,449.25,167.41,389.77,241.36,360.95,701.29,294.02,"Herálecká II, Prague - Krč",50.0449923,14.4438755,Up to 10 years,Personal,Standard,Interior,,Distance,,,,,
"CZK 24,000","CZK 8,000",,721726,Studio,8/14/2022,4,,20 m²,Fully furnished,,,,,1.0,,,,135.73,343.51,169.52,240.21,114.43,5.65,313.21,791.73,231.47,538.72,"Washingtonova, Prague - Nové Město",50.0805511,14.4309281,,,,,,,,,,,
"CZK 36,338","CZK 12,112",,720849,5+kk,8/1/2022,1,,180 m²,Fully furnished,,,1.0,,,,,1.0,694.98,2420.26,2010.62,3106.64,842.97,2503.88,2486.48,2324.36,2496.33,921.15,"Ibišková, Prague - Křeslice",50.0183023,14.5625656,,,,,1.0,,,,,,
"CZK 27,848","CZK 9,282",,718098,2+kk,7/6/2022,4,,114 m²,Fully furnished,,,1.0,,1.0,,,1.0,320.65,1505.94,574.05,1181.29,15.02,564.66,318.66,392.36,406.3,312.25,"Konojedská, Prague - Strašnice",50.0640089,14.5104168,,,,,1.0,,,,,,
"CZK 32,400","CZK 10,800",,722376,2 bedroom,8/14/2022,2,,62 m²,Fully furnished,,,,,1.0,,,,115.5,432.36,102.25,252.86,101.54,270.19,296.51,392.65,201.07,164.93,"U Obecního dvora, Prague - Staré Město",50.091319,14.4234523,,,,,,,,,,,
"CZK 74,813","CZK 24,937",,722375,4+1,8/17/2022,3,,136 m²,Fully furnished,,,,,1.0,,,,305.35,609.48,123.44,435.97,59.26,202.94,375.9,628.46,401.54,92.23,"Betlémská, Prague - Staré Město",50.0837893,14.416317,,,,,,,,,,,
"CZK 33,750","CZK 11,250",,724080,1 bedroom,8/28/2022,4,,43 m²,Fully furnished,,,,,1.0,,,,276.64,299.92,82.85,597.17,63.3,447.09,45.77,62.13,794.8,565.99,"Americká, Prague - Vinohrady",50.0718291,14.4385892,,,,,,,,,,,
"CZK 45,000","CZK 15,000",,723086,2+kk,8/20/2022,4,,70 m²,Fully furnished,,,,,1.0,,,,285.3,547.87,69.97,206.93,9.84,222.16,245.36,617.77,369.53,523.86,"Ve Smečkách, Prague - Nové Město",50.0795975,14.4273504,,,,,,,,,,,
"CZK 12,800","CZK 3,062",CZK 0,197481,1 bedroom,6/28/2022,4,,48 m²,Partly,Good,Brick,,1.0,,,,,219.92,522.99,254.42,318.08,291.14,512.99,288.04,869.5,254.51,133.4,"Podolská, Prague - Podolí",50.0554479,14.4208775,,Personal,Standard,,,Gas boiler,,,,,
"CZK 27,075","CZK 9,025",,724524,1 bedroom,9/1/2022,2,,39 m²,Fully furnished,,,,,1.0,,,,200.22,334.37,57.4,333.4,24.56,267.96,331.64,277.9,705.14,663.88,"Koubkova, Prague - Nové Město",50.0719498,14.4319499,,,,,,,,,,,
"CZK 16,125","CZK 5,375",,724076,Studio,8/9/2022,2,,30 m²,Fully furnished,,,,,,,,,185.09,1643.88,178.27,1325.97,325.36,965.21,1135.22,970.71,218.02,273.93,"U Pekařky, Prague - Libeň",50.1138866,14.4798456,,,,,,,,,,,
"CZK 57,000","CZK 19,000",,724522,3+1,9/1/2022,3,,130 m²,Fully furnished,,,,,,,,1.0,293.94,358.82,65.34,231.82,29.61,399.45,202.79,623.36,368.2,458.02,"Michalská, Prague - Staré Město",50.0859057,14.4200254,,,,,,,,,,,
"CZK 26,250","CZK 8,750",,719202,2+kk,7/6/2022,3,,46 m²,Fully furnished,,,,,,,,,99.77,437.38,81.67,124.22,1.06,339.84,530.75,1037.92,1232.16,690.83,"Lidická, Prague - Smíchov",50.0723918,14.4059555,,,,,,,,,,,
"CZK 17,625","CZK 5,875",,724521,2+kk,9/1/2022,10,,45 m²,Fully furnished,,,,,1.0,,,,256.77,316.9,138.95,255.27,129.78,146.97,532.26,445.84,886.9,24.33,"Jablonecká, Prague - Střížkov",50.1245336,14.4947443,,,,,,,,,,,
"CZK 19,286","CZK 6,428",,724519,2+kk,9/1/2022,6,,40 m²,Fully furnished,,,,,,,,,275.72,613.97,142.96,237.63,75.92,333.81,397.97,134.84,451.34,420.6,"Na Poříčním právu, Prague - Nové Město",50.0712667,14.4160344,,,,,,,,,,,
"CZK 18,060","CZK 6,020",,724517,1 bedroom,9/1/2022,1,,50 m²,Fully furnished,,,,,,,,,205.31,1124.89,579.04,1117.54,553.77,629.21,687.34,826.77,1417.7,569.07,"Na Výspě, Prague - Hodkovičky",50.0236328,14.420109,,,,,,,,,,,
"CZK 16,875","CZK 5,625",,724516,2 bedroom,9/1/2022,-1,,40 m²,Fully furnished,,,1.0,,1.0,,,,169.76,1169.07,646.78,1515.71,269.02,1040.37,796.7,996.01,662.69,344.68,"Babická, Prague - Chodov",50.0406167,14.4989504,,,,,1.0,,,,,,
"CZK 33,375","CZK 11,125",,724515,3+kk,9/1/2022,2,,88 m²,Fully furnished,,,,,,,,,119.05,2342.79,342.47,1963.2,295.53,418.01,737.58,1682.86,894.29,390.71,"Weberova, Prague - Motol",50.073131,14.3495147,,,,,,,,,,,
"CZK 29,850","CZK 9,950",,724078,2+kk,8/28/2022,3,,50 m²,Fully furnished,,,,,1.0,,,,75.01,890.63,40.68,622.44,47.2,145.83,371.43,242.4,512.42,352.71,"Kubelíkova, Prague - Žižkov",50.0815843,14.4461973,,,,,,,,,,,
"CZK 31,500","CZK 10,500",,724514,2 bedroom,9/1/2022,5,,76 m²,Fully furnished,,,,,1.0,,,,173.24,237.07,170.98,194.52,84.53,150.25,482.36,158.74,537.92,88.5,"Slezská, Prague - Vinohrady",50.076837,14.4602531,,,,,,,,,,,
"CZK 22,000","CZK 6,000","CZK 44,000",724509,4+kk,8/15/2022,4,G,93 m²,Unfurnished,New-build,Brick,,,1.0,1.0,1.0,1.0,285.55,1540.52,258.87,2074.87,630.11,994.4,1705.71,2472.56,600.83,95.63,Prague - Hostavice,50.08567,14.56351,,,,,1.0,,,,,,
"CZK 12,800","CZK 3,300","CZK 25,000",724502,Studio,9/1/2022,5,G,41 m²,Partly,New-build,Brick,,1.0,1.0,1.0,1.0,1.0,353.71,1587.0,421.75,1358.43,500.97,1523.01,1264.99,1471.9,593.16,136.37,Prague - Vysočany,50.11201,14.51458,,,,,,,1.0,,,,
"CZK 21,500","CZK 2,500",CZK 1,554807,3+1,7/1/2021,2,C,76 m²,Fully furnished,Very good,Brick,,1.0,1.0,,1.0,,175.53,470.22,65.07,126.0,78.48,162.78,394.51,655.62,805.59,288.86,Prague - Krč,50.0465752,14.4461258,Up to 10 years,Personal,Luxurious,Complete,,Distance,,,,,
"CZK 16,000","CZK 6,000","CZK 32,000",724498,2+kk,7/2/2022,1,B,43 m²,Fully furnished,Very good,Prefab concrete,,,1.0,,,,332.2,1373.23,149.76,1714.34,583.84,525.05,243.66,839.9,1759.19,192.97,Prague - Chodov,50.02252,14.51303,,,,,,,,,,,
"CZK 18,824","CZK 2,500","CZK 40,000",723888,2 bedroom,6/27/2022,4,C,58 m²,Partly,Good,Brick,1.0,,1.0,,,,270.6,232.91,79.3,455.68,144.54,154.01,180.96,329.69,570.73,144.67,Prague - Holešovice,50.10083,14.44664,,,,,,,,,,,
"CZK 12,500","CZK 5,500","CZK 36,000",337513,2+kk,7/1/2022,1,,40 m²,Fully furnished,Very good,Prefab concrete,,,,,,,228.84,852.5,135.82,1493.77,395.02,899.59,499.03,1127.2,241.58,107.95,"Štúrova, Prague - Lhotka",50.0253603,14.4514434,,Personal,,Complete,,Distance,,,,,
"CZK 26,900","CZK 4,000","CZK 60,000",324528,3+kk,8/1/2022,2,C,76 m²,Fully furnished,,Other,1.0,1.0,,1.0,,1.0,,,,,,,,,,,"Zakšínská, Prague - Střížkov",50.1310861,14.4941387,Up to 10 years,Personal,Standard,,,Electric boiler,1.0,,,,
"CZK 20,300","CZK 3,000","CZK 50,000",690121,3+1,7/20/2022,1,G,76 m²,Partly,Good,Prefab concrete,,,,,1.0,,533.56,1433.83,494.75,1509.19,504.83,1498.72,84.61,192.74,792.93,118.56,"Urbánkova, Prague - Modřany",50.00206,14.43246,,Personal,,Interior,,Central,1.0,,,,
"CZK 15,000","CZK 3,000","CZK 15,000",724488,2 bedroom,7/2/2022,4,G,50 m²,Fully furnished,Wrong,Brick,,,,,,,108.27,732.16,259.51,569.38,182.54,480.93,545.87,580.84,976.25,255.65,Prague - Strašnice,50.0776,14.50304,,,,,,,,,,,
"CZK 20,000","CZK 4,000","CZK 25,000",724486,3+kk,7/2/2022,5,G,66 m²,Fully furnished,Very good,Prefab concrete,,,1.0,,,,309.03,931.93,419.23,2591.51,650.09,1438.97,349.52,1707.87,845.82,252.27,Prague - Kamýk,50.00735,14.45384,,,Standard,Complete,,Central,1.0,,,,
"CZK 36,750","CZK 12,250",,723533,2+kk,7/6/2022,6,,56 m²,Fully furnished,,,,,1.0,,,,345.14,1342.2,164.46,1280.58,177.52,640.24,86.84,430.13,282.25,213.81,"Střížkovská, Prague - Střížkov",50.1237895,14.4836132,,,,,,,,,,,
"CZK 18,000","CZK 7,000","CZK 25,000",724454,3+kk,7/2/2022,6,G,62 m²,Partly,Good,Prefab concrete,,,1.0,,,,213.21,267.57,173.44,260.22,223.62,241.27,456.38,482.12,576.63,111.57,Prague - Braník,50.02397,14.43166,,,,,,,1.0,,,,
"CZK 28,500","CZK 9,500",,724302,2+kk,7/31/2022,1,,56 m²,Fully furnished,,,,,,,,,367.14,971.43,109.11,519.79,345.16,908.48,267.85,184.01,845.29,349.25,"U Družstva Život, Prague - Nusle",50.0559404,14.4464229,,,,,,,,,,,
"CZK 25,000","CZK 1,600","CZK 48,000",652210,4+kk,7/4/2022,1,D,104 m²,Unfurnished,Very good,Brick,,,1.0,,,,339.67,681.0,88.32,387.89,38.18,463.73,389.47,371.96,490.62,70.52,"Puškinovo Náměstí, Prague - Bubeneč",50.102945,14.401963,,Personal,,Complete,,Gas boiler,,,,,
"CZK 13,900","CZK 3,200","CZK 27,800",724470,Small studio,7/2/2022,4,G,20 m²,Fully furnished,Very good,Brick,,,1.0,,,,130.65,607.49,104.12,142.66,62.64,36.22,235.85,310.39,161.52,133.09,Prague - Nové Město,50.07613,14.42899,,,,,,,,,,,
"CZK 38,040","CZK 12,680",,724143,2 bedroom,7/6/2022,5,,70 m²,Fully furnished,,,,,,,,,92.39,704.33,6.31,418.26,11.89,396.59,447.42,561.87,517.82,191.93,"Karoliny Světlé, Prague - Staré Město",50.0841726,14.4139535,,,,,,,,,,,
"CZK 25,808","CZK 8,602",,724292,1 bedroom,7/14/2022,2,,46 m²,Fully furnished,,,,,,,,,450.08,851.94,613.97,1216.3,634.57,923.06,534.48,156.81,999.06,301.07,"U Pernikářky, Prague - Smíchov",50.0745289,14.3827184,,,,,,,,,,,
"CZK 40,800","CZK 13,600",,724135,2+kk,7/6/2022,6,,75 m²,Fully furnished,,,1.0,,1.0,,,,163.79,319.88,110.55,226.38,103.86,407.78,227.16,243.22,785.75,360.1,"Na Zbořenci, Prague - Nové Město",50.0769346,14.4169603,,,,,1.0,,,,,,
"CZK 14,400","CZK 3,000","CZK 28,800",724468,2+kk,7/18/2022,4,G,42 m²,Fully furnished,Very good,Brick,,1.0,1.0,,,,334.55,965.65,174.62,684.3,197.82,433.6,391.64,161.5,126.26,45.75,Prague - Libeň,50.10832,14.49069,,,,,,,,,,,
"CZK 18,000","CZK 5,500","CZK 23,500",602552,2 bedroom,8/1/2022,2,G,40 m²,Fully furnished,Very good,Brick,,,,,,,236.6,194.46,171.08,262.74,136.12,284.54,67.52,952.98,179.07,477.14,"Růžová, Prague - Nové Město",50.0836,14.430418,Over 50 years,Personal,Standard,Complete,,Other,,,,,
"CZK 7,650","CZK 2,000",CZK 0,724464,Small studio,7/2/2022,2,G,21 m²,Partly,Good,Brick,,,1.0,,1.0,,213.87,403.45,469.89,1568.62,184.86,1216.34,469.76,365.09,368.14,276.51,Prague - Střešovice,50.08935,14.38393,,,,,,,,,,,
"CZK 12,500","CZK 5,000","CZK 24,000",724462,2+kk,7/2/2022,12,G,40 m²,Fully furnished,Very good,Prefab concrete,,,1.0,,1.0,1.0,107.44,1295.05,188.34,1644.08,112.71,709.13,842.85,1174.67,559.7,380.76,Prague - Krč,50.02978,14.44976,,,,,,,,,,,
"CZK 47,340","CZK 15,780",,717682,2+kk,7/6/2022,6,,69 m²,Fully furnished,,,1.0,,1.0,,,,104.56,349.59,143.75,145.93,108.83,150.53,431.56,393.96,289.53,329.01,"Na Maninách, Prague - Holešovice",50.1025661,14.4522431,,,,,1.0,,,,,,
"CZK 28,500","CZK 4,000","CZK 28,500",724459,2 bedroom,7/2/2022,1,G,67 m²,Fully furnished,Very good,Brick,,,,,1.0,,150.85,444.96,280.68,350.29,94.62,286.23,25.39,16.18,419.87,700.95,Prague - Vinohrady,50.07959,14.43616,,,,,,,,,,,
"CZK 15,000","CZK 5,000","CZK 30,000",538709,3+1,7/1/2022,6,,70 m²,Fully furnished,Good,Prefab concrete,1.0,1.0,1.0,,,,235.84,281.78,44.66,1913.85,250.82,407.91,401.69,341.03,681.14,330.11,"U Dvojdomů, Prague - Hostivař",50.050969,14.5419828,,Personal,,,,,1.0,,,,
"CZK 13,500","CZK 2,500","CZK 16,000",724455,2+kk,7/2/2022,1,B,45 m²,Fully furnished,Very good,Brick,,,,,,,313.69,1332.6,236.49,717.99,264.83,417.77,577.21,576.35,691.56,314.77,Prague - Bubeneč,50.11017,14.39573,,Personal,,,,,,,,,
"CZK 23,826","CZK 7,942",,722729,2+kk,7/13/2022,4,,35 m²,Fully furnished,,,,,,,,,356.54,736.2,458.21,353.24,376.04,829.05,1040.15,326.58,1014.22,65.27,"Buštěhradská, Prague - Střešovice",50.0968441,14.3897247,,,,,,,,,,,
"CZK 6,000","CZK 2,800","CZK 8,800",399727,2 bedroom,7/2/2022,1,,57 m²,Fully furnished,,Brick,,1.0,,,,,114.31,60.85,136.83,184.68,121.58,133.1,177.88,527.86,154.18,386.09,"Slavníkova, Prague - Břevnov",50.0844859,14.3650719,Over 50 years,Personal,,,,Gas boiler,,,,,
"CZK 18,500","CZK 5,116","CZK 18,500",724451,2+kk,8/1/2022,1,G,42 m²,Fully furnished,Very good,Brick,,,,,,,14.41,674.77,29.3,40.79,8.33,37.64,298.48,406.69,379.19,357.17,Prague - Žižkov,50.08922,14.46875,Up to 10 years,,Standard,,,,,,,,
"CZK 23,000","CZK 3,944","CZK 25,000",659097,2+kk,9/1/2022,1,B,58 m²,Fully furnished,New-build,Brick,1.0,,1.0,,1.0,1.0,480.56,1973.94,169.45,1648.48,1294.97,766.39,1094.91,1383.24,1086.76,157.32,"Pod Harfou, Prague - Vysočany",50.10422,14.5085,,Personal,,,,,,,,,
"CZK 28,688","CZK 9,562",,723982,Studio,8/24/2022,2,,40 m²,Fully furnished,,,1.0,,,,,,87.49,353.69,89.13,198.59,58.79,391.02,424.91,274.28,259.74,601.22,"Zborovská, Prague - Smíchov",50.0730353,14.4083714,,,,,1.0,,,,,,
"CZK 19,800","CZK 4,000","CZK 48,000",655890,2+kk,7/2/2022,3,A,44 m²,Partly,New-build,Brick,1.0,,1.0,,,,239.92,655.2,204.96,337.56,104.06,321.63,457.62,538.53,201.82,444.62,"Krakovská, Prague - Nové Město",50.07848,14.42791,,Personal,,,,,,,,,
"CZK 57,750","CZK 19,250",,723111,4+1,7/24/2022,7,,110 m²,Fully furnished,,,,,1.0,,,1.0,137.99,750.11,161.99,51.36,36.39,308.63,639.86,669.46,545.17,200.72,"Koněvova, Prague - Žižkov",50.0896259,14.4652159,,,,,,,,,,,
"CZK 24,000",CZK 600,"CZK 24,000",663624,2 bedroom,7/1/2022,5,D,72 m²,Partly,Very good,Brick,,1.0,,,,,117.45,214.72,82.71,72.96,71.35,28.69,497.42,424.84,542.02,127.98,"Jičínská, Prague - Vinohrady",50.0774,14.4609,,Personal,Standard,,,,,,,,
"CZK 19,000","CZK 5,100","CZK 30,000",512972,3+1,7/4/2022,8,B,71 m²,Fully furnished,Very good,Prefab concrete,1.0,,1.0,,1.0,,383.07,597.84,68.08,727.67,390.7,640.79,251.07,156.04,1495.24,154.97,Prague - Kobylisy,50.1304976,14.4755318,,Cooperative,,Complete,,,1.0,,,,
"CZK 15,000","CZK 3,000","CZK 15,000",723591,Studio,7/9/2022,5,C,34 m²,Fully furnished,Very good,Brick,,,1.0,,,,256.52,443.42,142.51,340.32,120.47,267.21,416.68,386.95,691.92,739.88,Prague - Nové Město,50.07291,14.43148,,,,,,,,,,,
"CZK 16,500","CZK 3,500","CZK 33,000",256301,2+kk,7/2/2022,2,,54 m²,Partly,Very good,Brick,,,,,,,349.81,1035.2,141.67,586.71,277.22,604.28,422.01,284.88,313.49,273.6,"Hořanská, Prague - Žižkov",50.0905093,14.4796408,,Personal,,Complete,,Central,,,,,
"CZK 12,500","CZK 2,500","CZK 15,000",547854,Small studio,9/1/2022,2,,36 m²,Partly,Very good,Prefab concrete,,1.0,1.0,,1.0,,283.15,1316.89,209.18,1364.92,389.46,484.64,244.54,718.15,1091.35,142.26,"Černého, Prague - Střížkov",50.1305732,14.4858855,10 to 30 years,Cooperative,,Interior,,Distance,1.0,,,,
"CZK 41,250","CZK 13,750",,719999,2+kk,7/23/2022,1,,55 m²,Fully furnished,,,,,1.0,,,,76.78,951.56,41.94,296.91,109.07,229.41,371.34,325.8,517.82,388.28,"Rečkova, Prague - Žižkov",50.0904334,14.4705869,,,,,,,,,,,
"CZK 33,750","CZK 11,250",,718594,1 bedroom,7/18/2022,3,,45 m²,Fully furnished,,,,,1.0,,,,154.88,368.87,146.98,651.03,45.07,545.33,204.63,327.9,671.18,484.21,"Jana Masaryka, Prague - Vinohrady",50.0723321,14.4399493,,,,,,,,,,,
"CZK 21,019","CZK 7,006",,721725,Studio,8/8/2022,1,,32 m²,Fully furnished,,,,,,,,,419.83,740.81,425.23,494.96,193.69,893.21,285.06,623.78,454.44,365.18,"Nad Kolčavkou A, Prague - Libeň",50.1080609,14.4828384,,,,,,,,,,,
"CZK 29,700","CZK 9,900",,717598,Studio,8/24/2022,7,,60 m²,Fully furnished,,,,,1.0,,,,228.69,544.2,211.93,96.71,87.36,307.62,107.73,377.64,237.09,578.16,"Mánesova, Prague - Vinohrady",50.0778888,14.4403889,,,,,,,,,,,
"CZK 39,600","CZK 13,200",,717648,2+kk,8/8/2022,2,,46 m²,Fully furnished,,,,,,,,,249.05,258.88,108.69,237.41,65.07,536.83,294.74,273.73,806.33,231.2,"Míšeňská, Prague - Malá Strana",50.0876118,14.4080467,,,,,,,,,,,
"CZK 18,075","CZK 6,025",,720783,2 bedroom,7/22/2022,6,,90 m²,Fully furnished,,,,,1.0,,,,149.44,274.13,59.7,440.76,20.27,421.03,58.77,552.06,690.27,456.83,"Francouzská, Prague - Vinohrady",50.0739894,14.440101,,,,,,,,,,,
"CZK 42,000","CZK 14,000",,724430,2+kk,8/31/2022,6,,70 m²,Fully furnished,,,,,1.0,,,1.0,131.02,427.0,167.64,222.78,153.5,424.47,453.78,447.06,416.6,569.82,"Rubešova, Prague - Vinohrady",50.0782991,14.4323831,,,,,,,,,,,
"CZK 22,313","CZK 7,437",,724429,Studio,8/31/2022,2,,35 m²,Fully furnished,,,,,1.0,,,,233.1,571.46,103.21,275.27,139.29,314.88,470.1,600.61,643.99,585.85,"Mojmírova, Prague - Nusle",50.0630016,14.4450348,,,,,,,,,,,
"CZK 22,478","CZK 7,492",,717623,Studio,8/4/2022,3,,30 m²,Fully furnished,,,,,1.0,,,1.0,99.26,368.43,492.48,556.35,425.89,352.32,496.3,585.08,429.78,490.62,"Olšanská, Prague - Žižkov",50.0830187,14.4654473,,,,,,,,,,,
"CZK 15,000","CZK 1,000","CZK 15,000",724420,1 bedroom,7/1/2022,4,G,45 m²,Fully furnished,Good,Brick,,1.0,1.0,,,,64.45,381.46,152.72,386.63,117.12,356.86,113.1,118.29,646.57,676.32,Prague - Vinohrady,50.07515,14.43964,,,Standard,,,Gas boiler,,,,,
"CZK 37,500","CZK 12,500",,717602,2+kk,7/17/2022,5,,56 m²,Fully furnished,,,,,1.0,,,,242.69,541.12,99.79,271.87,177.08,314.62,456.71,820.48,635.04,594.38,"Mečislavova, Prague - Nusle",50.0633339,14.4440155,,,,,,,,,,,
"CZK 13,000","CZK 2,979","CZK 16,000",724411,Studio,7/1/2022,1,C,25 m²,Fully furnished,New-build,Brick,,1.0,1.0,,,,549.23,662.36,441.09,761.17,468.73,740.0,498.65,448.69,636.62,748.27,Prague - Vinohrady,50.06851,14.43809,,,,,1.0,,,,,,
"CZK 28,425","CZK 9,475",,721648,Studio,7/6/2022,2,,30 m²,Fully furnished,,,,,1.0,,,,210.86,382.06,250.08,989.18,169.53,744.75,811.66,1049.67,387.48,543.22,"Strakonická, Prague - Smíchov",50.0643299,14.4102127,,,,,,,,,,,
"CZK 13,000","CZK 2,000","CZK 26,000",410897,2 bedroom,8/1/2022,1,,75 m²,Partly,,Brick,,,,,,,196.88,485.2,235.18,466.75,249.05,412.04,535.68,412.05,423.94,257.76,"Konzumní, Prague - Hloubětín",50.1060851,14.5328716,,Personal,,,,,,,,,
"CZK 33,750","CZK 11,250",,722553,4+1,8/2/2022,6,,125 m²,Fully furnished,,,1.0,,1.0,,,,471.25,743.59,335.23,446.49,287.19,729.74,444.14,484.03,537.2,772.67,"Řehořova, Prague - Žižkov",50.086282,14.4433901,,,,,1.0,,,,,,
"CZK 33,150","CZK 11,050",,724407,2 bedroom,7/6/2022,4,,65 m²,Fully furnished,,,,,1.0,,,,163.79,319.88,110.55,226.38,103.86,407.78,227.16,243.22,785.75,360.1,"Na Zbořenci, Prague - Nové Město",50.0769346,14.4169603,,,,,,,,,,,
"CZK 22,493","CZK 7,497",,722817,Studio,7/31/2022,3,,30 m²,Fully furnished,,,,,1.0,,,1.0,235.87,685.78,233.92,407.82,154.16,248.27,547.3,509.71,132.73,318.9,"V Háji, Prague - Holešovice",50.1013638,14.4546402,,,,,,,,,,,
"CZK 23,970","CZK 7,990",,723857,2 bedroom,8/12/2022,5,,35 m²,Fully furnished,,,,,,,,,220.05,826.22,174.81,602.88,97.41,601.22,415.82,330.65,569.7,247.12,"Bulharská, Prague - Vršovice",50.0719625,14.461813,,,,,,,,,,,
"CZK 16,000","CZK 4,000","CZK 32,000",721969,Studio,8/1/2022,4,B,32 m²,Partly,New-build,Brick,1.0,,1.0,1.0,1.0,,169.25,382.25,330.11,1343.4,342.21,444.17,980.06,181.31,1465.04,227.22,Prague - Jinonice,50.0583,14.37281,,Personal,,,,,,,,,
"CZK 22,000","CZK 3,325","CZK 25,325",437084,2+kk,7/4/2022,3,,50 m²,Partly,,Brick,,,1.0,1.0,,,77.44,178.68,44.71,148.37,33.33,189.5,186.99,355.36,533.72,363.06,"Elišky Peškové, Prague - Smíchov",50.0769889,14.4053328,Up to 10 years,Personal,Standard,Complete,,Central,,,,,
"CZK 8,690","CZK 3,000",CZK 0,717177,Studio,6/1/2022,2,G,28 m²,Partly,Very good,Brick,,1.0,,,,,482.04,774.37,651.57,2085.85,515.76,750.21,791.76,1553.63,1343.79,826.85,"Pasteurova, Prague - Krč",50.01784,14.46071,,Personal,,,,,,,,,
"CZK 11,950","CZK 1,600",CZK 0,347548,Small studio,4/30/2022,1,B,30 m²,Fully furnished,,Brick,,,1.0,1.0,1.0,,304.76,566.1,249.71,527.86,109.08,555.09,518.41,213.65,522.33,256.61,"Kotlaska, Prague - Libeň",50.1065516,14.4791928,,Personal,,,,,,,,,
"CZK 23,900",CZK 1,"CZK 40,000",577288,2+kk,7/1/2022,6,C,60 m²,Fully furnished,Very good,Brick,1.0,,1.0,,,,184.01,142.82,5.8,325.89,135.94,425.24,130.98,356.18,84.86,98.76,"Drahobejlova, Prague - Libeň",50.1060756,14.4904958,,Personal,,,,Gas boiler,,,,,
"CZK 14,000","CZK 3,000","CZK 20,000",724385,2+kk,7/1/2022,,G,38 m²,Unfurnished,Very good,Prefab concrete,,1.0,,,,,174.9,343.4,177.66,273.28,252.99,339.93,480.33,646.33,1462.13,199.64,Prague - Bohnice,50.12906,14.41612,,,,,,,,,,,
"CZK 18,800","CZK 4,500","CZK 30,000",332969,3+kk,9/15/2022,3,B,62 m²,Partly,New-build,Brick,1.0,,1.0,1.0,1.0,1.0,461.71,507.64,380.53,2194.14,476.69,610.55,927.81,336.9,503.38,150.08,"Kytínská, Prague - Hostivař",50.0530514,14.5446761,Up to 10 years,,Luxurious,,,Distance,,,,,
"CZK 21,900",CZK 133,"CZK 43,800",722444,2+kk,8/23/2022,10,A,50 m²,Fully furnished,Very good,Other,1.0,1.0,1.0,1.0,1.0,,,,,,,,,,,,Prague - Stodůlky,50.04595,14.32223,,,,,,,,,,,
"CZK 15,000","CZK 3,400","CZK 25,000",724389,2+kk,7/1/2022,6,G,41 m²,Unfurnished,Very good,Prefab concrete,,,1.0,,1.0,1.0,102.75,496.26,255.84,493.57,215.16,312.99,606.32,145.02,802.82,77.54,Prague - Hlubočepy,50.03164,14.37233,,,,,,,,,,,
"CZK 31,500","CZK 10,500",,723520,1 bedroom,7/6/2022,3,,30 m²,Fully furnished,,,,,1.0,,,,22.29,481.37,107.82,95.32,6.34,158.39,351.4,425.94,380.79,468.94,"Legerova, Prague - Vinohrady",50.0749602,14.4305105,,,,,,,,,,,
"CZK 43,500","CZK 14,500",,717644,2 bedroom,7/17/2022,3,,82 m²,Fully furnished,,,,,1.0,,,,154.88,368.87,146.98,651.03,45.07,545.33,204.63,327.9,671.18,484.21,"Jana Masaryka, Prague - Vinohrady",50.0723321,14.4399493,,,,,,,,,,,
"CZK 21,525","CZK 7,175",,722788,1 bedroom,7/6/2022,-1,,35 m²,Fully furnished,,,,,,,,1.0,382.14,590.69,160.72,829.35,129.39,795.0,444.92,113.58,578.94,260.21,"Šmilovského, Prague - Vinohrady",50.0708095,14.4422894,,,,,,,,,,,
"CZK 18,500","CZK 3,600","CZK 37,000",235804,3+1,8/1/2022,7,C,78 m²,Partly,Very good,Prefab concrete,,,1.0,,,,298.21,1339.23,117.22,1728.47,549.85,491.05,172.37,805.9,1773.32,59.38,"Zdiměřická, Prague - Chodov",50.0229294,14.5126768,30 - 50 years,Personal,Standard,Complete,,,1.0,,,,
"CZK 10,500","CZK 3,500","CZK 14,000",724384,Small studio,7/1/2022,1,C,22 m²,Fully furnished,Very good,Brick,,1.0,,,1.0,,127.44,1733.54,136.13,1449.28,133.24,352.71,381.46,529.13,1135.64,125.54,Prague - Strašnice,50.07111,14.50943,,Personal,Standard,,,Distance,,,,,
"CZK 59,250","CZK 19,750",,717599,4+kk,7/6/2022,2,,90 m²,Fully furnished,,,,,1.0,,,,140.09,527.92,223.64,125.85,37.89,66.77,510.79,1001.31,1180.94,559.23,"Stroupežnického, Prague - Smíchov",50.0710929,14.4032595,,,,,,,,,,,
"CZK 19,125","CZK 6,375",,724379,2 bedroom,8/15/2022,4,,35 m²,Fully furnished,,,,,1.0,,,,97.26,259.91,105.72,291.36,79.07,194.41,340.41,525.24,106.28,298.87,"Koněvova, Prague - Žižkov",50.088447,14.458108,,,,,,,,,,,
"CZK 12,500",CZK 0,"CZK 15,000",724377,2+kk,7/11/2022,1,G,42 m²,Partly,Very good,Prefab concrete,,1.0,1.0,,,,394.09,990.9,968.19,1659.4,498.41,1031.36,909.21,1082.06,816.82,752.6,Prague - Horní Měcholupy,50.05125,14.56091,,,,,,,,,,,
"CZK 14,000","CZK 4,000","CZK 40,000",280444,1 bedroom,7/17/2022,3,,34 m²,Partly,,Brick,1.0,,,,,,225.17,650.59,178.6,124.5,56.63,328.41,619.13,614.09,559.55,273.86,"Roháčova, Prague - Žižkov",50.0889635833,14.4647992849,,Cooperative,,Complete,,,,,,,
"CZK 22,500","CZK 3,872","CZK 45,000",724375,2+kk,7/1/2022,4,B,60 m²,Partly,New-build,Low-energy,1.0,1.0,1.0,1.0,,,106.03,481.75,390.44,175.11,299.15,480.32,163.74,458.39,261.53,280.66,Prague - Vršovice,50.06896,14.46471,,,,,,,,,,,
"CZK 30,000","CZK 7,000","CZK 70,000",720483,4+kk,5/30/2022,4,G,100 m²,Partly,New-build,Brick,1.0,1.0,1.0,1.0,1.0,1.0,482.95,2156.35,1774.98,2150.51,563.85,2018.82,1466.63,2024.54,689.82,1388.76,Prague - Hodkovičky,50.01916,14.40095,,,,,,,1.0,,,,
"CZK 60,000","CZK 20,000",,717693,2+kk,8/14/2022,3,,,Fully furnished,,,,,,,,,177.2,646.63,182.16,39.81,37.58,122.34,27.5,101.85,349.84,194.18,"Ječná, Prague - Nové Město",50.0757302,14.4269087,,,,,,,,,,,
"CZK 31,500","CZK 10,500",,717597,1 bedroom,7/6/2022,2,,30 m²,Fully furnished,,,,,1.0,,,,22.29,463.39,80.9,95.69,72.35,158.42,361.29,435.63,383.68,450.56,"Legerova, Prague - Vinohrady",50.0749602,14.4305105,,,,,,,,,,,
"CZK 8,250","CZK 3,738","CZK 11,988",724369,Small studio,7/1/2022,6,G,20 m²,Partly,Very good,Prefab concrete,,,1.0,,,,107.44,1295.05,188.34,1644.08,112.71,709.13,842.85,1174.67,559.7,380.76,Prague - Krč,50.02978,14.44976,,,,,,,,,,,
"CZK 11,000","CZK 3,900","CZK 22,000",318965,Studio,7/1/2022,,,36 m²,Fully furnished,,Brick,,,1.0,,,,223.44,981.59,819.73,1191.69,381.55,450.66,479.89,1171.21,401.21,333.32,"Radouňova, Prague - Řeporyje",50.037946,14.3129709,,Personal,,,1.0,Central,,,,,
"CZK 30,968","CZK 10,322",,722787,1 bedroom,8/4/2022,3,,52 m²,Fully furnished,,,,,1.0,,,,194.81,408.3,97.23,765.36,41.67,716.59,415.49,296.07,511.26,224.74,"Rybalkova, Prague - Vinohrady",50.0719171,14.4429188,,,,,,,,,,,
"CZK 47,235","CZK 15,745",,717653,3+1,7/14/2022,2,,55 m²,Fully furnished,,,,,,,,,158.42,248.82,154.82,246.33,112.75,320.11,390.5,408.53,154.73,114.44,"Řásnovka, Prague - Staré Město",50.0918754,14.4250902,,,,,,,,,,,
"CZK 17,175","CZK 5,725",,723112,Studio,7/16/2022,3,,16 m²,Fully furnished,,,,,,,,,151.47,346.94,58.54,123.52,76.82,121.44,203.9,179.2,421.36,192.43,"Holandská, Prague - Vršovice",50.0696405,14.4559213,,,,,,,,,,,
"CZK 39,000","CZK 6,000","CZK 50,000",360662,3+1,9/1/2022,2,G,132 m²,Partly,Very good,Brick,1.0,1.0,,,,1.0,233.39,1012.59,639.48,1120.68,597.19,1099.32,837.76,1205.03,563.58,207.62,"Fráni Šrámka, Prague - Smíchov",50.0694751,14.3887278,Over 50 years,Personal,,Complete,,Gas boiler,,,,,
"CZK 14,800","CZK 3,200","CZK 14,800",535200,1 bedroom,8/1/2022,3,A,52 m²,Fully furnished,Very good,Brick,1.0,1.0,,,,,59.26,163.57,125.6,2367.17,119.48,310.61,307.09,185.78,1294.9,325.42,Prague - Braník,50.0355664,14.4120967,Up to 10 years,Personal,Luxurious,Complete,1.0,Gas boiler,1.0,,,,
"CZK 10,000","CZK 2,000","CZK 12,000",656234,Small studio,7/4/2022,5,G,35 m²,Partly,Very good,Prefab concrete,1.0,,1.0,,,,296.01,853.73,281.82,551.82,361.57,638.12,325.17,414.12,595.57,115.18,"Kaplická, Prague - Podolí",50.04743,14.43253,,Cooperative,,,1.0,,1.0,,,,
"CZK 8,800","CZK 1,700","CZK 10,500",718486,Studio,5/13/2022,,G,30 m²,Partly,Very good,Brick,1.0,1.0,1.0,1.0,1.0,1.0,25.48,1119.67,621.63,1479.3,485.88,1109.32,935.78,776.48,1149.97,323.58,"U Háje, Prague - Braník",50.04094,14.42202,,Personal,,,,,1.0,,,,
"CZK 13,500","CZK 1,395","CZK 29,790",698447,Studio,8/15/2022,5,C,45 m²,Unfurnished,Very good,Brick,,1.0,1.0,,,,185.78,340.6,66.76,22.91,21.38,246.81,153.49,643.7,382.12,114.7,"Dejvická, Prague - Dejvice",50.09815,14.39999,,Personal,,Complete,,,,,,,
"CZK 19,000","CZK 2,500","CZK 21,500",724331,2+kk,7/1/2022,5,C,52 m²,Unfurnished,New-build,Other,1.0,,1.0,1.0,1.0,1.0,136.05,1483.82,345.64,1465.37,811.27,355.02,1072.87,1504.86,1033.31,515.62,Prague - Hloubětín,50.10264,14.52004,Up to 10 years,Personal,,,,Central,,,,,
"CZK 17,800","CZK 2,800","CZK 22,000",622342,2+kk,9/1/2022,1,B,49 m²,,Very good,Brick,1.0,,,,,,221.69,310.92,154.97,323.61,160.75,178.87,409.62,660.6,146.18,337.47,"Osadní, Prague - Holešovice",50.106094,14.446594,,Personal,,,,,,,,,
"CZK 12,000","CZK 2,500","CZK 29,000",111504,Studio,7/1/2022,1,,26 m²,Fully furnished,Very good,Brick,,,,,1.0,,240.97,846.78,236.22,403.09,99.86,402.2,312.86,405.03,416.48,251.58,"Rybalkova, Prague - Vršovice",50.0700662,14.4478064,Up to 10 years,Personal,Standard,Complete,,Central,,,,,
"CZK 22,000","CZK 6,000","CZK 30,000",60964,4+kk,7/1/2022,2,B,92 m²,Partly,Very good,Brick,,,,,1.0,,321.19,1066.64,359.29,967.68,553.67,693.89,731.92,362.54,227.13,418.41,"Nad kapličkou , Prague - Strašnice",50.0849864223,14.4896364212,,Personal,,,1.0,Central,1.0,,,,
"CZK 16,490",CZK 0,"CZK 16,490",724286,3+kk,8/1/2022,1,G,63 m²,Partly,Very good,Brick,,,,,,,371.33,379.58,241.53,312.02,381.19,461.46,257.12,338.52,402.14,329.82,Prague - Nusle,50.0636,14.4359,,,,,,,,,,,
"CZK 41,625","CZK 13,875",,720848,4+kk,8/1/2022,4,,112 m²,Fully furnished,,,1.0,,1.0,,,,168.35,737.87,30.76,217.13,7.9,216.51,106.1,336.15,114.49,565.37,"Ostrovní, Prague - Nové Město",50.0806286,14.4175374,,,,,1.0,,,,,,
"CZK 41,850","CZK 13,950",,717609,2+kk,7/8/2022,2,,45 m²,Fully furnished,,,,,1.0,,,,110.1,273.82,156.66,129.22,76.56,142.67,300.13,496.4,282.11,367.31,"Dlážděná, Prague - Nové Město",50.0865843,14.4323212,,,,,,,,,,,
"CZK 11,000",CZK 700,"CZK 11,000",352115,1 bedroom,8/1/2022,6,,33 m²,Partly,,Brick,1.0,,,,,,139.9,769.51,14.78,107.65,118.88,135.65,438.39,466.64,412.09,224.57,"Zelenky-Hajského, Prague - Žižkov",50.0891208,14.467002,,Cooperative,,,,,,,,,
"CZK 21,900","CZK 4,500","CZK 52,000",387768,2 bedroom,7/1/2022,5,,64 m²,Partly,,Brick,,,1.0,,,,224.07,495.37,262.51,429.38,146.72,229.44,300.68,300.68,552.1,807.07,"Španělská, Prague - Vinohrady",50.0797241,14.4347705,,Personal,,Interior,,,,,,,
"CZK 34,500","CZK 11,500",,721077,2+kk,8/3/2022,6,,45 m²,Fully furnished,,,,,1.0,,,,149.44,274.13,59.7,440.76,20.27,421.03,58.77,552.06,690.27,456.83,"Francouzská, Prague - Vinohrady",50.0739894,14.440101,,,,,,,,,,,
"CZK 37,500","CZK 12,500",,719138,2+kk,7/17/2022,4,,60 m²,Fully furnished,,,,,1.0,,,,241.61,542.2,98.71,270.79,176.01,313.55,455.64,821.55,633.96,593.3,"Mečislavova, Prague - Nusle",50.0633237,14.4440058,,,,,,,,,,,
"CZK 21,000","CZK 7,000",,717697,Studio,7/15/2022,12,,25 m²,Fully furnished,,,,,1.0,,,,189.82,256.26,203.59,195.12,172.26,262.02,433.07,416.1,435.58,299.38,"Freyova, Prague - Vysočany",50.108944,14.501028,,,,,,,,,,,
"CZK 6,000","CZK 3,000","CZK 9,000",661029,Small studio,5/3/2021,3,D,20 m²,Fully furnished,Very good,Other,,,1.0,,,,137.0,232.53,164.22,167.0,281.89,551.5,244.56,363.41,312.88,352.34,"Vladivostocká, Prague - Vršovice",50.068585,14.4713735,,,Standard,,,Distance,,,,,
"CZK 16,000","CZK 3,900","CZK 30,000",633986,2+kk,7/1/2022,3,G,43 m²,Fully furnished,Very good,Brick,,,1.0,,,,248.73,517.92,177.98,409.83,52.97,388.62,89.35,255.17,74.96,226.55,"Šrobárova, Prague - Vinohrady",50.076081,14.468274,,Cooperative,,Complete,,,,,,,
"CZK 28,000","CZK 6,000","CZK 28,000",723716,5+kk,8/1/2022,3,G,91 m²,Partly,Good,Prefab concrete,1.0,,,,1.0,,129.54,648.79,352.88,745.82,235.17,809.06,356.07,206.09,457.89,99.15,Prague - Horní Měcholupy,50.0465,14.55732,Up to 10 years,Personal,Standard,Complete,,Central,,,,,
"CZK 17,500","CZK 6,000","CZK 23,500",723652,2+kk,7/1/2022,2,B,58 m²,Partly,New-build,Brick,1.0,1.0,1.0,1.0,1.0,1.0,262.65,484.16,230.56,802.92,722.65,428.82,704.38,573.08,1007.93,286.91,Prague - Stodůlky,50.04304,14.31343,Up to 10 years,,,,,Central,,,,,
"CZK 29,990",CZK 0,"CZK 60,000",722477,2+kk,7/1/2022,3,G,88 m²,Fully furnished,Very good,Brick,,1.0,,,,,55.18,233.26,29.65,96.24,7.41,183.92,185.53,258.44,151.78,202.27,Prague - Staré Město,50.09075,14.42626,Over 50 years,Personal,,Complete,,,,,,,
"CZK 15,000","CZK 5,000","CZK 30,000",724322,3+1,7/11/2022,4,G,70 m²,Partly,Good,Brick,1.0,,,,,,256.66,453.58,479.75,588.16,273.23,457.92,664.75,331.05,388.95,210.56,Prague - Žižkov,50.0897,14.49225,,,Standard,,,Central,,,,,
"CZK 20,000","CZK 1,500","CZK 40,000",724319,2 bedroom,7/11/2022,4,E,48 m²,Partly,New-build,Brick,,,1.0,1.0,,,206.91,894.37,156.72,301.81,90.51,329.97,387.7,874.58,519.76,984.3,Prague - Holešovice,50.1019,14.43618,,Personal,,,,,,,,,
"CZK 23,000","CZK 2,500","CZK 46,000",547738,3+1,8/1/2022,2,,70 m²,Partly,Very good,Brick,1.0,1.0,1.0,,,,25.28,770.44,30.0,387.35,26.57,392.89,409.51,282.6,288.16,255.73,"Koněvova, Prague - Žižkov",50.092202984839,14.481226167242,,Personal,,Complete,,Central,,,,,
"CZK 13,000","CZK 3,500","CZK 26,000",719674,2+kk,7/1/2022,1,G,46 m²,Partly,Very good,Brick,,,1.0,,,,232.42,254.11,185.2,324.23,117.95,268.47,784.91,947.31,1288.52,396.11,"Hnězdenská, Prague - Troja",50.12639,14.42051,10 to 30 years,Personal,Standard,Bathroom unit,,Central,,,,,
"CZK 13,000","CZK 4,500",CZK 0,324151,2+kk,7/1/2022,1,,60 m²,Partly,Good,Brick,,1.0,,,,,131.1,442.06,136.66,411.8,159.98,412.87,371.47,538.97,433.97,83.85,"Žerotínova, Prague - Žižkov",50.087643,14.4615366,,Personal,Standard,Complete,,,,,,,
"CZK 29,000","CZK 3,000","CZK 29,000",723967,2+kk,7/1/2022,3,G,66 m²,Unfurnished,Very good,Brick,,,1.0,,,,94.6,179.51,50.1,180.57,11.07,205.85,33.73,51.82,190.79,175.81,Prague - Staré Město,50.08966,14.42489,,Personal,Luxurious,Complete,,Central,,,,,
"CZK 10,000","CZK 3,000","CZK 13,000",596098,Studio,7/1/2022,3,C,35 m²,Fully furnished,New-build,Brick,1.0,,1.0,,1.0,1.0,418.38,830.61,512.86,1112.04,286.16,790.34,525.11,680.95,612.52,62.53,"Karla Kryla, Prague - Stodůlky",50.036197,14.3309,Up to 10 years,Personal,Standard,,,,,,,,
"CZK 16,000","CZK 3,000","CZK 25,000",723980,2+kk,7/15/2022,7,C,43 m²,Fully furnished,Very good,Prefab concrete,,1.0,1.0,,,,168.59,428.29,108.17,456.95,333.58,449.12,114.22,408.21,717.75,58.73,Prague - Stodůlky,50.044,14.33541,,Personal,,Complete,,Central,,,,,
"CZK 19,000","CZK 5,000","CZK 19,000",717539,2+kk,8/1/2022,2,G,45 m²,Partly,Very good,Brick,1.0,,,,,,58.28,683.74,198.16,113.88,94.43,171.04,326.04,219.87,359.77,392.98,"Jičínská, Prague - Žižkov",50.0817642,14.4593369,,Personal,,,,,,,,,
"CZK 18,490","CZK 3,000","CZK 21,490",724297,2+kk,7/4/2022,2,B,55 m²,Unfurnished,New-build,Brick,1.0,1.0,1.0,1.0,,,535.47,1173.85,367.14,2320.45,365.19,2017.1,796.02,1321.0,1875.6,74.55,"U Traktorky, Prague - Dolní Chabry",50.14025527777,14.4461775,,Personal,,,,,,"CZK 21,490",,,
"CZK 27,000","CZK 7,500","CZK 27,000",682305,3+1,8/1/2022,1,G,70 m²,Partly,Very good,Brick,,,1.0,,,,160.83,760.81,114.54,503.84,60.83,7.1,68.23,347.03,349.91,272.92,"Bělohorská, Prague - Břevnov",50.08447,14.37427,,Personal,Standard,Interior,,Central,,,,,
"CZK 16,482","CZK 3,200","CZK 21,082",722977,2 bedroom,6/2/2022,1,,42 m²,,Good,Other,,,,,,,281.26,662.35,291.29,585.76,345.01,350.55,436.24,430.34,851.48,128.61,"Pod Rapidem, Prague - Vinohrady",50.0742759,14.4841423,,Personal,,,,,,"CZK 2,435",,,
"CZK 26,000","CZK 4,000","CZK 26,000",724269,4+kk,6/30/2022,2,G,120 m²,Partly,Very good,Brick,,,,,,,152.79,844.08,128.63,473.17,374.92,922.92,1006.59,832.55,845.52,76.02,Prague - Suchdol,50.13461,14.372,,,,,,,,,,,
"CZK 24,990","CZK 3,750","CZK 25,000",524951,3+kk,9/1/2022,2,,86 m²,Unfurnished,,Brick,,1.0,1.0,,,,51.35,155.71,43.29,357.14,21.38,54.78,367.59,376.3,535.3,134.38,Prague - Karlín,50.093109859373,14.446467183666,,Cooperative,,,,,,,,,
"CZK 18,000","CZK 2,500","CZK 40,000",721706,Studio,7/13/2022,3,B,32 m²,Fully furnished,New-build,Brick,,1.0,1.0,1.0,,,184.77,491.18,211.44,600.21,185.71,463.81,909.61,880.1,1116.52,293.82,Prague - Uhříněves,50.02854,14.59565,Up to 10 years,Personal,Luxurious,,,Electric boiler,1.0,,,,
"CZK 15,900","CZK 5,000","CZK 24,000",694609,2+kk,7/1/2022,2,G,41 m²,Fully furnished,Very good,Brick,,,,,,,196.44,320.18,160.43,551.82,59.49,401.75,153.63,130.48,783.16,595.97,"Záhřebská, Prague - Vinohrady",50.07257,14.43893,,Personal,Standard,Complete,,,,,,,
"CZK 9,000","CZK 4,000","CZK 9,000",724267,Studio,7/8/2022,-1,G,30 m²,Partly,Good,Brick,,,,,,,355.81,1697.25,460.45,1152.64,458.05,445.4,182.91,315.25,215.54,165.6,Prague - Dejvice,50.10441,14.37787,,,,,,,,,,,
"CZK 20,000","CZK 2,000","CZK 20,000",257946,2+kk,6/29/2022,3,C,42 m²,Fully furnished,Very good,Brick,,,,,1.0,,91.53,437.84,79.6,137.33,1.11,181.86,414.36,266.21,251.67,662.32,"Lidická, Prague - Smíchov",50.0723918,14.4059555,Up to 10 years,Personal,Standard,Complete,,Other,,,,,
"CZK 6,000","CZK 1,000","CZK 10,000",723592,Other,6/25/2022,1,C,25 m²,Fully furnished,Very good,Other,,,,,1.0,,231.24,1224.16,81.26,10.74,37.15,105.4,608.75,959.18,576.79,135.87,Prague - Libeň,50.10424,14.49114,,,,,,,,,,,
"CZK 21,900","CZK 3,900","CZK 30,000",324795,3+kk,7/1/2022,4,,73 m²,Fully furnished,Very good,Prefab concrete,1.0,1.0,1.0,,1.0,1.0,383.78,917.71,600.32,556.39,610.75,611.91,346.62,688.65,483.09,215.39,"Bellušova, Prague - Stodůlky",50.0410429,14.3224894,10 to 30 years,Personal,Luxurious,Complete,,Distance,1.0,,Housing,,
"CZK 18,000","CZK 3,500","CZK 20,000",724261,2+kk,9/1/2022,3,G,38 m²,Fully furnished,Very good,Brick,,,1.0,,,,127.88,619.37,162.46,79.26,12.37,109.19,37.76,112.29,389.29,233.62,Prague - Nové Město,50.07543,14.42646,,,,,,,,,,,
"CZK 17,500","CZK 2,156","CZK 17,500",724249,2+kk,7/18/2022,2,G,52 m²,Partly,Very good,Prefab concrete,,1.0,1.0,,,,63.68,792.74,364.53,647.56,245.71,312.94,244.87,508.72,745.89,119.03,Prague - Vokovice,50.09643,14.35185,,,,,,,1.0,,,,
"CZK 18,500","CZK 5,000","CZK 23,500",685106,Studio,8/15/2022,5,B,33 m²,Fully furnished,New-build,Brick,1.0,,,,,,114.38,989.04,22.52,9.61,23.07,30.73,352.74,549.13,398.64,398.33,"Horská, Prague - Nové Město",50.06662,14.42307,,Personal,,,,,,,,,
"CZK 31,000","CZK 5,000","CZK 36,000",639703,2 bedroom,8/1/2022,1,G,76 m²,Fully furnished,Very good,Brick,,,,,1.0,,281.04,439.68,100.81,187.07,72.69,444.68,171.71,477.4,342.81,483.28,"Železná, Prague - Staré Město",50.086328,14.422386,,Personal,,,,,,,,,
"CZK 18,500","CZK 5,000","CZK 35,000",723793,3+kk,6/27/2022,2,G,67 m²,Partly,Very good,Brick,,,,,1.0,,240.15,1229.76,663.49,1151.97,207.94,897.97,1163.17,739.5,67.17,192.62,Prague - Strašnice,50.082,14.48192,,Personal,,,,,,,,,
"CZK 16,000","CZK 3,100","CZK 20,000",224571,1 bedroom,6/1/2022,5,F,45 m²,Partly,,Brick,,1.0,,,,,200.81,611.19,186.65,495.89,119.99,424.54,119.97,431.02,429.62,276.97,"Petra Rezka, Prague - Nusle",50.0622453,14.4359978,,Personal,,Complete,1.0,Central,,,,,
"CZK 33,000","CZK 5,000","CZK 38,000",724233,3+kk,7/1/2022,2,G,100 m²,Fully furnished,New-build,Other,,1.0,1.0,1.0,1.0,1.0,63.23,335.62,18.1,2211.55,77.69,646.22,259.78,484.5,1330.66,408.2,Prague - Braník,50.03935,14.41056,,,,,,,1.0,,,,
"CZK 15,000","CZK 5,800","CZK 20,000",445733,2+kk,7/15/2022,2,,60 m²,Partly,Very good,Brick,,1.0,,,1.0,,381.54,929.0,77.44,451.25,313.48,922.89,279.27,195.43,856.71,286.8,"U Družstva Život, Prague - Nusle",50.05642,14.4470012,,Personal,,,,Gas boiler,,,,,
"CZK 30,000","CZK 7,000","CZK 70,000",118686,3+kk,7/1/2022,2,D,110 m²,Fully furnished,Very good,Brick,1.0,,,,,1.0,357.8,1260.77,961.85,1327.31,647.87,1114.49,769.88,534.69,576.95,211.24,"Na Fialce II, Prague - Řepy",50.0695036,14.3174676,10 to 30 years,Personal,Luxurious,,,Gas boiler,,,,,
"CZK 19,000","CZK 2,500","CZK 19,000",478537,2+kk,8/1/2022,11,,54 m²,Partly,Very good,Prefab concrete,,,1.0,,1.0,,237.14,835.94,220.12,540.54,240.82,241.03,45.23,682.13,226.67,203.82,"Gutova, Prague - Strašnice",50.0702967,14.4929472,Up to 10 years,Personal,Luxurious,Complete,,Distance,1.0,,,,
"CZK 21,000","CZK 6,000","CZK 42,000",724165,3+1,6/29/2022,1,B,95 m²,Partly,Very good,Brick,,,,,,,220.59,1849.6,507.94,488.18,645.6,1182.62,814.47,954.51,458.99,802.82,Prague - Vokovice,50.09405,14.33334,,,,,,,,,,,
"CZK 20,000","CZK 6,000","CZK 20,000",699771,3+1,2/1/2022,2,G,97 m²,Fully furnished,Very good,Brick,,,,,,,80.17,2068.5,773.71,2037.45,873.78,1648.96,1472.38,1688.73,1055.76,1143.7,"Karlovarská, Prague - Řepy",50.07683,14.30342,,Other,,,,,,,,,
"CZK 28,000","CZK 3,500","CZK 31,500",685915,2+kk,7/4/2022,4,G,50 m²,Partly,New-build,Brick,,1.0,1.0,1.0,,,149.28,184.71,155.75,166.85,78.37,205.49,314.06,421.81,532.64,452.36,"Bořivojova, Prague - Žižkov",50.0835,14.45201,Up to 10 years,Personal,Standard,Complete,,Central,,,,,
"CZK 11,000","CZK 4,500","CZK 22,000",489072,Studio,7/1/2022,13,C,39 m²,Partly,,Prefab concrete,,,1.0,,,,295.25,1482.86,,1680.58,0.0,768.94,1030.65,1357.27,747.5,568.56,Prague - Krč,50.0295942,14.4496271,,Personal,Standard,,,,,,,,
"CZK 17,000","CZK 2,000","CZK 30,000",724187,2+kk,6/29/2022,4,G,40 m²,Partly,Very good,Brick,,1.0,,,,,47.74,334.45,370.33,445.73,183.85,87.12,586.7,665.07,1052.15,105.66,Prague - Vokovice,50.09736,14.36696,,,,,1.0,,,,,,
"CZK 17,000","CZK 2,000","CZK 30,000",724188,2+kk,7/8/2022,3,G,45 m²,Partly,Very good,Prefab concrete,,1.0,1.0,,,,186.52,423.85,343,429.49,433.33,333.44,313.13,41.58,1083.79,72.24,Prague - Stodůlky,50.05362,14.34094,,,,,,,,,,,
"CZK 11,000","CZK 2,000","CZK 13,000",425448,Small studio,1/2/2022,1,,18 m²,Fully furnished,Very good,Brick,,,,,,,96.37,1112.27,342.53,720.59,185.54,791.77,490.82,465.42,674.92,179.97,"Na Jezerce, Prague - Nusle",50.0582532,14.44353,Up to 10 years,Personal,Standard,Complete,,,,,,,
"CZK 12,000","CZK 2,000","CZK 14,000",425445,Small studio,7/1/2022,1,,22 m²,Fully furnished,Very good,Brick,,,,,,,96.37,1112.27,342.53,720.59,185.54,791.77,490.82,465.42,674.92,179.97,"Na Jezerce, Prague - Nusle",50.0582532,14.44353,Up to 10 years,Personal,,Complete,,,,,,,
"CZK 11,900","CZK 3,000","CZK 19,000",150673,Studio,8/1/2022,1,,31 m²,Fully furnished,,Brick,,,,1.0,,,340.45,773.04,133.14,754.61,457.55,879.25,251.83,2122.99,1119.22,86.45,"Tulešická, Prague - Zličín",50.0586898,14.2826339,Up to 10 years,Other,Standard,,,,,,,,
"CZK 12,500",CZK 800,"CZK 19,000",724181,1 bedroom,7/25/2022,2,G,27 m²,Partly,Very good,Brick,1.0,1.0,,,,,147.2,743.4,164.97,447.21,167.27,486.82,642.04,662.98,750.5,580.62,Prague - Nusle,50.06262,14.4464,,,,,,,,,,,
"CZK 10,000","CZK 2,500","CZK 12,000",698535,Studio,7/1/2022,2,G,30 m²,Fully furnished,Very good,Prefab concrete,,,1.0,,,,297.87,147.25,573.29,1497.54,55.44,856.83,652.11,201.35,235.95,80.18,"Bukolská, Prague - Bohnice",50.13068,14.43328,,Personal,,,,Central,,,,,
"CZK 14,500","CZK 4,500","CZK 19,000",722823,2 bedroom,8/1/2022,2,G,58 m²,Partly,Very good,Brick,,1.0,1.0,,1.0,,517.27,579.39,339.53,584.7,86.41,513.86,393.31,189.47,94.45,265.87,"Lihovarská, Prague - Libeň",50.10489775,14.48593875,,Personal,,Complete,,Central,,,,,
"CZK 24,900","CZK 3,900",CZK 0,647743,2+kk,7/7/2022,6,D,52 m²,Fully furnished,Very good,Brick,,,1.0,,1.0,,321.74,272.7,32.23,180.47,42.93,69.06,244.65,976.37,163.38,571.06,"Opletalova, Prague - Nové Město",50.0814214,14.4299039,,Personal,Luxurious,Complete,1.0,Central,,,,,
"CZK 15,700","CZK 2,500","CZK 15,700",598947,2+kk,7/15/2022,2,,43 m²,Fully furnished,Very good,Brick,,,,,,,162.44,907.01,83.45,625.66,61.33,213.35,242.19,464.72,389.43,193.21,"Drahobejlova, Prague - Libeň",50.107035,14.493065,,Cooperative,,Complete,,Gas boiler,,,,,
"CZK 15,000","CZK 3,500","CZK 30,000",724043,Studio,7/1/2022,2,B,40 m²,Partly,New-build,Other,,,1.0,1.0,1.0,1.0,164.07,1595.57,526.38,1270.11,670.42,579.01,417.83,1251.1,1107.75,499.59,Prague - Vysočany,50.10284,14.51,,,,,,,1.0,,,,
"CZK 19,000","CZK 6,000","CZK 38,000",724145,2+kk,6/29/2022,3,G,62 m²,Fully furnished,New-build,Brick,,,,,,,536.07,1280.24,562.4,949.3,326.63,606.34,381.74,756.64,1072.23,163.05,Prague - Háje,50.02419,14.52576,,,,,1.0,,,,,,
"CZK 12,500","CZK 3,300","CZK 31,600",491996,Studio,10/1/2022,1,,27 m²,Partly,,Brick,,,,,,,215.27,586.31,164.28,470.7,188.5,302.61,110.42,688.27,172.95,443.5,"Umělecká, Prague - Holešovice",50.1026409,14.4272798,,Personal,,,,Central,,,,,
"CZK 12,500","CZK 3,000","CZK 16,000",603525,Studio,6/29/2022,2,C,38 m²,Unfurnished,New-build,Brick,1.0,1.0,,,1.0,,405.82,1735.36,1054.69,1829.53,829.29,1537.37,1423.47,1689.02,1379.73,841.56,"Sicherova, Prague - Kyje",50.114749,14.56658,,Personal,,,,Central,,,,,
"CZK 13,000","CZK 3,000","CZK 16,000",642689,Studio,7/1/2022,4,C,32 m²,Unfurnished,New-build,Brick,1.0,1.0,,,,,99.21,1303.77,573.78,791.38,640.94,1382.61,793.64,1292.24,412.87,124.99,"Sídlištní, Prague - Lysolaje",50.127532,14.379521,,Personal,,,,Distance,,,,,
"CZK 17,000","CZK 4,000","CZK 20,000",593858,2+kk,7/8/2022,1,G,95 m²,Partly,Very good,Brick,1.0,,,,,,286.16,405.12,267.1,579.0,185.85,452.44,269.13,1154.98,423.97,155.98,"Zítkova, Prague - Radotín",49.981812,14.360204,,Personal,Standard,Interior,1.0,,,,,,
"CZK 20,000","CZK 2,840","CZK 20,000",712154,2+kk,7/1/2022,5,G,59 m²,Partly,Very good,Brick,,,,,,,285.09,886.87,280.34,436.5,58.12,623.71,411.25,449.15,460.6,423.63,"Krymská, Prague - Vršovice",50.07146,14.44815,,Personal,,,,,,,,,
"CZK 14,500","CZK 3,500","CZK 29,000",468358,Studio,6/30/2022,1,B,60 m²,Fully furnished,Very good,Other,1.0,,1.0,,,,204.9,251.55,125.07,364.98,282.63,259.02,847.82,736.32,692.68,223.49,"Soukalova, Prague - Modřany",50.0038161,14.4155874,Up to 10 years,Personal,Standard,,,Distance,,,,,
"CZK 13,500","CZK 3,760","CZK 20,000",683348,Studio,8/1/2022,2,C,42 m²,Partly,New-build,Low-energy,1.0,,1.0,1.0,,,274.79,810.12,422.82,622.93,137.36,665.53,568.22,316.0,355.76,133.63,"Olgy Havlové, Prague - Žižkov",50.0886644,14.484117,Up to 10 years,Personal,Luxurious,,,Distance,,,,,
"CZK 27,000","CZK 4,000","CZK 40,000",525060,3+kk,9/1/2022,2,D,79 m²,Fully furnished,New-build,Brick,,,1.0,1.0,1.0,,84.86,908.92,513.07,1195.74,466.68,604.8,530.88,804.33,860.36,299.23,"Na Popelce, Prague - Košíře",50.0685144,14.3842833,Up to 10 years,Personal,,,,Central,,,,,
"CZK 24,000","CZK 7,000","CZK 31,000",685115,2+kk,8/22/2022,4,B,50 m²,Fully furnished,New-build,Brick,,,1.0,,1.0,1.0,165.09,980.83,116.92,149.04,162.49,108.73,492.07,669.13,487.28,408.51,"Horská, Prague - Nové Město",50.06636,14.42333,,Personal,,,,,1.0,,,,
"CZK 18,000","CZK 4,000","CZK 22,000",724124,2+kk,7/15/2022,4,E,60 m²,Fully furnished,Very good,Brick,,,1.0,,1.0,,53.38,405.58,47.34,161.93,21.47,280.04,433.15,238.4,223.86,678.8,Prague - Smíchov,50.07216,14.4068,,,,,,,,,,,
"CZK 19,000","CZK 4,190","CZK 30,000",724110,2+kk,7/15/2022,3,B,59 m²,Partly,New-build,Other,1.0,1.0,1.0,,,1.0,313.43,846.63,206.55,865.05,474.66,714.61,347.91,269.19,436.37,179.88,"Waltariho, Prague - Hloubětín",50.107846350438,14.525244403462,,,,,,,,,,,
"CZK 12,500",CZK 500,"CZK 12,000",684107,2 bedroom,9/27/2021,,G,58 m²,Partly,Good,Brick,,,1.0,,,,97.36,791.59,35.58,487.51,118.26,612.58,572.44,554.66,768.17,256.29,"Na Jezerce, Prague - Nusle",50.06066,14.44766,,Personal,,,,Electric boiler,,,,,
"CZK 30,000","CZK 6,000","CZK 60,000",717896,3+kk,7/1/2022,4,G,83 m²,Partly,New-build,Brick,,,1.0,1.0,1.0,1.0,302.28,951.47,436.57,933.02,553.41,658.67,646.78,920.06,798.69,23.87,"Nademlejnská, Prague - Hloubětín",50.10181,14.52994,Up to 10 years,Personal,Luxurious,,1.0,Electric boiler,,,,,
"CZK 14,000","CZK 4,000","CZK 28,000",633291,Studio,9/1/2022,6,B,37 m²,Partly,New-build,Brick,1.0,,1.0,,,,296.63,1178.0,587.87,3787.88,277.49,564.58,922.09,3210.54,1091.67,331.3,"Honzíkova, Prague - Dolní Měcholupy",50.067054,14.552755,Up to 10 years,Personal,,,,,,,,,
"CZK 29,000","CZK 6,000","CZK 40,000",667339,3+kk,8/1/2022,2,G,73 m²,Partly,Very good,Brick,,1.0,1.0,,,,396.01,549.44,157.22,388.26,59.79,212.95,448.07,522.4,570.4,483.84,"Kubelíkova, Prague - Žižkov",50.08216,14.45073,,Personal,,,,,,,,,
"CZK 18,000","CZK 4,000","CZK 36,000",724104,Studio,6/29/2022,1,D,38 m²,Fully furnished,Very good,Brick,,,,,,,209.83,734.87,71,362.24,53.17,225.37,159.94,953.66,275.9,274.5,Prague - Karlín,50.0939,14.45688,,,,,,,,,,,
"CZK 17,000","CZK 5,000","CZK 17,000",437320,2+kk,9/1/2022,1,,54 m²,Fully furnished,New-build,Brick,1.0,1.0,1.0,1.0,1.0,1.0,507.19,1277.25,594.18,935.9,363.85,627.13,376.73,741.93,1069.24,237.55,"Loosova, Prague - Háje",50.024486493456,14.526685576196,Up to 10 years,Personal,,,,,,,,,
"CZK 22,000","CZK 6,000","CZK 44,000",724068,2 bedroom,6/28/2022,1,G,69 m²,Fully furnished,Very good,Brick,,,,,,,364.57,1186.1,274.61,1006.22,198.47,584.67,537.47,616.1,399.36,107.73,Prague - Střešovice,50.08888,14.37347,,,,,1.0,,,,,,
"CZK 6,000",CZK 1,"CZK 6,500",603260,Other,6/30/2022,1,D,120 m²,Fully furnished,Very good,Brick,,,1.0,,,,93.86,355.52,190.16,381.87,43.18,335.72,486.36,228.61,381.24,99.62,"Ronkova, Prague - Libeň",50.105767,14.476739,,Personal,,,,,,,,,
"CZK 22,000","CZK 6,000","CZK 28,000",277759,3+1,7/10/2022,,,67 m²,Partly,,Brick,,,,,,,226.8,113.17,247.94,447.22,218.41,544.64,261.78,360.15,642.37,272.33,"U Demartinky, Prague - Smíchov",50.0708952,14.3761637,,Cooperative,,,,Gas boiler,,,,,
"CZK 10,500","CZK 3,000","CZK 25,000",722126,Studio,6/29/2022,4,G,35 m²,Partly,Good,Prefab concrete,,,1.0,,,,248.61,523.82,385.1,1508.95,113.82,1014.95,694.88,976.73,616.24,124.83,Prague - Krč,50.02184,14.45347,,,,,,,1.0,,,,
"CZK 22,900","CZK 3,500","CZK 22,900",724089,3+kk,6/29/2022,2,G,72 m²,Partly,Very good,Prefab concrete,,1.0,1.0,,,,106.88,828.11,136.33,811.17,224.98,257.07,613.9,652.26,738.25,340.8,Prague - Michle,50.04287,14.45982,,,,,,,1.0,,,,
"CZK 10,000","CZK 3,500","CZK 10,000",49202,Studio,8/1/2022,7,C,23 m²,Partly,,Prefab concrete,,,1.0,,,,255.14,469.14,256.58,281.03,241.04,441.16,162.89,270.73,894.98,198.02,"Kyselova, Prague - Kobylisy",50.1269247,14.4645974,,Personal,,Complete,,,,,,,
"CZK 27,000","CZK 3,000","CZK 50,000",723884,3+kk,6/30/2022,2,B,68 m²,Fully furnished,New-build,Brick,1.0,1.0,1.0,1.0,1.0,,181.87,1408.66,55.3,979.08,153.0,539.26,274.37,720.09,348.91,137.94,Prague - Libeň,50.1132,14.47331,,,,,,,,,,,
"CZK 17,500","CZK 2,500","CZK 30,000",724067,2 bedroom,6/28/2022,4,G,50 m²,Partly,Very good,Brick,1.0,,1.0,,,,96.95,553.18,211.64,494.77,293.66,1496.89,340.74,108.67,915.18,40.36,Prague - Záběhlice,50.05001,14.48432,,,,,,,,,,,
"CZK 16,000","CZK 3,700","CZK 16,000",713312,2+kk,5/1/2022,2,B,65 m²,Partly,Very good,Brick,,,,,,,382.88,732.09,635.85,2859.89,570.67,596.02,429.85,429.85,251.5,494.81,Prague - Vinoř,50.1437811339,14.577235101644,Up to 10 years,Personal,Luxurious,Complete,,Electric boiler,,,,,
"CZK 16,500","CZK 2,800","CZK 20,000",681260,2+kk,7/1/2022,2,D,45 m²,Partly,Very good,Brick,,,,,,,283.45,1079.0,242.03,721.57,92.14,776.06,298.44,402.35,822.05,277.38,Prague - Podolí,50.04714,14.42878,,Personal,,,,Electric boiler,,,,,
"CZK 27,000","CZK 7,900","CZK 54,000",723391,3+kk,8/1/2022,1,G,88 m²,Unfurnished,Very good,Brick,,1.0,1.0,,,,375.59,111.77,112.3,401.73,23.31,218.97,42.14,863.05,40.14,553.19,Prague - Nové Město,50.08277,14.42981,,,,,,,,,,,
"CZK 9,000","CZK 11,000","CZK 30,000",370707,2 bedroom,7/1/2022,7,,60 m²,Fully furnished,,Brick,,,1.0,,,,222.73,428.11,140.39,286.97,73.11,475.74,109.6,231.18,787.01,220.12,"Amurská, Prague - Vršovice",50.0695915,14.4736856,,,,,,Central,,,,,
"CZK 20,000","CZK 5,000","CZK 20,000",491571,1 bedroom,9/1/2022,3,D,33 m²,Fully furnished,Very good,Brick,,,1.0,,,,140.45,542.55,237.77,487.34,96.72,447.63,220.9,338.34,295.84,596.42,"Jeronýmova, Prague - Žižkov",50.0862903,14.4481553,,Personal,,,,Electric boiler,,,,,
"CZK 17,500","CZK 2,500","CZK 15,000",722130,Studio,8/1/2022,3,C,39 m²,Fully furnished,Very good,Brick,,,1.0,,,,154.39,171.39,5.24,269.3,5.89,292.96,246.08,1265.83,368.36,131.71,Prague - Karlín,50.09198,14.44936,,,,,,Electric boiler,,,,,
"CZK 14,500","CZK 3,200","CZK 25,000",108844,2+kk,7/6/2022,3,,45 m²,Partly,,Brick,,,,1.0,,,176.84,1101.95,200.6,1043.54,326.68,736.91,634.46,859.96,362.32,311.58,"Záběhlická, Prague - Záběhlice",50.05346,14.48892,10 to 30 years,Personal,Standard,,,Distance,,,,,
"CZK 18,000","CZK 3,300","CZK 36,000",720065,Studio,5/27/2022,5,D,28 m²,Unfurnished,Very good,Brick,,,1.0,,,,185.24,329.01,194.37,186.19,90.06,377.21,518.65,520.95,413.15,566.37,Prague - Vinohrady,50.07794,14.43242,,,,,,,,,,,
"CZK 18,500","CZK 1,500","CZK 20,000",718211,2+kk,6/1/2022,3,B,44 m²,Partly,Very good,Brick,,,1.0,,,,200.88,390.19,174.18,334.98,112.41,295.27,41.14,350.39,39.16,535.77,"Dalimilova, Prague - Žižkov",50.08602,14.45007,10 to 30 years,Personal,Standard,Complete,,,,,,,
"CZK 26,000","CZK 4,000","CZK 60,000",724051,2+kk,7/15/2022,2,B,67 m²,Partly,New-build,Low-energy,,1.0,1.0,1.0,1.0,1.0,373.83,1098.13,908.55,1934.22,807.19,1821.86,588.6,1794.2,492.45,918.39,Prague - Hrdlořezy,50.09171,14.52037,Up to 10 years,Personal,,Complete,1.0,Central,,,,,
"CZK 27,500","CZK 7,087","CZK 35,000",662434,3+kk,8/1/2022,4,E,68 m²,Fully furnished,New-build,Brick,,,,,1.0,1.0,180.38,1139.18,834.07,1380.23,595.41,824.12,1035.0,974.6,1315.1,301.71,"Ve Studeném, Prague - Braník",50.03086,14.42046,Up to 10 years,Personal,Luxurious,Complete,,Central,1.0,,,,
"CZK 10,000","CZK 1,650","CZK 10,000",723997,2+kk,7/1/2022,10,G,45 m²,Unfurnished,Very good,Prefab concrete,,1.0,1.0,,,,106.66,360.33,195.13,367.66,407.69,363.25,686.38,346.15,770.92,341.21,Prague - Lhotka,50.0228,14.43849,,Cooperative,,,,Central,,,,,
"CZK 12,500","CZK 3,000","CZK 10,000",724028,3+kk,7/1/2022,1,G,78 m²,Unfurnished,Wrong,Other,,,,,,,112.16,608.41,104.52,72.7,59.57,62.03,137.73,273.5,78.8,383.22,Prague - Holešovice,50.09917,14.43104,,,,,,,,,,,
"CZK 25,000","CZK 3,000","CZK 25,000",723730,3+1,6/26/2022,2,G,70 m²,Fully furnished,Good,Brick,,,1.0,,,,119.72,264.42,0.52,44.61,32.33,269.28,212.74,303.96,651.77,410.91,Prague - Nové Město,50.07743,14.41925,Over 50 years,,Standard,,,Distance,,,,,
"CZK 21,990","CZK 3,251","CZK 25,241",724025,3+1,7/5/2022,5,G,76 m²,Partly,Good,Brick,1.0,,1.0,,,,159.38,993.4,143.29,196.43,179.28,303.34,90.64,577.52,517.88,687.24,"Antonínská, Prague - Holešovice",50.09932,14.43615361111,,Personal,,,,,,"CZK 25,241",,,
"CZK 16,000",CZK 700,"CZK 32,000",724016,1 bedroom,6/28/2022,2,G,50 m²,Partly,Very good,Brick,,1.0,,,,,80.24,942.02,462.59,260.57,378.99,677.81,792.61,179.3,1528.7,215.97,Prague - Horní Počernice,50.11695,14.623,,,,,,,,,,,
"CZK 33,000","CZK 5,000","CZK 45,000",688751,4+1,7/1/2022,2,C,115 m²,Partly,New-build,Other,1.0,,1.0,,1.0,1.0,213.54,743.4,213.98,766.79,497.92,675.26,347.96,342.97,1114.7,127.13,"Společná, Prague - Libeň",50.12421,14.47491,,Personal,,,,,,,,,
"CZK 16,000","CZK 3,500","CZK 32,000",723398,2 bedroom,6/28/2022,1,G,50 m²,Partly,Very good,Brick,,,,,,,487.31,1604.25,485.75,664.21,351.84,606.54,288.34,615.21,498.12,415.72,Prague - Vokovice,50.09699,14.34154,,Personal,,,,Central,1.0,,,,
"CZK 19,794","CZK 1,999","CZK 40,000",723400,2 bedroom,6/23/2022,5,B,51 m²,Partly,Good,Prefab concrete,1.0,1.0,,,,,188.31,615.08,271.45,339.14,219.24,356.91,204.57,250.96,807.36,141.63,Prague - Břevnov,50.08664,14.34307,,,,,,,,,,,
"CZK 12,500","CZK 3,500","CZK 20,000",724007,2 bedroom,8/1/2022,7,F,50 m²,Partly,Good,Prefab concrete,1.0,,1.0,,,,389.25,774.13,323.7,739.31,727.09,294.3,706.95,822.24,966.06,553.44,Prague - Stodůlky,50.05252,14.33426,,,,,,,,,,,
"CZK 13,000","CZK 3,000","CZK 26,000",609037,Studio,6/25/2022,4,A,32 m²,Partly,Very good,Brick,1.0,,,,,,89.77,347.1,119.33,1395.27,216.3,418.27,1295.24,1397.87,617.95,948.34,"Moulíkova, Prague - Smíchov",50.060313,14.410178,Up to 10 years,Personal,Standard,Complete,,Electric boiler,,,,,
"CZK 16,176","CZK 1,500","CZK 40,000",723394,2+kk,6/23/2022,2,C,50 m²,Partly,Good,Brick,1.0,1.0,,,,,71.45,802.62,424.65,591.95,96.44,447.01,690.37,567.38,1141.4,182.02,Prague - Strašnice,50.07804,14.50487,,,,,,,,,,,
"CZK 45,000","CZK 5,500","CZK 55,000",723393,4+kk,6/23/2022,1,B,119 m²,Unfurnished,New-build,Low-energy,,,,,,,127.89,797.09,181.33,729.89,400.42,538.76,170.19,1154.09,552.92,158.3,Prague - Holešovice,50.11005,14.44738,,,,,,,1.0,,,,
"CZK 16,500","CZK 2,700","CZK 17,000",395879,1 bedroom,6/28/2022,4,,55 m²,Partly,,Brick,,,,,,,414.62,447.6,104.19,396.51,39.24,649.93,283.75,526.39,985.4,328.3,"Velehradská, Prague - Vinohrady",50.0792768,14.453888,,Personal,Standard,,,Other,,,,,
"CZK 16,000","CZK 4,500","CZK 20,000",659673,3+1,8/1/2022,2,G,77 m²,Partly,Very good,Brick,,1.0,,,,,257.81,1357.38,102.59,1029.72,179.24,294.97,323.95,109.77,995.77,92.31,"Nedvězská, Prague - Strašnice",50.06685,14.49968,,Personal,Standard,Interior,,Central,,,,,
"CZK 15,500","CZK 2,400","CZK 16,000",330128,2+kk,8/31/2022,1,B,50 m²,Unfurnished,Very good,Brick,,,,,,,255.31,501.77,459.42,715.23,218.51,523.94,431.76,479.05,374.11,261.13,"Na Balkáně, Prague - Žižkov",50.095259,14.4941569,,Personal,Standard,Interior,,Electric boiler,,,,,
"CZK 17,000","CZK 4,000","CZK 21,000",238023,2+kk,6/28/2022,2,,35 m²,Fully furnished,,Brick,,,1.0,,,,51.46,118.07,81.91,92.62,0.78,79.82,159.64,283.27,261.16,311.55,"Benediktská, Prague - Staré Město",50.0902986,14.4271043,,Personal,,Complete,,Distance,,,,,
"CZK 14,000","CZK 2,500","CZK 28,000",193626,2+kk,6/28/2022,2,,44 m²,,,Brick,,,,,,,150.83,840.69,199.64,1124.5,136.37,315.33,752.31,558.47,915.95,573.5,"Nad Koulkou, Prague - Smíchov",50.0604688,14.4014771,,Personal,,,,Central,,,,,
"CZK 35,000",CZK 0,CZK 0,723978,Studio,7/4/2022,1,G,25 m²,Fully furnished,New-build,Brick,,,,,1.0,,201.33,360.24,395.68,459.97,371.82,343.98,468.56,216.38,574.45,255.18,Prague - Petrovice,50.03894,14.55581,,,,,,,,,,,
"CZK 15,000","CZK 4,000","CZK 30,000",723970,2+kk,7/15/2022,3,B,45 m²,Partly,Very good,Prefab concrete,,1.0,1.0,,1.0,,325.76,356.24,89.78,448.45,133.64,155.81,730.71,232.04,288.77,244.56,Prague - Chodov,50.02739,14.49074,,Personal,,,,,,,,,
"CZK 19,000","CZK 5,000","CZK 30,000",723901,3+kk,8/1/2022,3,C,63 m²,Partly,Very good,Prefab concrete,1.0,1.0,1.0,,1.0,,97.71,670.83,294.57,406.52,253.47,347.24,316.35,355.27,974.58,160.76,Prague - Prosek,50.11924,14.49482,,Personal,Standard,,,Central,,,,,
"CZK 17,500","CZK 3,500","CZK 35,000",518354,2+kk,5/9/2022,6,,64 m²,Partly,Very good,Brick,1.0,1.0,1.0,,,1.0,471.55,695.26,480.23,988.38,348.24,998.45,608.59,688.37,418.25,394.37,"Rudolfa Antonína Dvorského, Prague - Horní Měcholupy",50.0441344,14.5511037,10 to 30 years,Personal,Standard,,,Distance,,,,,
"CZK 17,000","CZK 3,500","CZK 17,000",55208,2+kk,9/1/2022,3,,55 m²,Fully furnished,,Brick,1.0,1.0,1.0,,,,233.5,679.9,477.03,659.28,663.97,683.95,846.58,558.99,558.81,39.63,Prague - Hostivař,50.0557254,14.5234954,,Personal,,,,,,,,,
"CZK 17,000","CZK 4,700","CZK 21,700",620235,2+kk,9/1/2022,7,C,50 m²,Partly,Very good,Prefab concrete,,1.0,1.0,,1.0,,207.12,361.24,249.6,275.41,262.43,309.87,122.75,104.52,498.42,198.68,"Lohniského, Prague - Hlubočepy",50.036552,14.377843,,Personal,,,,Distance,1.0,,,,
"CZK 12,900","CZK 2,207","CZK 23,000",145046,1 bedroom,6/28/2022,1,,40 m²,Partly,,Brick,,,,,,,139.22,1242.7,205.67,540.34,202.16,162.13,480.48,385.96,492.15,350.46,"Koulova, Prague - Dejvice",50.107998,14.3936916,,Personal,,,,,,,,,
"CZK 17,000",CZK 950,"CZK 30,000",723346,2 bedroom,7/1/2022,3,G,43 m²,Partly,Good,Brick,,,1.0,,,,45.81,900.67,266.63,345.48,140.71,326.46,704.24,178.93,508.39,480.9,Prague - Nusle,50.05428,14.43851,,,,,,,,,,,
"CZK 35,000","CZK 5,500","CZK 40,000",723928,4+kk,8/15/2022,6,G,134 m²,Unfurnished,Very good,Brick,,1.0,1.0,,,1.0,135.95,201.01,340.8,380.24,371.18,487.46,327.05,520.71,892.99,328.15,Prague - Košíře,50.06932,14.37569,,,,,1.0,,,,,,
"CZK 13,500","CZK 3,500","CZK 20,000",723915,1 bedroom,6/28/2022,2,E,38 m²,Fully furnished,Very good,Brick,,,,,,,143.93,918.06,70.87,636.72,48.74,284.46,233.75,395.0,379.56,180.62,Prague - Libeň,50.10703,14.49249,,,,,,,,,,,
"CZK 15,900","CZK 3,500","CZK 31,800",723914,Studio,6/27/2022,4,B,40 m²,Partly,New-build,Brick,1.0,,1.0,1.0,,,181.97,38.89,154.29,1515.19,133.09,946.56,1057.6,649.16,829.44,34.07,Prague - Stodůlky,50.04617,14.30339,,,,,,,,,,,
"CZK 13,500",CZK 0,"CZK 32,000",723911,2+kk,6/27/2022,1,G,35 m²,Partly,Very good,Brick,1.0,,,,,,6.8,1962.21,13.22,1876.38,26.42,1907.06,587.2,348.88,184.58,125.27,Prague - Hlubočepy,50.04094,14.39394,,,,,,,,,,,
"CZK 20,000","CZK 4,000","CZK 20,000",722868,2+kk,6/27/2022,10,G,52 m²,Fully furnished,New-build,Low-energy,,1.0,1.0,1.0,1.0,1.0,325.93,688.72,159.28,653.89,641.67,208.89,621.54,603.96,945.5,558.41,Prague - Stodůlky,50.05311,14.33451,Up to 10 years,Personal,Standard,,,,1.0,,,,
"CZK 18,500","CZK 4,500","CZK 20,000",600447,Studio,9/1/2021,4,B,31 m²,Fully furnished,Very good,Brick,,,1.0,,,,123.62,153.94,53.53,66.71,16.24,82.61,161.04,179.13,150.4,200.79,"Rybná, Prague - Staré Město",50.090283,14.426066,,Personal,,Interior,,Distance,,,,,
"CZK 18,400","CZK 1,400","CZK 18,400",723897,2+kk,7/1/2022,4,G,54 m²,Partly,Very good,Brick,,,1.0,,,,228.17,733.65,140.62,333.14,70.82,408.98,351.48,320.3,435.87,100.87,Prague - Bubeneč,50.10292,14.40153,,,,,,,,,,,
"CZK 17,500","CZK 3,500","CZK 45,000",280018,2+kk,7/1/2022,4,B,57 m²,Partly,,Other,1.0,1.0,,,1.0,,164.04,430.44,350.57,436.1,217.31,581.99,559.04,170.08,817.97,97.66,"Božecká, Prague - Malešice",50.0834585,14.5052297,10 to 30 years,Personal,Luxurious,Complete,,Distance,,,,,
"CZK 9,990",CZK 1,"CZK 13,990",598809,Studio,7/1/2022,2,C,25 m²,Fully furnished,Good,Brick,,,1.0,,,,73.23,340.5,173.32,250.41,107.45,275.78,371.66,507.63,827.46,406.19,"Dittrichova, Prague - Nové Město",50.07394,14.416005,,Personal,Standard,,,Gas boiler,,,,,
"CZK 15,500","CZK 5,500","CZK 30,000",723882,2 bedroom,8/8/2022,5,G,52 m²,Fully furnished,Very good,Prefab concrete,,,,,,,121.68,524.51,177.12,384.91,94.96,401.76,115.44,258.33,613.27,110.41,Prague - Břevnov,50.08598,14.34611,,,,,,,,,,,
"CZK 30,000","CZK 8,600","CZK 45,000",720007,4+kk,6/6/2022,2,G,120 m²,Fully furnished,Good,Prefab concrete,,,1.0,,,,,,,,,,,,,,Prague - Kobylisy,50.1321,14.47843,,,,Complete,,Central,,,,,
"CZK 13,000","CZK 4,000","CZK 17,000",588449,1 bedroom,8/1/2022,3,E,36 m²,Fully furnished,Very good,Brick,,,,,,,82.42,116.84,133.14,197.88,52.97,302.27,173.57,260.69,296.16,360.12,"Heydukova, Prague - Libeň",50.102738,14.475744,30 - 50 years,Personal,Luxurious,Interior,,Electric boiler,,,,,
"CZK 20,000","CZK 4,000","CZK 40,000",723859,2+kk,7/5/2022,3,B,55 m²,Partly,New-build,Brick,,1.0,1.0,1.0,1.0,1.0,273.62,1327.93,705.72,1309.48,978.36,1222.34,1084.39,1018.32,1026.82,495.64,Prague - Hloubětín,50.10855,14.52602,,,,,,Central,1.0,,,,
"CZK 12,000","CZK 3,000","CZK 17,000",365677,Studio,7/15/2022,3,,36 m²,Partly,,Brick,1.0,,,,,,428.26,1078.94,761.2,1119.07,411.48,1038.67,773.45,929.29,619.55,308.12,Prague - Stodůlky,50.036731,14.3283986,,Personal,,,,,,,,,
"CZK 13,000","CZK 3,800","CZK 33,600",712652,3+kk,4/2/2022,6,G,71 m²,Fully furnished,Good,Prefab concrete,,,1.0,,,,251.54,431.37,161.76,650.54,402.97,324.7,452.58,608.42,575.63,196.07,"Petýrkova, Prague - Chodov",50.02923,14.48587,,Personal,,,,,1.0,,,,
"CZK 15,990","CZK 4,812","CZK 20,802",723845,4+kk,7/4/2022,3,G,95 m²,Unfurnished,Very good,Brick,,,,,,,690.5,966.08,881.11,963.43,768.55,845.22,881.81,1225.3,1131.99,689.65,"Gabčíkova, Prague - Libeň",50.11849583333,14.45980166666,,Personal,,,,,,"CZK 20,802",,,
"CZK 29,990","CZK 6,519","CZK 36,509",723841,3+kk,7/5/2022,5,C,89 m²,Unfurnished,New-build,Brick,,1.0,1.0,1.0,1.0,,82.36,848.82,201.91,517.52,18.0,472.36,689.35,949.28,332.13,348.7,"Jankovcova, Prague - Holešovice",50.10538472222,14.45624805555,,Personal,,,,,,"CZK 36,509",,,
"CZK 16,500","CZK 4,500","CZK 25,000",444974,2+kk,7/4/2022,1,B,45 m²,Partly,,Low-energy,1.0,,,1.0,,,335.13,700.95,174.9,416.72,185.87,385.06,385.19,526.43,366.94,233.12,"U Libeňského pivovaru, Prague - Libeň",50.1078255,14.4754171,Up to 10 years,Personal,,,1.0,,,,,,
"CZK 36,000","CZK 6,000",CZK 0,528897,3+1,6/22/2022,3,,120 m²,Fully furnished,,Brick,1.0,,,,,,146.64,442.17,50.87,75.01,23.87,70.51,213.14,404.97,599.27,668.7,Prague - Vinohrady,50.0740216,14.4323776,Up to 10 years,Personal,Luxurious,Complete,,Gas boiler,,,,,
"CZK 14,500","CZK 3,500","CZK 29,000",678710,2+kk,8/1/2022,1,C,48 m²,Partly,Very good,Prefab concrete,1.0,,1.0,1.0,,,210.19,904.42,795.57,3491.91,359.37,598.28,1137.22,2914.62,868.63,99.08,"Kryšpínova, Prague - Dolní Měcholupy",50.06541,14.55227,,Personal,Standard,,,Central,,,,,
"CZK 4,000",CZK 0,CZK 0,723832,Studio,6/27/2022,1,G,10 m²,Fully furnished,Good,Brick,1.0,,,,,,231.24,1224.16,81.26,10.74,37.15,105.4,608.75,959.18,576.79,135.87,Prague - Libeň,50.10424,14.49114,,,,,,,,,,,
"CZK 12,000","CZK 2,518","CZK 12,000",611114,Studio,7/1/2022,2,D,39 m²,Partly,Very good,Prefab concrete,,,1.0,,,,233.64,379.3,328.92,309.17,288.89,375.83,443.2,610.78,1494.95,164.09,"Řešovská, Prague - Bohnice",50.129053,14.415561,30 - 50 years,Personal,Standard,Complete,,Distance,1.0,,,,
"CZK 13,900","CZK 5,100","CZK 18,000",723823,2 bedroom,6/27/2022,2,G,59 m²,Partly,Good,Brick,,1.0,,,1.0,,232.61,146.06,13.95,221.87,10.19,63.91,278.39,443.83,1225.33,285.5,Prague - Vokovice,50.09625,14.3602,,Personal,Standard,,,,,,,,
"CZK 16,000","CZK 4,000","CZK 48,000",712727,2+kk,4/4/2022,,G,50 m²,Partly,Very good,Brick,,1.0,,,,,238.26,485.62,271.09,285.4,308.65,482.73,253.77,835.29,278.63,150.92,"Podolská, Prague - Podolí",50.05563,14.42088,,Personal,Luxurious,Complete,,Gas boiler,,,,,
"CZK 25,000",CZK 560,"CZK 25,000",712211,2 bedroom,6/30/2022,6,G,58 m²,Partly,Very good,Brick,1.0,,,,,,129.45,366.07,93.44,572.45,110.37,437.43,202.82,135.34,728.88,541.68,"Záhřebská, Prague - Vinohrady",50.07286,14.43954,,Personal,,,1.0,Gas boiler,,,,,
"CZK 18,000","CZK 4,250","CZK 36,000",372292,2 bedroom,7/1/2022,2,,54 m²,Fully furnished,Very good,Prefab concrete,,1.0,,,,,116.12,48.01,106.23,118.52,132.0,280.95,119.29,459.45,712.08,173.84,Prague - Malešice,50.082399002396,14.49976269259,,Cooperative,Standard,Complete,,Distance,1.0,,,,
"CZK 16,500","CZK 1,500","CZK 18,000",723817,2+kk,8/1/2022,3,G,50 m²,Unfurnished,Very good,Brick,1.0,1.0,1.0,,,,147.74,337.52,62.09,149.9,21.37,153.45,326.66,608.86,322.9,397.57,Prague - Holešovice,50.10604,14.44953,,,,,,,,,,,
"CZK 13,000",CZK 490,"CZK 15,000",723816,Small studio,8/1/2022,2,G,30 m²,Partly,Good,Brick,,,,,,,150.49,1046.7,79.93,248.94,178.51,293.03,143.94,630.82,507.58,740.54,Prague - Holešovice,50.09981,14.43615,,,,,,,,,,,
"CZK 15,500","CZK 4,500","CZK 30,000",576765,1 bedroom,7/1/2022,1,C,41 m²,Fully furnished,,Brick,,,,,,,337.55,804.98,708.24,768.33,386.51,727.33,503.7,714.82,1277.85,312.52,"Ke Kolonii, Prague - Suchdol",50.1402088,14.3836043,,Personal,,Complete,,,,,,,
"CZK 17,000",CZK 650,"CZK 17,000",723255,2 bedroom,7/1/2022,3,G,65 m²,Unfurnished,Good,Brick,,,1.0,,,,232.96,462.76,188.12,464.13,140.84,398.67,187.9,408.03,556.12,583.57,Prague - Nové Město,50.07083,14.43181,,,,,,,,,,,
"CZK 16,900","CZK 3,100","CZK 40,000",617632,2+kk,6/25/2022,2,B,44 m²,Partly,Very good,Prefab concrete,1.0,,1.0,,,,339.5,258.78,154.1,328.9,36.49,237.37,731.05,965.96,1127.37,353.92,"Olštýnská, Prague - Troja",50.127794,14.42029,Up to 10 years,Personal,Standard,Interior,,Distance,,,,,
"CZK 15,000","CZK 4,000","CZK 20,000",644756,2 bedroom,7/1/2022,5,C,48 m²,Partly,Good,Brick,,1.0,1.0,,,,157.83,287.36,196.02,171.83,233.27,279.06,451.39,404.08,789.79,119.75,"Pod Kavalírkou, Prague - Košíře",50.069319,14.372789,,Personal,,,,,,,,,
"CZK 20,000","CZK 7,000","CZK 50,000",723593,3+kk,6/25/2022,5,G,74 m²,Unfurnished,Very good,Prefab concrete,,1.0,1.0,,,,163.83,814.57,260.8,784.91,447.71,638.79,278.57,577.63,307.23,136.14,Prague - Chodov,50.02223,14.49515,30 - 50 years,Personal,Standard,Complete,,Central,1.0,,,,
"CZK 22,500","CZK 3,000","CZK 22,500",703730,2+kk,9/1/2022,5,C,47 m²,Fully furnished,Very good,Brick,1.0,,1.0,,,,138.12,339.19,73.34,545.9,50.64,130.55,131.69,140.41,506.35,322.32,"Vítkova, Prague - Karlín",50.09182,14.44512,,Cooperative,Standard,Complete,,Central,,,,,
"CZK 10,000","CZK 4,500","CZK 20,000",445036,Studio,6/27/2022,1,,32 m²,Fully furnished,,Prefab concrete,,,,,1.0,,368.45,848.39,179.81,708.38,275.48,833.02,69.77,1935.48,944.78,104.37,"Míšovická, Prague - Zličín",50.0580695,14.2841563,,Personal,,,1.0,,,,,,
"CZK 12,000","CZK 2,500","CZK 14,500",600130,Studio,8/1/2022,1,G,30 m²,Partly,Very good,Brick,,,,,,,92.94,924.32,20.31,628.98,228.79,267.1,209.78,387.0,1003.42,307.72,"Plzeňská, Prague - Smíchov",50.072442,14.392718,,Personal,,,,Central,,,,,
"CZK 13,500","CZK 3,000","CZK 22,000",614013,Studio,7/1/2022,,B,38 m²,Fully furnished,New-build,Other,,1.0,1.0,1.0,,1.0,239.9,898.28,492.58,763.17,617.18,354.86,455.88,556.66,1256.24,365.57,"Modenská, Prague - Horní Měcholupy",50.040081,14.568147,Up to 10 years,Personal,Standard,,1.0,Central,,,,,
"CZK 24,000",CZK 0,"CZK 24,000",650731,2 bedroom,7/1/2022,2,G,82 m²,Partly,Very good,Brick,,,,,,,93.95,645.22,59.73,654.46,227.53,678.47,424.07,583.21,396.52,483.58,"Bělehradská, Prague - Vinohrady",50.068487,14.433087,,Personal,Standard,Complete,,,,,,,
"CZK 18,000","CZK 4,500","CZK 36,000",723778,2 bedroom,9/1/2022,1,G,44 m²,Fully furnished,Very good,Brick,,1.0,,,,,352.32,225.43,4.78,266.05,15.87,445.04,295.47,480.36,839.24,181.21,Prague - Vinohrady,50.0793,14.45253,,,,,,,,,,,
"CZK 21,000","CZK 3,500","CZK 21,000",723683,Studio,7/4/2022,2,A,34 m²,Fully furnished,New-build,Brick,1.0,,,,,,337.03,1072.93,226.01,998.03,650.5,486.61,572.49,449.08,1170.05,93.25,Prague - Střížkov,50.13037,14.49293,,,,,,,,,,,
"CZK 16,500","CZK 2,500","CZK 25,000",404507,2+kk,8/15/2022,3,,44 m²,Partly,Very good,Brick,1.0,1.0,1.0,,1.0,,314.12,465.35,344.55,234.05,291.91,454.65,173.32,780.57,389.91,135.89,Prague - Podolí,50.0561286,14.4214707,,Personal,Standard,Complete,,Central,,,,,
"CZK 27,000","CZK 3,000","CZK 50,000",723728,3+1,6/26/2022,2,G,96 m²,Partly,Very good,Brick,,,1.0,,,,183.56,579.67,205.79,363.03,0.23,328.98,358.25,366.97,441.23,271.5,Prague - Karlín,50.0905,14.44145,,,,Interior,,Electric boiler,,,,,
"CZK 14,000","CZK 5,000","CZK 20,000",453746,2+kk,9/1/2022,8,D,45 m²,Partly,,Prefab concrete,,1.0,1.0,,,,296.12,907.02,321.62,836.9,718.53,335.1,389.94,1155.13,1339.5,481.99,"Poznaňská, Prague - Bohnice",50.1304257,14.4196149,,Cooperative,,Complete,,Central,,,,,
"CZK 17,000","CZK 1,500","CZK 51,000",723725,2+kk,6/26/2022,2,G,43 m²,Partly,Very good,Brick,,1.0,,,,,353.72,2282.69,201.34,1954.93,154.4,616.32,910.41,1682.31,702.27,255.78,Prague - Motol,50.07134,14.34932,,,,,,,1.0,,,,
"CZK 16,000","CZK 5,500","CZK 32,000",233474,2+kk,8/1/2022,5,,55 m²,Fully furnished,New-build,Brick,1.0,,,,1.0,,202.25,403.95,250.74,171.76,212.66,44.18,709.96,823.25,357.87,360.18,"Paříkova, Prague - Vysočany",50.1114075,14.4976225,10 to 30 years,Personal,Luxurious,,,Distance,,,,,
"CZK 18,000","CZK 5,072","CZK 40,000",723721,2+kk,9/1/2022,1,B,74 m²,Fully furnished,Very good,Prefab concrete,,1.0,1.0,,1.0,,349.48,364.52,250.06,1987.32,499.5,539.27,876.98,110.23,5223.12,130.5,Prague - Zbraslav,49.96249,14.38226,,,,,,,,,,,
"CZK 17,500",CZK 800,"CZK 20,000",681824,2+kk,7/15/2022,7,C,47 m²,Partly,Very good,Prefab concrete,,1.0,1.0,,,,220.78,675.95,325.93,605.83,581.85,339.41,535.81,1038.18,1221.11,287.6,"Poznaňská, Prague - Bohnice",50.13033,14.42015,,Cooperative,,Complete,,Central,,,,,
"CZK 15,900","CZK 4,600","CZK 30,000",522570,2+kk,11/1/2021,5,C,69 m²,Fully furnished,Very good,Brick,,,1.0,,1.0,1.0,425.53,1396.11,1273.31,2477.5,217.89,569.17,570.22,1508.7,1706.48,157.29,Prague - Kunratice,50.0200237,14.4672917,10 to 30 years,Personal,Standard,,1.0,,,,,,
"CZK 12,000","CZK 2,000","CZK 14,000",646647,4+kk,7/15/2022,1,A,110 m²,Fully furnished,Very good,Brick,,,1.0,,1.0,,165.35,665.8,304.25,740.99,4.07,348.91,227.03,218.3,676.14,215.81,"Pernerova, Prague - Karlín",50.089378,14.445046,,Personal,,,,,,,,,
"CZK 13,300","CZK 5,700","CZK 13,300",723155,3+kk,7/1/2022,2,G,69 m²,Partly,Very good,Prefab concrete,1.0,1.0,,,1.0,,205.87,1409.2,256.16,1697.13,703.15,603.18,435.81,963.95,1741.3,76.35,Prague - Chodov,50.02146,14.51559,,,Standard,Complete,,Central,,,,,
"CZK 15,000","CZK 2,900","CZK 30,000",455359,2+kk,7/1/2022,2,,42 m²,Partly,Very good,Brick,,1.0,,,,,114.58,100.62,89.25,192.46,60.05,410.42,262.0,448.8,290.13,282.82,"Černokostelecká, Prague - Strašnice",50.07625241756,14.491567588824,,Personal,Standard,Complete,,Electric boiler,,,,,
"CZK 24,000",CZK 0,"CZK 24,000",566669,3+1,6/27/2022,3,,72 m²,Fully furnished,,Brick,,,,,,,201.02,572.05,150.02,456.45,174.24,288.36,99.93,674.01,158.69,457.76,"Umělecká, Prague - Holešovice",50.1025207,14.4273498,,Personal,,Complete,,,,,,,
"CZK 15,200","CZK 3,210","CZK 23,000",670902,2+kk,9/1/2022,11,G,50 m²,Partly,Very good,Prefab concrete,,1.0,1.0,,1.0,1.0,90.25,545.43,459.33,475.3,469.7,472.84,519.51,1015.48,1312.42,157.08,"Poznaňská, Prague - Bohnice",50.13047,14.4184,30 - 50 years,Cooperative,Standard,Complete,,Central,,,,,
"CZK 15,000","CZK 3,500","CZK 20,000",723059,2+kk,6/21/2022,11,,44 m²,Partly,Very good,Prefab concrete,,,1.0,,,,350.05,505.94,363.77,910.5,760.35,829.25,526.91,608.99,575.92,44.36,Prague - Horní Měcholupy,50.04313,14.55293,,Personal,Standard,Complete,,Central,,,,,
