Price,Fees,Listing ID,Layout,Avaliable from,Floor space,Fully furnished,Floor,Lift,public_transport,post,shop,bank,restaurant,pharmacy,school,kindergarten,sports_field,playground,District,Latitude,Longitude,Refundable security deposit,EPC,Condition,Building type,Domácí mazlíčci vítáni,Parking,Balkón 8 m²,Sklep 4 m²,Garage,Sklep 6 m²,Terasa 13 m²,Age,Designe,Ownership,Heating,Balkón 5 m²,Sklep 2 m²,Balkón 8.73 m²,Terasa 2.67 m²,Reconstruction,Lodžie 6 m²,Balkón 7 m²,Sklep 3 m²,Cellar,Balkón 2 m²,Sklep 8 m²,Balkón 4 m²,Lodžie 4 m²,Balcony,Terrace,Sklep 28 m²,Lodžie 15 m²,Sklep 5 m²,Balkón 18 m²,Sklep 3.2 m²,New-build,Balkón 30 m²,Lodžie 5 m²,Lodžie 7 m²,Balkón 6 m²,Terasa 18 m²,Terasa 200 m²,Sklep 15 m²,Terasa 350 m²,Enclosed balcony,Balkón 3 m²,Balkón 40 m²,Terasa 50 m²,Lodžie 3 m²,Sklep 12 m²,Terasa 5 m²,Sklep 10 m²,Balkón 10 m²,Terasa 15 m²,Balkón 11 m²,Balkón 28 m²,Balkón 32 m²,Terasa 32 m²,Administrative fee,Lodžie 8 m²,Lodžie 10 m²,Terasa 20 m²,Balkón 2.29 m²,Terasa 12 m²,Terasa 16.1 m²,Sklep 3.1 m²,Balkón 6.1 m²,Sklep 3.7 m²,Terasa 11 m²,Terasa 8 m²,Terasa 6 m²,Lodžie 9 m²,Terasa 14 m²,Terasa 25 m²,Balkón 15 m²,Terasa 10 m²,Sklep 1 m²,Balkón 13 m²,Sklep 7 m²,Balkón 33 m²,Terasa 29 m²,Balkón 9 m²,Sklep 1.5 m²,Terasa 30 m²,Terasa 7 m²,Terasa 45 m²,Sklep 4.1 m²,Terasa 10.1 m²,Terasa 83 m²,Sklep 6.4 m²,Balkón 96 m²,Terasa 27.6 m²,Balkón 1 m²,Sklep 1.2 m²,Lodžie 2.7 m²,Lodžie 13 m²,Terasa 19 m²,Balkón 12 m²,Sklep 20 m²,Balkón 16 m²,Terasa 14.1 m²,Terasa 9 m²,Sklep 14 m²,Terasa 40 m²,Balkón 35 m²,Balkón 70 m²,Plot space,Lodžie 12 m²
"CZK 34,898","CZK 11,632",744188,2 bedroom,12/5/2022,90 m²,Fully furnished,4,1.0,82.8,397.93,96.94,404.98,135.48,353.78,131.46,217.55,654.74,661.34,"Blanická, Prague - Vinohrady",50.0746503,14.439294,,,,,,,,,,,,,,,,,,,,,,,,,,,,,,,,,,,,,,,,,,,,,,,,,,,,,,,,,,,,,,,,,,,,,,,,,,,,,,,,,,,,,,,,,,,,,,,,,,,,,,,,,,,,
"CZK 13,500","CZK 3,500",746821,1 bedroom,11/1/2022,40 m²,Fully furnished,1,,211.98,904.35,517.72,607.83,309.37,590.15,205.35,354.45,856.68,392.14,"Plojharova, Prague - Břevnov",50.08525,14.34071,"CZK 15,000",G,Very good,Brick,1.0,,,,,,,,,,,,,,,,,,,,,,,,,,,,,,,,,,,,,,,,,,,,,,,,,,,,,,,,,,,,,,,,,,,,,,,,,,,,,,,,,,,,,,,,,,,,,,,,,,,,,,,
"CZK 23,409","CZK 2,773",746820,3+1,12/1/2022,120 m²,Partly,2,,25.93,360.7,46.42,232.32,33.36,105.06,92.01,74.31,586.34,180.97,"Korunní, Prague - Vinohrady",50.07554,14.45409,CZK 0,G,Good,Brick,1.0,1.0,,,,,,,,,,,,,,,,,,,,,,,,,,,,,,,,,,,,,,,,,,,,,,,,,,,,,,,,,,,,,,,,,,,,,,,,,,,,,,,,,,,,,,,,,,,,,,,,,,,,,,
"CZK 22,000","CZK 4,500",746819,2+kk,10/21/2022,58 m²,Partly,3,1.0,390.93,1570.82,406.41,1186.15,215.85,1225.93,1113.04,253.04,659.99,51.21,Prague - Liboc,50.0903,14.32979,"CZK 26,500",G,Very good,Brick,,,1.0,1.0,1.0,,,,,,,,,,,,,,,,,,,,,,,,,,,,,,,,,,,,,,,,,,,,,,,,,,,,,,,,,,,,,,,,,,,,,,,,,,,,,,,,,,,,,,,,,,,,,,,,,,,
"CZK 12,900","CZK 5,000",746818,Studio,10/21/2022,31 m²,Unfurnished,5,1.0,66.61,815.62,72.03,75.6,24.4,155.26,79.47,1143.26,152.54,432.32,"Milady Horákové, Prague - Hradčany",50.0968,14.40351,"CZK 17,900",G,Very good,Brick,,,,,,1.0,,,,,,,,,,,,,,,,,,,,,,,,,,,,,,,,,,,,,,,,,,,,,,,,,,,,,,,,,,,,,,,,,,,,,,,,,,,,,,,,,,,,,,,,,,,,,,,,,,
"CZK 18,000","CZK 3,600",746813,2+kk,11/7/2022,53 m²,Unfurnished,-1,,206.94,2649.13,361.37,2321.37,427.18,180.14,1285.21,1635.43,1068.71,370.63,"V Úvalu, Prague - Motol",50.07128,14.34237,"CZK 21,600",G,New-build,Brick,,,,,,,1.0,,,,,,,,,,,,,,,,,,,,,,,,,,,,,,,,,,,,,,,,,,,,,,,,,,,,,,,,,,,,,,,,,,,,,,,,,,,,,,,,,,,,,,,,,,,,,,,,,
"CZK 15,000","CZK 3,500",361523,Studio,11/1/2022,35 m²,Fully furnished,2,,388.02,404.88,571.57,815.81,299.64,347.85,460.74,749.65,718.28,149.67,"Stará náves, Prague - Letňany",50.1390794,14.5127743,"CZK 18,500",C,Very good,Brick,1.0,1.0,,,,,,10 to 30 years,Standard,Cooperative,Central,1.0,,,,,,,,,,,,,,,,,,,,,,,,,,,,,,,,,,,,,,,,,,,,,,,,,,,,,,,,,,,,,,,,,,,,,,,,,,,,,,,,,,,,,,,,,,,,
"CZK 24,000","CZK 5,500",741020,3+kk,11/7/2022,79 m²,Fully furnished,11,1.0,54.97,451.33,198.06,374.39,84.03,401.57,422.66,227.9,685.27,218.91,Prague - Řepy,50.0654,14.30412,"CZK 40,000",B,Very good,Prefab concrete,,,,,,,,,,,Central,1.0,,,,,,,,,,,,,,,,,,,,,,,,,,,,,,,,,,,,,,,,,,,,,,,,,,,,,,,,,,,,,,,,,,,,,,,,,,,,,,,,,,,,,,,,,,,,
"CZK 10,000","CZK 4,000",746810,1 bedroom,10/20/2022,29 m²,Partly,6,1.0,480.76,1020.74,223.21,997.69,195.69,1026.76,288.22,527.42,375.38,329.8,"Angelovova, Prague - Modřany",50.00926,14.42769,"CZK 10,000",D,Good,Prefab concrete,1.0,,,,,,,,,,,,1.0,,,,,,,,,,,,,,,,,,,,,,,,,,,,,,,,,,,,,,,,,,,,,,,,,,,,,,,,,,,,,,,,,,,,,,,,,,,,,,,,,,,,,,,,,,,
"CZK 20,000","CZK 4,500",746809,2+kk,12/1/2022,54 m²,Fully furnished,3,1.0,99.36,1640.29,405.59,1501.44,102.98,824.47,929.13,1322.85,904.93,725.99,"Višňová, Prague - Krč",50.03177,14.44756,"CZK 20,000",B,Very good,Prefab concrete,,,,,1.0,,,,,,,,,1.0,1.0,,,,,,,,,,,,,,,,,,,,,,,,,,,,,,,,,,,,,,,,,,,,,,,,,,,,,,,,,,,,,,,,,,,,,,,,,,,,,,,,,,,,,,,,,
"CZK 16,000","CZK 2,458",652949,2+kk,11/1/2022,45 m²,Fully furnished,3,1.0,178.81,464.01,193.94,813.21,103.8,774.54,156.97,202.9,813.18,576.81,"Ohradní, Prague - Michle",50.05227,14.451992,"CZK 20,000",B,Very good,Prefab concrete,,1.0,,,,,,10 to 30 years,Standard,Cooperative,Central,,1.0,,,Complete,1.0,,,,,,,,,,,,,,,,,,,,,,,,,,,,,,,,,,,,,,,,,,,,,,,,,,,,,,,,,,,,,,,,,,,,,,,,,,,,,,,,,,,,,,,
"CZK 14,500","CZK 4,500",727309,2+kk,11/1/2022,52 m²,Fully furnished,3,,146.32,492.64,134.39,82.54,43.23,127.07,359.57,296.35,259.87,607.53,Prague - Smíchov,50.07226,14.40521,"CZK 18,000",A,Very good,Brick,,,,,,,,,,,,,,,,,,,,,,,,,,,,,,,,,,,,,,,,,,,,,,,,,,,,,,,,,,,,,,,,,,,,,,,,,,,,,,,,,,,,,,,,,,,,,,,,,,,,,,,,
"CZK 8,000","CZK 4,000",544787,Small studio,9/1/2022,19 m²,Fully furnished,,,96.72,989.4,234.88,512.51,13.45,358.12,365.95,354.86,328.29,225.86,"Rašínovo nábřeží, Prague - Nové Město",50.0688474,14.415003,"CZK 12,000",,Very good,Brick,,,,,,,,,Standard,Personal,Central,,,,,,,,,,,,,,,,,,,,,,,,,,,,,,,,,,,,,,,,,,,,,,,,,,,,,,,,,,,,,,,,,,,,,,,,,,,,,,,,,,,,,,,,,,,,,
"CZK 10,000","CZK 4,000",383815,Studio,10/22/2022,25 m²,Fully furnished,3,,145.18,491.5,133.25,83.68,44.36,128.21,360.71,297.49,261.01,608.67,Prague - Smíchov,50.0723115,14.405214,"CZK 14,000",,,Brick,,,,,,,,,,Cooperative,,,,,,,,,,,,,,,,,,,,,,,,,,,,,,,,,,,,,,,,,,,,,,,,,,,,,,,,,,,,,,,,,,,,,,,,,,,,,,,,,,,,,,,,,,,,,,
"CZK 24,500","CZK 1,000",519199,3+1,12/1/2022,72 m²,Partly,3,,469.62,859.49,343.37,675.71,529.46,586.75,556.72,670.25,425.91,503.52,"Dubrovnická, Prague - Košíře",50.0668055,14.368008,"CZK 20,000",C,Very good,Prefab concrete,,,,,,,,10 to 30 years,,Personal,,,1.0,,,,,1.0,,,,,,,,,,,,,,,,,,,,,,,,,,,,,,,,,,,,,,,,,,,,,,,,,,,,,,,,,,,,,,,,,,,,,,,,,,,,,,,,,,,,,,
"CZK 16,000","CZK 4,000",745269,2 bedroom,10/15/2022,56 m²,Partly,1,,653.73,1070.08,688.33,1269.11,813.32,833.38,1014.74,1014.74,468.95,523.0,"U Trati, Prague - Strašnice",50.06606,14.48228,"CZK 16,000",G,Very good,Brick,,1.0,,,,,,,,,,,,,,,,,1.0,,,,,,,,,,,,,,,,,,,,,,,,,,,,,,,,,,,,,,,,,,,,,,,,,,,,,,,,,,,,,,,,,,,,,,,,,,,,,,,,,,,,,
"CZK 21,200","CZK 4,800",657252,2+kk,11/1/2022,50 m²,Fully furnished,4,1.0,133.15,481.82,43.42,82.77,46.47,54.1,409.65,568.09,3.58,537.27,"Křižíkova, Prague - Karlín",50.09258,14.45368,"CZK 26,000",G,Very good,Brick,,,,,,,,,,Cooperative,,,,,,,,,,1.0,,,,,,,,,,,,,,,,,,,,,,,,,,,,,,,,,,,,,,,,,,,,,,,,,,,,,,,,,,,,,,,,,,,,,,,,,,,,,,,,,,,,
"CZK 19,000","CZK 4,000",444945,3+kk,10/20/2022,69 m²,Partly,4,1.0,246.03,951.99,348.55,359.89,312.02,454.72,162.95,156.77,309.5,96.78,"Přímětická, Prague - Nusle",50.05182,14.43587,"CZK 38,000",C,Very good,Prefab concrete,,,,,,,,,,Personal,Central,,,,,,,,,,,,,,,,,,,,,,,,,,,,,,,,,,,,,,,,,,,,,,,,,,,,,,,,,,,,,,,,,,,,,,,,,,,,,,,,,,,,,,,,,,,,,
"CZK 34,000","CZK 5,000",746600,4+kk,10/19/2022,100 m²,Partly,2,,275.89,1282.8,590.99,856.41,340.16,1093.65,1324.24,713.05,979.29,383.88,Prague - Krč,50.03784,14.43102,"CZK 50,000",G,Very good,Prefab concrete,,1.0,1.0,1.0,1.0,,,,,,,,,,,,,,,,,,,,,,,,,,,,,,,,,,,,,,,,,,,,,,,,,,,,,,,,,,,,,,,,,,,,,,,,,,,,,,,,,,,,,,,,,,,,,,,,,,,
"CZK 17,250","CZK 5,750",744960,3+1,11/7/2022,90 m²,Fully furnished,5,1.0,82.8,397.93,96.94,404.98,135.48,353.78,131.46,217.55,654.74,661.34,"Blanická, Prague - Vinohrady",50.0746503,14.439294,,,,,,,,,,,,,,,,,,,,,,,,,,,,,,,,,,,,,,,,,,,,,,,,,,,,,,,,,,,,,,,,,,,,,,,,,,,,,,,,,,,,,,,,,,,,,,,,,,,,,,,,,,,,
"CZK 15,000","CZK 3,000",673665,2 bedroom,7/26/2021,54 m²,Unfurnished,2,1.0,216.94,318.35,141.37,299.9,384.48,148.73,210.08,156.02,563.75,160.82,"Mochovská, Prague - Hloubětín",50.10756,14.53865,"CZK 15,000",E,Very good,Brick,,,,,,,,,,Personal,,,1.0,,,,,,,,1.0,,,,,,,,,,,,,,,,,,,,,,,,,,,,,,,,,,,,,,,,,,,,,,,,,,,,,,,,,,,,,,,,,,,,,,,,,,,,,,,,,,,
"CZK 13,500","CZK 2,700",337645,Studio,11/1/2022,37 m²,Fully furnished,6,1.0,101.21,885.61,406.61,1205.48,272.17,307.81,299.96,820.36,115.79,300.55,"Na Slatince, Prague - Záběhlice",50.055986,14.4925778,"CZK 20,000",B,New-build,Brick,,,,,,,,10 to 30 years,Standard,Personal,Central,,,,,,,1.0,,,,,,,,,,,,,,,,,,,,,,,,,,,,,,,,,,,,,,,,,,,,,,,,,,,,,,,,,,,,,,,,,,,,,,,,,,,,,,,,,,,,,,
"CZK 18,000","CZK 3,800",744477,2 bedroom,10/17/2022,52 m²,Partly,3,,150.91,235.66,180.98,701.01,214.42,699.76,576.83,524.49,260.3,130.46,Prague - Záběhlice,50.05659,14.50407,"CZK 40,000",G,Very good,Brick,,,,,,,,,,,Distance,,1.0,,,Complete,,,,,,,,,,,,,,,,,,,,,,,,,,,,,,,,,,,,,,,,,,,,,,,,,,,,,,,,,,,,,,,,,,,,,,,,,,,,,,,,,,,,,,,,
"CZK 37,500","CZK 12,500",740295,2+kk,11/11/2022,60 m²,Fully furnished,4,1.0,239.73,541.75,45.52,270.79,35.61,285.18,465.63,625.46,639.52,581.38,"Mečislavova, Prague - Nusle",50.0633237,14.4440058,,,,,,,,,,,,,,,,,,,,,,,,,,,,,,,,,,,,,,,,,,,,,,,,,,,,,,,,,,,,,,,,,,,,,,,,,,,,,,,,,,,,,,,,,,,,,,,,,,,,,,,,,,,,
"CZK 24,000","CZK 6,500",746479,3+kk,12/1/2022,73 m²,Partly,4,,256.25,302.28,132.74,231.78,152.21,43.09,312.87,682.56,172.26,459.44,"Malířská, Prague - Bubeneč",50.10119,14.42554,"CZK 36,000",E,Very good,Brick,1.0,,,,,,,,,,,,,,,,,,,,,1.0,,,,,,,,,,,,,,,,,,,,,,,,,,,,,,,,,,,,,,,,,,,,,,,,,,,,,,,,,,,,,,,,,,,,,,,,,,,,,,,,,,
"CZK 11,300","CZK 4,500",510540,2+kk,10/20/2022,36 m²,Fully furnished,8,,276.91,570.87,261.21,576.51,480.32,251.65,399.4,198.94,1174.18,166.0,"Běhounkova, Prague - Stodůlky",50.0539099,14.3425225,"CZK 15,800",,,Prefab concrete,,,,,,1.0,,,,Personal,,,,,,,,,,,,,,,,,,,,,,,,,,,,,,,,,,,,,,,,,,,,,,,,,,,,,,,,,,,,,,,,,,,,,,,,,,,,,,,,,,,,,,,,,,,,,,
"CZK 22,000","CZK 4,741",650428,3+kk,10/24/2022,73 m²,Fully furnished,4,1.0,459.45,1210.88,205.64,1051.69,459.17,439.06,593.97,379.68,323.48,364.93,Prague - Troja,50.124588,14.439661,"CZK 22,000",G,Very good,Prefab concrete,,,,,,,,,,Personal,,,1.0,,,,,,,,,,1.0,1.0,,,,,,,,,,,,,,,,,,,,,,,,,,,,,,,,,,,,,,,,,,,,,,,,,,,,,,,,,,,,,,,,,,,,,,,,,,,,,,,,
"CZK 19,990","CZK 2,990",731636,2+kk,10/24/2022,45 m²,Partly,2,,390.75,265.34,171.22,306.49,105.7,468.21,315.9,391.17,719.11,219.65,Prague - Vinohrady,50.07997,14.45165,"CZK 25,000",,Very good,Brick,,,,,,,,,,Personal,Central,,,,,,,,,,,,,,,,,,,,,,,,,,,,,,,,,,,,,,,,,,,,,,,,,,,,,,,,,,,,,,,,,,,,,,,,,,,,,,,,,,,,,,,,,,,,,
"CZK 13,000","CZK 4,000",743306,Small studio,10/1/2022,25 m²,Partly,5,1.0,111.04,459.71,21.31,60.66,24.36,76.21,431.77,545.98,0.31,550.11,Prague - Karlín,50.09251,14.45339,"CZK 17,000",G,Very good,Brick,,,,,,,,,,,,,,,,,,,,,,,,,,,,,,,,,,,,,,,,,,,,,,,,,,,,,,,,,,,,,,,,,,,,,,,,,,,,,,,,,,,,,,,,,,,,,,,,,,,,,,,,
"CZK 28,000","CZK 5,000",746764,3+kk,12/1/2022,70 m²,Fully furnished,2,1.0,165.66,665.46,303.91,741.3,4.41,348.57,226.69,217.96,676.45,216.12,Prague - Karlín,50.08938,14.44505,"CZK 33,000",A,Very good,Brick,,,,,,,,,,,,,,,,,,,,,,,,,,,,,,,,,,,,,,,,,,,,,,,,,,,,,,,,,,,,,,,,,,,,,,,,,,,,,,,,,,,,,,,,,,,,,,,,,,,,,,,,
"CZK 21,375","CZK 7,125",734261,3+1,11/7/2022,35 m²,Fully furnished,-1,1.0,36.05,792.81,20.0,597.08,172.08,638.36,366.32,329.81,486.26,346.96,"Dvacátého osmého pluku, Prague - Vršovice",50.0707338,14.4627954,,,,,,,,,,,,,,,,,,,,,,,,,,,,,1.0,1.0,,,,,,,,,,,,,,,,,,,,,,,,,,,,,,,,,,,,,,,,,,,,,,,,,,,,,,,,,,,,,,,,,,,,,,,,,,,,,,
"CZK 14,500","CZK 6,000",745257,2 bedroom,10/15/2022,53 m²,Partly,1,,374.35,1437.32,503.95,1109.66,196.98,491.28,261.81,309.7,329.69,271.13,"Královická, Prague - Strašnice",50.06506,14.51036,"CZK 29,000",G,Very good,Brick,,,,,,,,,,,,1.0,,,,,,,,,,,,,,,,,,,,,,,,,,,,,,,,,,,,,,,,,,,,,,,,,,,,,,,,,,,,,,,,,,,,,,,,,,,,,,,,,,,,,,,,,,,,
"CZK 16,500","CZK 1,500",641855,2+kk,12/1/2022,51 m²,Unfurnished,5,1.0,70.22,159.98,85.68,31.82,96.79,66.07,337.6,635.58,408.15,502.47,"Ovenecká, Prague - Holešovice",50.099605,14.424394,"CZK 33,000",D,Very good,Brick,,,,,,,,Up to 10 years,Standard,Personal,,,,,,Complete,,,,1.0,1.0,,,,,,,,,,,,,,,,,,,,,,,,,,,,,,,,,,,,,,,,,,,,,,,,,,,,,,,,,,,,,,,,,,,,,,,,,,,,,,,,,,,
"CZK 12,000","CZK 4,000",745255,1 bedroom,10/15/2022,45 m²,Partly,2,,136.44,1065.98,296.3,310.66,289.99,303.57,603.89,77.7,559.57,42.09,"Kettnerova, Prague - Stodůlky",50.04719,14.32164,"CZK 20,000",B,Good,Prefab concrete,1.0,1.0,,,,,,,,,,,1.0,,,,,,,,,,,,,,,,,,,,,,,,,,,,,,,,,,,,,,,,,,,,,,,,,,,,,,,,,,,,,,,,,,,,,,,,,,,,,,,,,,,,,,,,,,,
"CZK 27,000","CZK 9,000",732124,1 bedroom,11/1/2022,36 m²,Fully furnished,1,,241.61,1008.07,337.84,676.78,180.71,627.3,876.02,1008.48,488.31,192.83,"Sanderova, Prague - Holešovice",50.104936,14.458846,,,,,,,,,,,,,,,,,,,,,,,,,,,,,1.0,1.0,,,,,,,,,,,,,,,,,,,,,,,,,,,,,,,,,,,,,,,,,,,,,,,,,,,,,,,,,,,,,,,,,,,,,,,,,,,,,,
"CZK 13,000","CZK 4,000",127221,Small studio,10/20/2022,30 m²,Partly,2,1.0,305.29,465.59,70.26,318.95,193.37,417.68,166.25,425.78,753.15,101.85,"Jagellonská, Prague - Žižkov",50.08,14.45573,"CZK 17,000",,,Brick,,,,,,,,,,,,,,,,,,,,,,,,,,,1.0,,,,,,,,,,,,,,,,,,,,,,,,,,,,,,,,,,,,,,,,,,,,,,,,,,,,,,,,,,,,,,,,,,,,,,,,,,,,,
"CZK 12,900","CZK 2,900",639046,Studio,10/20/2022,18 m²,Partly,2,,362.81,259.2,126.77,286.13,118.18,279.99,159.44,215.84,295.88,466.72,"Vlkova, Prague - Žižkov",50.083992,14.448523,"CZK 15,000",A,Very good,Brick,,,,,,,,Up to 10 years,Luxurious,Personal,Central,,,,,Complete,,,,,,,,,,,,,,,,,,,,,,,,,,,,,,,,,,,,,,,,,,,,,,,,,,,,,,,,,,,,,,,,,,,,,,,,,,,,,,,,,,,,,,,,
"CZK 16,000","CZK 5,000",746728,3+1,11/3/2022,72 m²,Partly,,,43.81,694.63,67.68,155.87,0.0,96.76,258.85,836.83,26.95,365.39,"Dejvická, Prague - Dejvice",50.0981,14.40469,"CZK 20,000",G,Good,Brick,1.0,,,,,,,,,,,,,,,,,,,,,,,,,,,,,,,,,,,,,,,,,,,,,,,,,,,,,,,,,,,,,,,,,,,,,,,,,,,,,,,,,,,,,,,,,,,,,,,,,,,,,,,
"CZK 20,000","CZK 7,500",746740,4+1,11/1/2022,75 m²,Partly,1,1.0,369.67,172.71,197.4,262.15,272.43,589.16,362.04,156.57,1299.88,153.36,"Mimoňská, Prague - Prosek",50.12399,14.49938,"CZK 30,000",C,Very good,Prefab concrete,,1.0,,,,,,,,,,,,,,,,,,,,,,,,,,1.0,,,,,,,,,,,,,,,,,,,,,,,,,,,,,,,,,,,,,,,,,,,,,,,,,,,,,,,,,,,,,,,,,,,,,,,,,,,,
"CZK 27,990",CZK 600,745241,3+kk,10/15/2022,76 m²,Partly,4,,335.24,381.26,96.98,310.76,230.33,229.72,245.91,762.53,136.02,332.04,"Malířská, Prague - Bubeneč",50.10195,14.42523,"CZK 27,990",C,Very good,Brick,,,,,,,,,,,,,,,,,,,,,,,,,,,,,,,,,,,,,,,,,,,,,,,,,,,,,,,,,,,,,,,,,,,,,,,,,,,,,,,,,,,,,,,,,,,,,,,,,,,,,,,,
"CZK 13,500","CZK 1,100",746737,2+kk,10/20/2022,51 m²,Partly,1,,183.43,878.51,301.45,880.86,170.59,759.25,489.64,732.44,861.23,440.43,"Vnější, Prague - Michle",50.05166,14.45912,"CZK 14,999",G,Good,Brick,,,,,,,,,,,,,,,,,,,,,,,,,,,,,1.0,,,,,,,,,,,,,,,,,,,,,,,,,,,,,,,,,,,,,,,,,,,,,,,,,,,,,,,,,,,,,,,,,,,,,,,,,,,
"CZK 20,000","CZK 4,000",729802,2 bedroom,11/1/2022,36 m²,Fully furnished,3,,354.21,737.34,455.75,355.35,376.01,575.19,1043.45,328.66,1016.27,67.61,Prague - Střešovice,50.09684,14.38976,"CZK 20,000",B,Good,Brick,,1.0,,,,,,,Standard,,Central,,,,,Exterior,,,,,,,,,,,,,,,,,,,,,,,,,,,,,,,,,,,,,,,,,,,,,,,,,,,,,,,,,,,,,,,,,,,,,,,,,,,,,,,,,,,,,,,,
"CZK 20,000","CZK 5,000",745240,3+1,11/1/2022,70 m²,Unfurnished,1,1.0,149.83,844.68,139.84,622.57,176.91,228.25,446.42,786.81,356.08,259.58,"Na Hroudě, Prague - Strašnice",50.0707,14.4871,"CZK 40,000",G,Good,Brick,,1.0,,,,,,,,,,,,,,,,,1.0,,,,,,,,,,,,,,,,,,,,,,,,,,,,,,,,,,,,,,,,,,,,,,,,,,,,,,,,,,,,,,,,,,,,,,,,,,,,,,,,,,,,,
"CZK 16,000","CZK 5,000",744613,2+kk,11/1/2022,45 m²,Fully furnished,3,,426.62,893.56,186.34,488.2,428.94,967.96,324.34,238.03,901.79,323.74,"Družnosti, Prague - Nusle",50.05583,14.4469,"CZK 30,000",C,Very good,Brick,,,,,,,,,,,,,,,,,,,,,,,,,,,,,,,,,,,,,,,,,,,,,,,,,,,,,,,,,,,,,,,,,,,,,,,,,,,,,,,,,,,,,,,,,,,,,,,,,,,,,,,,
"CZK 23,000","CZK 4,850",746731,3+kk,10/20/2022,83 m²,Partly,2,1.0,249.49,1322.58,278.37,1330.93,830.67,1275.41,847.6,1350.8,993.37,25.05,"Václava Trojana, Prague - Uhříněves",50.03299,14.61196,"CZK 50,000",G,New-build,Brick,,,,,1.0,,,,,,,,,,,,,,,,,,,,,,,,,1.0,1.0,1.0,,,,,,,,,,,,,,,,,,,,,,,,,,,,,,,,,,,,,,,,,,,,,,,,,,,,,,,,,,,,,,,,,,,,,,,,
"CZK 23,000","CZK 4,800",420205,2 bedroom,11/1/2022,68 m²,Fully furnished,3,,137.96,604.73,117.7,134.06,16.12,232.76,179.31,561.48,551.79,498.51,"Navrátilova, Prague - Nové Město",50.0786422,14.4230852,"CZK 30,000",C,Very good,Brick,,,,,,,,,,Personal,,,,,,,,,,,,,,,,,,,,,,,,,,,,,,,,,,,,,,,,,,,,,,,,,,,,,,,,,,,,,,,,,,,,,,,,,,,,,,,,,,,,,,,,,,,,,,
"CZK 48,000","CZK 3,500",522827,4+1,,102 m²,Fully furnished,4,,164.33,274.68,47.39,177.79,18.0,284.15,112.16,465.63,548.72,579.31,Prague - Malá Strana,50.0870672,14.4033291,"CZK 48,000",,,Brick,,,,,,,,Over 50 years,Luxurious,Personal,Electric boiler,,,,,Complete,,,,,,,,,,,,,,,,,,,,,,,,,,,,,,,,,,,,,,,,,,,,,,,,,,,,,,,,,,,,,,,,,,,,,,,,,,,,,,,,,,,,,,,,
"CZK 15,000","CZK 5,000",627305,2+kk,11/1/2022,45 m²,Partly,2,,151.1,271.72,850.99,5144.62,273.84,832.78,729.99,457.14,429.6,75.42,"Čeperská, Prague - Vinoř",50.141882,14.576502,"CZK 20,000",B,Very good,Prefab concrete,,,,,,,,,Standard,Other,,,,,,Complete,,,1.0,,,,,,,,,,,,,,,,,,,,,,,,,,,,,,,,,,,,,,,,,,,,,,,,,,,,,,,,,,,,,,,,,,,,,,,,,,,,,,,,,,,,,
"CZK 17,852","CZK 5,148",497125,2+kk,1/24/2021,55 m²,Fully furnished,1,1.0,289.31,1030.71,185.29,875.56,580.15,1000.2,374.44,2240.15,1249.45,201.42,"Sazovická, Prague - Zličín",50.0570157,14.2807456,"CZK 23,000",,New-build,Brick,,1.0,,,,,,Up to 10 years,,Personal,Central,,,,,,,,,,,,,,1.0,,,,,,,1.0,,,,,,,,,,,,,,,,,,,,,,,,,,,,,,,,,,,,,,,,,,,,,,,,,,,,,,,,,,,,,,,,,,,,,,,,
"CZK 36,000","CZK 6,300",746718,3+kk,10/20/2022,96 m²,Unfurnished,1,1.0,195.86,942.66,203.64,529.88,366.09,654.52,200.72,1923.76,905.95,240.27,"Sazovická, Prague - Zličín",50.05685,14.28507,"CZK 50,000",G,New-build,Brick,1.0,,,,1.0,,,,,,,,,,,,,,,,,,,,,,,,,,,1.0,1.0,,,,,,,,,,,,,,,,,,,,,,,,,,,,,,,,,,,,,,,,,,,,,,,,,,,,,,,,,,,,,,,,,,,,,,,
"CZK 20,000","CZK 5,500",746715,3+1,10/20/2022,69 m²,Fully furnished,1,1.0,331.26,776.51,182.53,1766.9,652.48,931.42,628.32,727.89,675.4,120.64,"Na Hranicích, Prague - Čimice",50.13488,14.43347,"CZK 20,000",G,Very good,Prefab concrete,,,,,,,,,,,,,1.0,,,,,,,,,,,1.0,,,,,,,,,,,,,,,,,,,,,,,,,,,,,,,,,,,,,,,,,,,,,,,,,,,,,,,,,,,,,,,,,,,,,,,,,,,,,,,,
"CZK 16,000","CZK 7,600",746413,2+kk,10/18/2022,52 m²,Fully furnished,2,1.0,107.25,880.93,101.06,2014.99,142.54,834.77,546.72,1084.24,895.2,423.87,"Pelušková, Prague - Kyje",50.10912,14.55818,"CZK 32,000",G,Very good,Prefab concrete,,,,,1.0,,,,,Personal,,,,,,,,,1.0,,,,,,,,,,,,,,,1.0,,,,,,,,,,,,,,,,,,,,,,,,,,,,,,,,,,,,,,,,,,,,,,,,,,,,,,,,,,,,,,,,,,,,,,
"CZK 14,999","CZK 1,744",628460,Studio,10/16/2022,43 m²,Unfurnished,1,1.0,327.31,584.04,205.09,356.41,172.42,367.7,158.25,176.48,373.62,150.08,"Kamenická, Prague - Holešovice",50.0976,14.427997,"CZK 14,999",G,Good,Brick,,,,,,,,,,Personal,Distance,,,,,,,,,,,,,,,,,,,,,,,,,,,,,,,,,,,,,,,,,,,,,,,,,,,,,,,,,,,,,,,,,,,,,,,,,,,,,,,,,,,,,,,,,,,,,
"CZK 28,000","CZK 4,500",746712,3+kk,10/20/2022,79 m²,Fully furnished,3,1.0,333.02,789.23,285.45,712.29,348.55,640.77,612.01,310.47,398.77,59.92,"Španielova, Prague - Řepy",50.06739,14.29992,"CZK 50,000",G,Very good,Prefab concrete,,1.0,,,,,,,,,,,1.0,,,,,,,,,,,,,,,,,,,,,,1.0,,,,,,,,,,,,,,,,,,,,,,,,,,,,,,,,,,,,,,,,,,,,,,,,,,,,,,,,,,,,,,,,,,,,,
"CZK 33,000",CZK 0,603246,2 bedroom,11/1/2022,75 m²,Fully furnished,2,,261.28,644.86,113.3,267.35,86.99,225.25,317.31,208.42,545.62,316.27,"Sudoměřská, Prague - Žižkov",50.080602,14.458238,"CZK 500,000",C,Very good,Brick,,,,,,,,,,Personal,,,,,,Complete,,,,,,,,,,,,,,,,,,,,1.0,,,,,,,,,,,,,,,,,,,,,,,,,,,,,,,,,,,,,,,,,,,,,,,,,,,,,,,,,,,,,,,,,,,,
"CZK 55,000","CZK 8,000",746696,3+1,12/15/2022,117 m²,Partly,4,,211.28,292.73,61.31,278.7,118.85,293.16,119.95,258.76,590.35,174.11,"Laubova, Prague - Vinohrady",50.07906,14.44976,"CZK 63,000",G,Very good,Brick,,,,,,,,,,,,,,,,,,,,,,,,,,,,,,,,,,,,,1.0,,,,,,,,,,,,,,,,,,,,,,,,,,,,,,,,,,,,,,,,,,,,,,,,,,,,,,,,,,,,,,,,,,,
"CZK 18,000","CZK 5,000",600849,2+kk,3/28/2020,40 m²,Fully furnished,2,,131.72,110.37,69.99,426.75,163.94,178.08,236.84,434.72,593.07,199.4,"U Santošky, Prague - Smíchov",50.067941,14.399612,"CZK 30,000",C,Very good,Brick,,,,,,,,,,Personal,Central,,,,,,,,,,,,,,,,,,,,,,,,,,,1.0,,,,,,,,,,,,,,,,,,,,,,,,,,,,,,,,,,,,,,,,,,,,,,,,,,,,,,,,,,,,,,,,,,
"CZK 49,500","CZK 16,500",746686,2 bedroom,10/22/2022,160 m²,Fully furnished,6,1.0,378.41,424.44,160.64,353.94,178.02,209.44,330.47,847.09,220.58,277.38,"Sochařská, Prague - Bubeneč",50.1019195,14.4242685,,,,,,,,,,,,,,,,,,,,,,,,,,,,,,,,,,,,,,,,,,,,,,,,,,,,,,,,,,,,,,,,,,,,,,,,,,,,,,,,,,,,,,,,,,,,,,,,,,,,,,,,,,,,
"CZK 32,500","CZK 2,500",740781,4+1,11/1/2022,125 m²,Partly,2,,245.49,324.34,443.7,957.46,358.12,444.67,207.73,1127.25,404.03,338.04,Prague - Radotín,49.98364,14.35419,"CZK 35,000",G,Very good,Brick,1.0,1.0,,,1.0,,,,Standard,Personal,Electric boiler,,,,,,,,,,,,,,,,,,,,,,,,,,,,1.0,,,,,,,,,,,,,,,,,,,,,,,,,,,,,,,,,,,,,,,,,,,,,,,,,,,,,,,,,,,,,,,,,
"CZK 14,000","CZK 3,000",332369,2+kk,11/1/2022,40 m²,Partly,3,1.0,418.06,521.57,384.5,546.79,380.0,529.54,763.76,431.9,1995.89,515.97,"Bryksova, Prague - Černý Most",50.1062117,14.5850518,"CZK 17,000",,Good,Prefab concrete,,,,,,,,,,Personal,Distance,,,,,,,,,,,,,,,,,,,,,,,,,,,,,,,,,,,,,,,,,,,,,,,,,,,,,,,,,,,,,,,,,,,,,,,,,,,,,,,,,,,,,,,,,,,,,
"CZK 23,000","CZK 3,500",603233,2+kk,10/16/2022,45 m²,Fully furnished,3,1.0,371.48,502.43,57.05,243.25,28.96,223.58,26.92,689.96,327.98,363.81,"Michalská, Prague - Staré Město",50.084426,14.42005,"CZK 23,000",,Very good,Brick,,,,,,,,,Standard,Personal,Gas boiler,,,,,,,,,,,,,,,,,,,,,,,,,,,,,,,,,,,,,,,,,,,,,,,,,,,,,,,,,,,,,,,,,,,,,,,,,,,,,,,,,,,,,,,,,,,,,
"CZK 15,000","CZK 3,500",598847,Studio,9/26/2022,42 m²,Fully furnished,1,,241.75,2054.21,1934.57,3010.12,295.81,2873.66,1736.51,2053.57,317.53,219.07,"K Pitkovicům, Prague - Benice",50.012466,14.6024605,"CZK 20,000",A,New-build,Brick,,,,,,,,Up to 10 years,Luxurious,Personal,Geothermal,,,,,,,,,,,,,,,,,,,,,1.0,,,,,,,,,,,,,,,,,,,,,,,,,,,,,,,,,,,,,,,,,,,,,,,,,,,,,,,,,,,,,,,,,,,,,,,,
"CZK 24,990","CZK 5,900",604441,3+kk,10/17/2022,49 m²,Fully furnished,11,1.0,104.5,1177.98,93.63,1019.98,48.23,771.54,441.43,776.65,918.7,151.81,"Molákova, Prague - Karlín",50.096952,14.4652,"CZK 45,000",C,New-build,Other,,,,,,,,Up to 10 years,,Personal,Distance,,,,,Complete,,,,,,,,,,,,,,,,,,,,,,,,1.0,,,,,,,,,,,,,,,,,,,,,,,,,,,,,,,,,,,,,,,,,,,,,,,,,,,,,,,,,,,,,,,,
"CZK 15,000","CZK 2,500",700489,Studio,11/1/2022,28 m²,Fully furnished,4,1.0,467.81,610.06,423.69,551.7,342.85,540.66,768.7,708.5,440.72,384.7,"Ocelářská, Prague - Vysočany",50.1069733,14.497176624888,"CZK 15,000",B,New-build,Brick,,,,,,,,,,Personal,,,,,,,,,,1.0,,,,,,,,,,,,1.0,,,,1.0,,,,,1.0,,,,,,,,,,,,,,,,,,,,,,,,,,,,,,,,,,,,,,,,,,,,,,,,,,,,,,,,,,,,,,,
"CZK 17,000","CZK 1,000",666715,2+kk,11/14/2022,54 m²,Unfurnished,3,,125.95,893.98,452.03,589.04,72.54,292.2,633.38,1126.67,78.89,782.81,"U Výstaviště, Prague - Holešovice",50.10535,14.43385,"CZK 17,000",G,New-build,Brick,,,,,,,,,Standard,Personal,,,,,,Complete,,,,,,,,,,,,,1.0,,,,,,,,,,,,,,,,,,,,,,,,,,,,,,,,,,,,,,,,,,,,,,,,,,,,,,,,,,,,,,,,,,,,,,,,,,,
"CZK 15,500",CZK 800,746676,2 bedroom,10/20/2022,44 m²,Partly,2,,240.7,461.67,272.7,413.56,223.08,530.03,353.55,369.03,437.26,482.85,Prague - Libeň,50.10051,14.47212,"CZK 31,000",G,Very good,Brick,,,,,,,,,,,,,,,,,,,,,,,,,,,,,,,,,,,,,,,,,,,,,,,,,,,,,,,,,,,,,,,,,,,,,,,,,,,,,,,,,,,,,,,,,,,,,,,,,,,,,,,,
"CZK 42,750","CZK 14,250",746675,2 bedroom,11/9/2022,103 m²,Fully furnished,4,,71.5,216.2,23.03,92.83,11.33,221.06,242.67,352.18,699.99,362.69,"Karlovo náměstí, Prague - Nové Město",50.0770016,14.41918,,,,,,,,,,,,,,,,,,,,,,,,,,,,,,,,,,,,,,,,,,,,,,,,,,,,,,,,,,,,,,,,,,,,,,,,,,,,,,,,,,,,,,,,,,,,,,,,,,,,,,,,,,,,
"CZK 25,000","CZK 6,500",618201,3+kk,6/10/2022,90 m²,,1,1.0,249.16,369.67,308.68,479.05,292.86,342.59,674.41,689.74,862.2,245.35,"Oty Bubeníčka, Prague - Uhříněves",50.029235,14.597578,"CZK 31,500",B,New-build,Brick,,1.0,,,1.0,,,,,Personal,,,,,,,,,,,,,,,,,,,1.0,,,1.0,,,,,,,,,,1.0,,,,,,,,,,,,,,,,,,,,,,,,,,,,,,,,,,,,,,,,,,,,,,,,,,,,,,,,,,,,,,
"CZK 22,500","CZK 5,000",683548,2+kk,10/1/2022,68 m²,Partly,4,1.0,231.82,688.19,238.77,396.79,288.67,346.25,666.97,484.38,370.9,167.66,"Janýrova, Prague - Strašnice",50.0792694,14.4866147,"CZK 45,000",D,Very good,Brick,,1.0,,,1.0,,,,,Personal,Distance,,,,,,,,,1.0,,,,,1.0,1.0,,,,,,,,,,,,,,,,,,,,,,,,,,,,,,,,,,,,,,,,,,,,,,,,,,,,,,,,,,,,,,,,,,,,,,,,,,,,,,
"CZK 35,000","CZK 8,200",665597,4+kk,12/1/2022,105 m²,Partly,2,1.0,396.01,549.44,157.22,388.26,59.79,212.95,448.07,522.4,570.4,483.84,"Kubelíkova, Prague - Žižkov",50.08216,14.45073,"CZK 50,000",G,Very good,Brick,,,,1.0,,,,,,Personal,,,,,,,,,,,,,,,,,,,,,,,,,,,,,,,,,,,,,,,,,,,,,,,,,,,,,,,,,,,,,,,,,,,,,,,,,,,,,,,,,,,,,,,,,,,,,,
"CZK 38,500","CZK 9,000",400077,3+1,1/1/2023,109 m²,Partly,2,1.0,217.76,598.71,265.89,684.2,336.87,315.43,399.12,752.22,653.7,484.73,"Talichova, Prague - Břevnov",50.0879235,14.3636788,"CZK 40,000",C,,Brick,,,,,,,,,,Personal,Central,,,,,,,,,,,,,,,,,,,,,,,,,,,,,,,,1.0,1.0,,,,,,,,,,,,,,,,,,,,,,,,,,,,,,,,,,,,,,,,,,,,,,,,,,,,,,,,,,,,
"CZK 18,000","CZK 3,000",651300,2+kk,11/1/2022,54 m²,Fully furnished,1,,475.31,710.1,557.08,1630.89,537.23,699.75,526.21,439.45,1639.34,550.58,"Nad Křížkem, Prague - Braník",50.037543,14.419151,"CZK 20,000",,Very good,Brick,,,,,,,,30 - 50 years,Standard,Personal,Central,,,,,,,1.0,,,,,,,,,,,,,,,,,,,,,,,,,,,1.0,1.0,,,,,,,,,,,,,,,,,,,,,,,,,,,,,,,,,,,,,,,,,,,,,,,,,,,,,,,,,,
"CZK 33,750","CZK 11,250",743215,2+kk,12/3/2022,45 m²,Fully furnished,6,1.0,73.01,281.28,58.33,478.54,20.37,379.07,102.37,138.49,668.56,481.36,"Francouzská, Prague - Vinohrady",50.0739894,14.440101,,,,,,,,,,,,,,,,,,,,,,,,,,,,,,,,,,,,,,,,,,,,,,,,,,,,,,,,,,,,,,,,,,,,,,,,,,,,,,,,,,,,,,,,,,,,,,,,,,,,,,,,,,,,
"CZK 20,175","CZK 6,725",744561,Studio,12/9/2022,33 m²,Fully furnished,2,1.0,103.76,101.45,145.18,163.35,18.04,250.43,455.25,533.02,419.63,148.07,"Sokolovská, Prague - Karlín",50.0933405,14.449225,,,,,,,,,,,,,,,,,,,,,,,,,,,,,,,,,,,,,,,,,,,,,,,,,,,,,,,,,,,,,,,,,,,,,,,,,,,,,,,,,,,,,,,,,,,,,,,,,,,,,,,,,,,,
"CZK 19,725","CZK 6,575",745390,2 bedroom,12/16/2022,90 m²,Fully furnished,6,1.0,73.01,281.28,58.33,478.54,20.37,379.07,102.37,138.49,668.56,481.36,"Francouzská, Prague - Vinohrady",50.0739894,14.440101,,,,,,,,,,,,,,,,,,,,,,,,,,,,,,,,,,,,,,,,,,,,,,,,,,,,,,,,,,,,,,,,,,,,,,,,,,,,,,,,,,,,,,,,,,,,,,,,,,,,,,,,,,,,
"CZK 37,425","CZK 12,475",745389,2+kk,12/16/2022,61 m²,Fully furnished,2,1.0,170.48,421.6,257.32,426.75,52.86,339.7,54.65,63.39,473.33,754.41,"Balbínova, Prague - Vinohrady",50.0795659,14.4357789,,,,,,,,,,,,,,,,,,,,,,,,,,,,,,,,,,,,,,,,,,,,,,,,,,,,,,,,,,,,,,,,,,,,,,,,,,,,,,,,,,,,,,,,,,,,,,,,,,,,,,,,,,,,
"CZK 39,971","CZK 13,324",744560,2 bedroom,12/11/2022,56 m²,Fully furnished,1,,323.47,356.02,19.06,334.55,43.47,635.94,360.96,349.33,865.49,201.5,"U Lužického semináře, Prague - Malá Strana",50.0877117,14.4091678,,,,,,,,,,,,,,,,,,,,,,,,,,,,,1.0,1.0,,,,,,,,,,,,,,,,,,,,,,,,,,,,,,,,,,,,,,,,,,,,,,,,,,,,,,,,,,,,,,,,,,,,,,,,,,,,,,
"CZK 32,250","CZK 10,750",746652,2 bedroom,12/19/2022,89 m²,Fully furnished,3,1.0,82.8,397.93,96.94,404.98,135.48,353.78,131.46,217.55,654.74,661.34,"Blanická, Prague - Vinohrady",50.0746503,14.439294,,,,,,,,,,,,,,,,,,,,,,,,,,,,,,,,,,,,,,,,,,,,,,,,,,,,,,,,,,,,,,,,,,,,,,,,,,,,,,,,,,,,,,,,,,,,,,,,,,,,,,,,,,,,
"CZK 47,025","CZK 15,675",746651,1 bedroom,12/19/2022,117 m²,Fully furnished,2,,254.83,288.07,110.12,571.95,81.97,421.88,80.01,71.59,804.26,588.21,"Americká, Prague - Vinohrady",50.0721161,14.4387295,,,,,,,,,,,,,,,,,,,,,,,,,,,,,,,,,,,,,,,,,,,,,,,,,,,,,,,,,,,,,,,,,,,,,,,,,,,,,,,,,,,,,,,,,,,,,,,,,,,,,,,,,,,,
"CZK 37,620","CZK 12,540",746650,2 bedroom,12/19/2022,54 m²,Fully furnished,7,1.0,379.66,564.73,5.21,191.31,38.84,242.1,65.9,705.75,343.76,422.75,"Michalská, Prague - Staré Město",50.0846396,14.4202484,,,,,,,,,,,,,,,,,,,,,,,,,,,,,,,,,,,,,,,,,,,,,,,,,,,,,,,,,,,,,,,,,,,,,,,,,,,,,,,,,,,,,,,,,,,,,,,,,,,,,,,,,,,,
"CZK 33,675","CZK 11,225",746649,2+kk,12/19/2022,55 m²,Fully furnished,2,1.0,170.48,421.6,257.32,426.75,52.86,339.7,54.65,63.39,473.33,754.41,"Balbínova, Prague - Vinohrady",50.0795659,14.4357789,,,,,,,,,,,,,,,,,,,,,,,,,,,,,,,,,,,,,,,,,,,,,,,,,,,,,,,,,,,,,,,,,,,,,,,,,,,,,,,,,,,,,,,,,,,,,,,,,,,,,,,,,,,,
"CZK 14,400","CZK 3,600",482440,2+kk,12/1/2022,47 m²,Fully furnished,3,,314.07,824.18,564.86,594.94,185.09,538.48,580.77,484.51,737.68,367.72,Prague - Stodůlky,50.0489403,14.3256408,"CZK 18,000",G,Good,Prefab concrete,,,,1.0,,,,,,Personal,Central,,,,,Bathroom unit,,,,,,,,,,,,,,,,,,,,,,,,,,,,,,,,,,,,,,,,,,,,,,,,,,,,,,,,,,,,,,,,,,,,,,,,,,,,,,,,,,,,,,,,
"CZK 11,000","CZK 1,000",746646,Small studio,10/19/2022,18 m²,Fully furnished,3,1.0,111.41,700.74,395.96,594.09,29.87,605.82,379.08,415.74,454.03,438.21,"Orebitská, Prague - Žižkov",50.08631,14.44651,"CZK 12,000",B,Good,Brick,,,,,,,,,,,,,,,,,,,,,,,,,,,,,,,,,,,,,,,,,,,,,,,,,,,,,,,,,,,,,,,,,,,,,,,,,,,,,,,,,,,,,,,,,,,,,,,,,,,,,,,,
"CZK 30,000","CZK 6,000",688922,3+kk,1/1/2023,94 m²,Fully furnished,5,1.0,161.4,397.16,102.71,297.58,13.61,246.43,312.7,433.93,663.36,331.56,"Bořivojova, Prague - Žižkov",50.08298,14.45354,"CZK 36,000",E,Very good,Brick,,,,,,,,10 to 30 years,Standard,Personal,,,,,,Complete,,,,,1.0,,,,,,,,,,,,,,,,,,,,,,,,,,,,,,,,,,,,,,,,,,,,,,,,,,,,,,,,,,,,,,,,,,,,,,,,,,,,,,,,,,,
"CZK 19,500","CZK 3,649",556599,2+kk,7/1/2021,58 m²,Fully furnished,5,1.0,240.74,1321.12,710.07,1233.65,682.67,1275.23,1314.9,1308.51,1247.36,12.97,Prague - Hlubočepy,50.0345184,14.3885707,"CZK 20,000",B,,Other,,1.0,,,,,,Up to 10 years,Standard,Personal,Gas boiler,,1.0,,,,,,,,,,,,,,,,,,,,,,,1.0,,,,,,,,,,,,,,,,,,,,,,,,,,,,,,,,,,,,,,,,,,,,,,,,,,,,,,,,,,,,,,,,,,,,
"CZK 26,000","CZK 6,000",746626,2+kk,10/19/2022,55 m²,Fully furnished,5,1.0,206.79,511.13,187.24,169.76,131.6,323.25,808.8,934.79,479.14,344.34,Prague - Karlín,50.09557,14.4512,"CZK 32,000",B,New-build,Other,,,,,,,,,,Personal,,,,,,,,,,,,,,,,,,,,,,1.0,,,,,,,,,,,,,,,1.0,,,,,,,,,,,,,,,,,,,,,,,,,,,,,,,,,,,,,,,,,,,,,,,,,,,,,,,,,
"CZK 13,000",CZK 750,570243,1 bedroom,11/1/2022,46 m²,Partly,2,,161.22,1301.96,183.64,202.37,47.08,154.58,264.5,487.14,301.25,363.8,"Biskupcova, Prague - Žižkov",50.0906289,14.4745234,"CZK 13,750",,,Brick,,,,,,,,,,Personal,,,,,,,,,,,,,,,,,,,,,,,,,,,,,,,,,,,,,,,,,,,,,,,,,,,,,,,,,,,,,,,,,,,,,,,,,,,,,,,,,,,,,,,,,,,,,,
"CZK 17,000","CZK 3,500",746624,2+kk,11/1/2022,48 m²,Partly,4,1.0,235.16,929.39,612.68,3539.28,286.1,525.01,1025.49,2961.93,893.6,124.05,Prague - Dolní Měcholupy,50.06561,14.55216,"CZK 20,000",G,Very good,Brick,,1.0,,,1.0,,,,,,,,,,,,,,,,,,,,,,,,,,,,,,,1.0,,,,,,,,,,,,,,,,,,,,,,,,,,,,,,,,,,,,,,,,,,,,,,,,,,,,,,,,,,,,,,,,,,,,
"CZK 39,000","CZK 4,000",745205,5+1,10/24/2022,133 m²,Partly,3,1.0,82.77,526.39,40.08,236.08,22.64,168.91,620.99,581.12,566.57,532.49,Prague - Smíchov,50.0697,14.40529,"CZK 41,000",C,Very good,Brick,,,,,,1.0,,,,,,,,,,,,,,,,,,,,,,,,,,,,,,,,,,,,1.0,,,,,,,,,,,,,,,,,,,,,,,,,,,,,,,,,,,,,,,,,,,,,,,,,,,,,,,,,,,,,,
"CZK 14,000","CZK 5,600",351360,2+kk,11/1/2021,47 m²,Partly,1,1.0,198.57,1212.13,446.36,946.94,68.18,1178.42,1046.69,522.08,773.99,335.55,"Roškotova, Prague - Braník",50.0405305,14.4282244,"CZK 20,000",C,,Other,,,,,,,,,Standard,Personal,Distance,,,,,Interior,,,,,,,,,,,,,,,,,,,,,,,,,,,,,,,,,,,,,,,,,,,,,,,,,,,,,,,,,,,,,,,,,,,,,,,,,,,,,,,,,,,,,,,,
"CZK 17,000","CZK 4,200",626244,2 bedroom,10/24/2022,54 m²,,2,,110.58,581.77,241.93,310.47,123.82,328.25,189.68,217.65,711.94,169.05,"Fajmanové, Prague - Břevnov",50.08647,14.344197,"CZK 30,000",E,Very good,Prefab concrete,,,1.0,,,,,,,Personal,,,,,,,,,,,,,,,,,,,,,,,,,,,,,,,,,,,,,,,,,,,,,,,,,,,,,,,,,,,,,,,,,,,,,,,,,,,,,,,,,,,,,,,,,,,,,,
"CZK 23,000","CZK 3,000",445464,3+kk,12/1/2022,65 m²,Partly,7,1.0,456.71,1103.44,64.67,1216.66,244.1,714.78,168.22,1169.48,375.6,334.81,"Hrudičkova, Prague - Chodov",50.0339099,14.4785155,CZK 0,C,Very good,Prefab concrete,,,,,,,,,Standard,Cooperative,Central,1.0,,,,Complete,,,,,,,,,,,,,,,,,,,,,,,,,,,,,,,,1.0,,,,,,,,,,,,,,,,,,,,,,,,,,,,,,,,,,,,,,,,,,,,,,,,,,,,,,,,
"CZK 24,323","CZK 8,107",745276,2 bedroom,12/11/2022,35 m²,Fully furnished,5,,220.05,826.22,174.81,602.88,97.41,601.22,415.82,330.65,569.7,247.12,"Bulharská, Prague - Vršovice",50.0719625,14.461813,,,,,,,,,,,,,,,,,,,,,,,,,,,,,,,,,,,,,,,,,,,,,,,,,,,,,,,,,,,,,,,,,,,,,,,,,,,,,,,,,,,,,,,,,,,,,,,,,,,,,,,,,,,,
"CZK 25,500","CZK 8,500",746620,2+kk,11/2/2022,48 m²,Fully furnished,3,1.0,188.32,492.36,64.31,169.76,16.44,202.35,307.51,551.4,544.96,488.43,"Řeznická, Prague - Nové Město",50.0781758,14.4220203,,,,,,,,,,,,,,,,,,,,,,,,,,,,,,,,,,,,,,,,,,,,,,,,,,,,,,,,,,,,,,,,,,,,,,,,,,,,,,,,,,,,,,,,,,,,,,,,,,,,,,,,,,,,
"CZK 33,000","CZK 3,000",649336,3+1,11/1/2022,120 m²,Fully furnished,3,,125.67,569.28,79.15,362.64,24.85,230.89,675.28,518.74,504.2,470.12,Prague - Smíchov,50.0698,14.406067,"CZK 33,000",F,Very good,Other,,,,,,,,,Luxurious,Personal,Gas boiler,,,,,Complete,,,,,,,,,,,,,,,,,,,,,,,,,,,,,,,,,,,,,,,,,,,,,,,,,,,,,,,,,,,,,,,,,,,,,,,,,,,,,,,,,,,,,,,,
"CZK 8,000",CZK 500,581091,Small studio,11/1/2022,12 m²,Fully furnished,1,,134.04,1830.94,1663.87,2394.03,702.67,2095.67,896.56,3521.84,2809.9,1117.55,"U Letiště, Prague - Ruzyně",50.101873,14.288164,"CZK 12,000",C,Good,Brick,,,,,,,,,Standard,Personal,Central,,,,,,,,,,,,,,,,,,,,,,,,,,,,,,,,,,,,,,,,,,,,,,,,,,,,,,,,,,,,,,,,,,,,,,,,,,,,,,,,,,,,,,,,,,,,,
"CZK 10,900",CZK 900,732406,2 bedroom,10/20/2022,56 m²,Partly,,,125.86,217.39,168.26,2409.84,102.11,269.28,349.76,144.45,1228.34,258.85,Prague - Braník,50.03521,14.41167,"CZK 16,000",G,Very good,Brick,,,,,,,,,,,Electric boiler,,,,,,,,,,,,,,,,,,,,,,,,,,,,,,,,,,,,,,,,,,,,,,,,,,,,,,,,,,,,,,,,,,,,,,,,,,,,,,,,,,,,,,,,,,,,,
"CZK 25,000","CZK 4,000",746595,2+kk,10/25/2022,96 m²,Fully furnished,5,1.0,184.65,1559.55,392.55,1907.68,459.06,448.13,1047.9,447.71,1103.37,139.46,"Athénská, Prague - Hostivař",50.04302,14.51427,"CZK 50,000",G,Very good,Other,1.0,,,,1.0,,,,,,,,,,,,,,,,,,,,,,,,,,,,,,,,,,,,,,,,,,,,1.0,1.0,,,,,,,,,,,,,,,,,,,,,,,,,,,,,,,,,,,,,,,,,,,,,,,,,,,,,,
"CZK 25,000","CZK 3,000",745188,2 bedroom,10/14/2022,87 m²,Partly,1,,408.04,444.74,55.68,471.68,144.85,224.98,459.95,556.21,604.36,651.52,Prague - Žižkov,50.08238,14.44813,"CZK 50,000",G,Very good,Brick,,1.0,,,,,,,,Personal,,,,,,,,,,,,,,,,,,,,,,,,,,,,,,,,,,,,,,,,,,,,,,,,,,,,,,,,,,,,,,,,,,,,,,,,,,,,,,,,,,,,,,,,,,,,,,
"CZK 25,000","CZK 7,500",745187,3+kk,11/14/2022,84 m²,Partly,7,1.0,358.11,1274.59,648.44,1061.38,636.12,1151.2,941.1,351.64,1295.74,639.6,"Černochova, Prague - Košíře",50.063,14.37985,"CZK 40,000",G,New-build,Other,,,,,1.0,,,,,,,,1.0,,,,,,,,,,,,,,,,,,,,,,,,,,,,,,,,,,,,,,1.0,,,,,,,,,,,,,,,,,,,,,,,,,,,,,,,,,,,,,,,,,,,,,,,,,,,,,
"CZK 23,000","CZK 3,500",139610,2 bedroom,10/19/2022,46 m²,Fully furnished,5,,140.53,931.29,212.88,415.85,141.86,828.47,460.57,460.04,899.21,361.46,"Kloboučnická, Prague - Nusle",50.0613525,14.4500789,"CZK 25,000",,Very good,Brick,,,,,,,,,Standard,Personal,,,,,,Complete,,,,,1.0,,,,,,,,,,,,,,,,,,,,,,,,,,,,,,,,,,,,,,,,,,,,,,,,,,,,,,,,,,,,,,,,,,,,,,,,,,,,,,,,,,,
"CZK 22,220","CZK 3,000",746587,2+kk,10/19/2022,56 m²,Fully furnished,1,,233.13,651.17,112.38,907.79,67.69,969.25,438.62,1399.78,409.08,118.92,Prague - Zličín,50.06004,14.29102,CZK 0,G,Very good,Brick,,,,,,,,,,,,,,,,,,,,,,1.0,,,,,,,,,,,,,1.0,,,,,,,,,,,,,,,,,,,,,,,,,,,,,,,,,,,,,,,,,,,,,,,,,,,,,,,,,,,,,,,,,,,,,
"CZK 14,250","CZK 4,250",100882,Studio,7/11/2022,27 m²,Partly,2,,286.14,502.11,145.56,316.52,86.9,298.73,164.33,370.74,733.35,330.31,"Klimentská, Prague - Nové Město",50.0924491,14.4347928,"CZK 25,000",,,Brick,,,,,,,,,,Personal,,,,,,,,,,,,,,,,,,,,,,,,,,,,,,,,,,,,,,,,,,,,,,,,,,,,,,,,,,,,,,,,,,,,,,,,,,,,,,,,,,,,,,,,,,,,,,
"CZK 18,000","CZK 5,000",517304,2+kk,6/1/2018,68 m²,Fully furnished,3,1.0,439.31,916.86,369.01,502.12,309.53,854.86,308.48,473.22,340.23,388.6,"Kovanecká, Prague - Libeň",50.1081189,14.4842975,"CZK 54,000",,,Brick,,1.0,,,,,,10 to 30 years,Luxurious,Personal,,,,,,,,,,,,,1.0,,,,,,,,,,,,,,,,,,,,,,,,,,,,,,,,,,,,,,,,,,,,,,,,,,,,,,,,,,,,,,,,,,,,,,,,,,,,,,,,,
"CZK 18,000","CZK 1,000",746579,1 bedroom,10/25/2022,40 m²,Partly,1,,164.15,853.1,599.4,1491.63,178.84,500.25,641.31,1029.53,997.62,205.95,"Khodlova, Prague - Horní Počernice",50.10973,14.606,"CZK 30,000",G,Very good,Brick,,1.0,,,,,,,Standard,Personal,,,,,,Complete,,,,,,,,,,,,,,,,,,,,,,,,,,,,,,,,,,,,,,,,,,,,,,,,,,,,,,,,,,,,,,,,,,,,,,,,,,,,,,,,,,,,,,,,
"CZK 14,625","CZK 4,875",746583,4+1,11/1/2022,80 m²,Fully furnished,5,1.0,113.8,339.96,97.8,888.62,130.7,708.04,240.3,257.58,514.15,165.05,"Voskovcova, Prague - Hlubočepy",50.0299891,14.3690326,,,,,,,,,,,,,,,,,,,,,,,,,,,,,,,,,,,,,,,,,,,,,,,,,,,,,,,,,,,,,,,,,,,,,,,,,,,,,,,,,,,,,,,,,,,,,,,,,,,,,,,,,,,,
"CZK 55,399","CZK 18,466",717682,2+kk,10/22/2022,69 m²,Fully furnished,6,1.0,104.56,349.59,143.75,145.93,108.83,150.53,431.56,393.96,289.53,329.01,"Na Maninách, Prague - Holešovice",50.1025661,14.4522431,,,,,,,,,,,,,,,,,,,,,,,,,,,,,1.0,1.0,,,,,,,,,,,,,,,,,,,,,,,,,,,,,,,,,,,,,,,,,,,,,,,,,,,,,,,,,,,,,,,,,,,,,,,,,,,,,,
"CZK 35,175","CZK 11,725",728156,2+kk,12/12/2022,50 m²,Fully furnished,3,1.0,75.01,890.63,40.68,622.44,47.2,145.83,371.43,242.4,512.42,352.71,"Kubelíkova, Prague - Žižkov",50.0815843,14.4461973,,,,,,,,,,,,,,,,,,,,,,,,,,,,,,,,,,,,,,,,,,,,,,,,,,,,,,,,,,,,,,,,,,,,,,,,,,,,,,,,,,,,,,,,,,,,,,,,,,,,,,,,,,,,
"CZK 14,500","CZK 4,000",745220,2+kk,11/1/2022,55 m²,Partly,3,,165.65,1077.36,316.02,522.18,97.1,442.24,507.78,260.34,619.87,284.93,"Na Veselí, Prague - Nusle",50.0551,14.44008,"CZK 15,000",E,Very good,Brick,,,,,,,,,,,,,,,,,,,,,,,,,,,,,,,,,,,,,,,,,,,,,,,,1.0,,,,,,,,,,,,,,,,,,,,,,,,,,,,,,,,,,,,,,,,,,,,,,,,,,,,,,,,
"CZK 19,500","CZK 3,900",745166,2+kk,12/1/2022,57 m²,Partly,2,1.0,219.33,344.26,333.98,328.72,114.56,340.22,868.07,877.6,693.31,266.48,"Mikanova, Prague - Záběhlice",50.05348,14.51329,"CZK 40,000",C,New-build,Brick,,1.0,,,1.0,,,10 to 30 years,Luxurious,,Central,1.0,,,,,,,,,,,,,,,,,,,,1.0,,,,,,,,,,,,,,,,,,,,,,,,,,,,,,,,,,,,,,,,,,,,,,,,,,,,,,,,,,,,,,,,,,,,,,,,
"CZK 14,000","CZK 3,000",213428,Studio,11/20/2022,43 m²,Partly,6,1.0,26.88,492.09,143.29,462.65,430.69,470.49,321.08,608.97,311.75,198.3,"Tlumačovská, Prague - Stodůlky",50.0399305,14.3357572,"CZK 20,000",,New-build,Brick,,,,1.0,,,,Up to 10 years,Luxurious,Personal,Distance,,,,,,,,,,,,,,1.0,,,,,,,1.0,,,,,,,,,,,,,1.0,,,,,,,,,,,,,,,,,,,,,,,,,,,,,,,,,,,,,,,,,,,,,,,,,,,,,,,,,,,
"CZK 30,000","CZK 6,000",745901,5+kk,10/24/2022,109 m²,Fully furnished,1,1.0,244.43,287.63,223.79,312.61,244.95,261.97,342.34,236.54,925.88,149.93,"V Hůrkách, Prague - Stodůlky",50.04889,14.34332,"CZK 36,000",G,Very good,Prefab concrete,,1.0,,,,,,,,,,,,,,,,,,,,,,,,,,,,,,,,,1.0,,,,,,,,,,,,,,,,,,,,,,,,,,,,,,,,,,,,,,,,,,,,,,,,,,,,,,,,,,,,,,,,,,,,,
"CZK 18,000","CZK 1,500",746572,2+kk,10/19/2022,46 m²,Unfurnished,2,,183.6,1004.12,1360.63,2360.52,316.11,1865.11,1388.24,1785.77,962.02,1030.79,Prague - Hostivař,50.05634,14.54611,"CZK 36,000",G,Very good,Brick,,1.0,,,,,,,,,Electric boiler,,,,,,,,,,,,,,,,,,,,,,,,,,,,,,,,,,,,,,,,,,,,,,,,,,,,,,,,,,,,,,,,,,,,,,,,,,,,,,,,,,,,,,,,,,,,,
"CZK 51,656","CZK 17,219",728895,2 bedroom,11/30/2022,60 m²,Fully furnished,4,1.0,110.1,392.87,177.02,129.22,79.72,168.29,299.92,497.22,273.67,349.66,"Dlážděná, Prague - Nové Město",50.0865843,14.4323212,,,,,,,,,,,,,,,,,,,,,,,,,,,,,,,,,,,,,,,,,,,,,,,,,,,,,,,,,,,,,,,,,,,,,,,,,,,,,,,,,,,,,,,,,,,,,,,,,,,,,,,,,,,,
"CZK 24,938","CZK 8,312",744955,1 bedroom,11/1/2022,16 m²,Fully furnished,2,,254.83,288.07,110.12,571.95,81.97,421.88,80.01,71.59,804.26,588.21,"Americká, Prague - Vinohrady",50.0721161,14.4387295,,,,,,,,,,,,,,,,,,,,,,,,,,,,,,,,,,,,,,,,,,,,,,,,,,,,,,,,,,,,,,,,,,,,,,,,,,,,,,,,,,,,,,,,,,,,,,,,,,,,,,,,,,,,
"CZK 52,500","CZK 17,500",731817,2+kk,11/1/2022,80 m²,Fully furnished,3,1.0,281.86,547.59,69.97,211.73,9.84,221.9,245.36,614.41,367.39,520.5,"Ve Smečkách, Prague - Nové Město",50.0795975,14.4273504,,,,,,,,,,,,,,,,,,,,,,,,,,,,,,,,,,,,,,,,,,,,,,,,,,,,,,,,,,,,,,,,,,,,,,,,,,,,,,,,,,,,,,,,,,,,,,,,,,,,,,,,,,,,
"CZK 15,500",CZK 500,273534,2+kk,11/1/2022,50 m²,Partly,1,,280.97,389.55,209.6,740.43,188.47,515.06,235.83,261.31,432.42,218.94,"Lužická, Prague - Vinohrady",50.0735635,14.4449567,"CZK 15,500",,,Brick,,,,,,,,,,Personal,,,,,,,,,,,,,,,,,,,,,,,,,,,,,,,,,,,,,,,,,,,,,,,,,,,,,,,,,,,,,,,,,,,,,,,,,,,,,,,,,,,,,,,,,,,,,,
"CZK 44,000","CZK 6,000",358804,4+kk,9/1/2022,130 m²,Fully furnished,2,,332.93,544.63,139.18,267.34,39.05,305.02,264.26,587.07,297.42,107.97,"Betlémské náměstí, Prague - Staré Město",50.0840811,14.4176178,CZK 2,,,Brick,,,,,1.0,,,,,Personal,,,,,,Complete,,,,,,,,,1.0,,,,,,,,,,,,,,,,,,,,,,,,,,,,,,,,,,,,,,,,,,,,,,,,,,,,,,,,,,,,,,,,,,,,,,,,,,,,,,,
"CZK 31,500",CZK 133,745175,3+kk,12/16/2022,69 m²,Fully furnished,12,1.0,,,,,,,,,,,"Mukařovského, Prague - Stodůlky",50.04595,14.32223,"CZK 63,000",A,Very good,Other,,,,,1.0,,,,,,,,1.0,,,,,,,,,,,,,,,,,,,1.0,,,,,,,,,,,,,,,,,,,,1.0,,,,,,,,,,,,,,,,,,,,,,,,,,,,,,,,,,,,,,,,,,,,,,,,,,,,
"CZK 44,500",CZK 133,744375,4+kk,11/1/2022,112 m²,Fully furnished,15,1.0,,,,,,,,,,,"Mukařovského, Prague - Stodůlky",50.04595,14.32223,"CZK 89,000",A,Very good,Other,,,,,1.0,,,,,,,,,,,,,,,,,,,,,,,,,,,1.0,,,,,,,,,,,,,,,,,,,,,1.0,1.0,,,,,,,,,,,,,,,,,,,,,,,,,,,,,,,,,,,,,,,,,,,,,,,,,,
"CZK 21,000","CZK 3,000",621181,3+kk,11/1/2022,75 m²,Partly,3,,166.06,225.9,140.93,322.4,103.85,105.04,556.17,485.12,806.35,528.48,"Zenklova, Prague - Libeň",50.120128,14.4581,"CZK 21,000",,Very good,Brick,,,,,,,,,,Personal,Electric boiler,,,,,Complete,,,,,,,,1.0,,,,,,,,,,,,,,,,,,,,,,,,,,,,,,,,,,,,,,,,,,,,,,,,,,,,,,,,,,,,,,,,,,,,,,,,,,,,,,,,
"CZK 24,000","CZK 3,000",745172,4+kk,10/14/2022,100 m²,Partly,4,1.0,41.14,225.84,61.56,214.97,51.82,406.76,157.65,238.7,534.55,761.94,Prague - Vinohrady,50.07813,14.43571,"CZK 26,000",E,Very good,Brick,1.0,1.0,,,1.0,,,,,,,,,,,,,,,,,,,,,,,,,,,,,,,,,,,,,,,,,,,,,,,,,,,,,,,,,,,,,,,,,,,,,,,,,,,,,,,,,,,,,,,,,,,,,,,,,,,
"CZK 18,990","CZK 4,346",746570,2+kk,10/20/2022,39 m²,Fully furnished,5,1.0,63.38,1460.57,206.42,1442.12,788.01,215.8,933.66,1481.6,1010.06,492.37,"Poděbradská, Prague - Vysočany",50.10329055555,14.51906805555,"CZK 23,336",B,New-build,Other,,1.0,,,,,,,,Personal,,,,,,,,,,1.0,,,,,,,,,,,,1.0,,,,,,,,,,,,,,,,,,,,,,,"CZK 23,336",,,,,,,,,,,,,,,,,,,,,,,,,,,,,,,,,,,,,,,,,,,,,,,,,
"CZK 18,500","CZK 5,500",617069,2 bedroom,11/1/2020,67 m²,Unfurnished,5,,228.14,583.81,118.21,272.29,4.57,92.92,188.84,737.14,215.8,175.76,"Mařákova, Prague - Dejvice",50.098672,14.403115,"CZK 50,000",G,Very good,Brick,,,,,1.0,,,Up to 10 years,Luxurious,Personal,Gas boiler,,,,,Complete,,,,,,,,,,,,,,,,,,,,,,,,,,,,,,,,,,,,,,,,,,,,,,,,,,,,,,,,,,,,,,,,,,,,,,,,,,,,,,,,,,,,,,,,
"CZK 27,232","CZK 9,077",741128,1 bedroom,10/23/2022,48 m²,Fully furnished,3,1.0,107.08,199.76,133.64,104.94,106.11,,312.74,774.3,461.94,541.92,"Senovážné náměstí, Prague - Nové Město",50.0855469,14.4290625,,,,,,,,,,,,,,,,,,,,,,,,,,,,,,,,,,,,,,,,,,,,,,,,,,,,,,,,,,,,,,,,,,,,,,,,,,,,,,,,,,,,,,,,,,,,,,,,,,,,,,,,,,,,
"CZK 24,581","CZK 8,194",744273,Studio,11/10/2022,32 m²,Fully furnished,1,,447.58,805.32,396.64,450.11,197.32,945.56,256.47,627.41,458.07,336.59,"Nad Kolčavkou A, Prague - Libeň",50.1080609,14.4828384,,,,,,,,,,,,,,,,,,,,,,,,,,,,,,,,,,,,,,,,,,,,,,,,,,,,,,,,,,,,,,,,,,,,,,,,,,,,,,,,,,,,,,,,,,,,,,,,,,,,,,,,,,,,
"CZK 21,000","CZK 2,800",741787,2+kk,9/22/2022,45 m²,Partly,3,,35.53,614.36,25.84,555.93,70.67,207.72,360.89,175.88,510.9,268.33,Prague - Žižkov,50.0814,14.44541,"CZK 21,000",G,Very good,Brick,,,,1.0,,,,,,,,,,,,,,,,,,,,,,,,,,,,,,,,,,,,,,,,,,,,,,,,,,,,,,,,,,,,,,,,,,,,,,,,,,,,,,,,,,,,,,,,,,,,,,,,,,,,
"CZK 11,900","CZK 2,800",745158,Studio,10/14/2022,30 m²,Fully furnished,6,1.0,98.14,1308.07,578.07,795.67,645.23,1386.9,792.56,1296.53,417.16,129.28,"Sídlištní, Prague - Lysolaje",50.12745,14.37928,"CZK 24,000",G,Very good,Prefab concrete,1.0,1.0,,,,,,,,,Central,,,,,,,,1.0,,,,,,,,,,,,,,,,,,,,,,,,,,,,,,,,,,,,,,,,,,,,,,,,,,,,,,,,,,,,,,,,,,,,,,,,,,,,,,,,,,,,,
"CZK 19,575","CZK 6,525",744346,2 bedroom,12/1/2022,70 m²,Fully furnished,6,1.0,73.01,281.28,58.33,478.54,20.37,379.07,102.37,138.49,668.56,481.36,"Francouzská, Prague - Vinohrady",50.0739894,14.440101,,,,,,,,,,,,,,,,,,,,,,,,,,,,,,,,,,,,,,,,,,,,,,,,,,,,,,,,,,,,,,,,,,,,,,,,,,,,,,,,,,,,,,,,,,,,,,,,,,,,,,,,,,,,
"CZK 23,978","CZK 7,992",731157,Studio,12/1/2022,30 m²,Fully furnished,3,1.0,99.26,361.63,490.78,556.87,427.65,345.52,452.0,519.02,404.9,293.38,"Olšanská, Prague - Žižkov",50.0830187,14.4654473,,,,,,,,,1.0,,,,,,,,,,,,,,,,,,,,,,,,,,,,,,,,,,,,,,,,,,,,,,,,,,,,,,,,,,,,,,,,,,,,,,,,,,,,,,,,,,,,,,,,,,,,,,,,,,,
"CZK 19,900","CZK 5,000",745081,3+kk,10/15/2022,67 m²,Fully furnished,9,1.0,148.23,586.48,461.16,1253.78,260.41,540.32,209.62,306.39,154.39,139.59,"Kukelská, Prague - Hloubětín",50.10584,14.55241,"CZK 40,000",G,Very good,Prefab concrete,1.0,1.0,,1.0,,,,30 - 50 years,Standard,Personal,Central,,,,,Complete,,,,,,,,,,,,,,,,,,,,,,,,,,,,,,,,,,,,,,,,1.0,,,,,,,,,,,,,,,,,,,,,,,,,,,,,,,,,,,,,,,,,,,,,,,,
"CZK 20,500",CZK 300,745156,2 bedroom,10/17/2022,66 m²,Partly,4,,321.45,1292.57,350.66,777.46,345.62,345.88,427.04,937.81,423.33,297.11,"Kandertova, Prague - Libeň",50.111632896019,14.471127246119,"CZK 41,000",G,Very good,Brick,,1.0,,,,,,Over 50 years,Standard,,,,,,,Complete,,,,,,,,,,,,,1.0,,,,,,,,,,,,,,,,,,,,,,,,,,,,,,,,,,,,,,,,,,,,,,,,,,,,,,,,,,,,,,,,,,,,,,,,,,,
"CZK 18,000","CZK 2,000",576693,2+kk,11/1/2022,54 m²,Fully furnished,4,1.0,238.84,156.4,198.69,393.46,68.03,77.5,107.92,256.65,494.22,121.55,"Tusarova, Prague - Holešovice",50.1016999,14.4461424,"CZK 30,000",A,Very good,Brick,,1.0,,,,,,,,Personal,,,,,,,,,,,,,1.0,,,,,,,,,,,,,,,,1.0,,,,,,,,,,,,,,,,,,1.0,,,,,,,,,,,,,,,,,,,,,,,,,,,,,,,,,,,,,,,,,,,,,,,
"CZK 15,000","CZK 3,000",745154,4+1,10/14/2022,65 m²,Partly,3,,281.72,611.15,86.58,549.53,427.59,247.68,471.65,201.0,547.47,81.51,"Bohušovická, Prague - Prosek",50.12253,14.4909,"CZK 18,000",G,Very good,Prefab concrete,,,,,,,,,,,,,,,,,,,,,,,,1.0,,,,,,,,,,,,,,,,,,,,,,,,,,,,,,,,,,,,,,,,,,,,,,,,,,,,,,,,,,,,,,,,,,,,,,,,,,,,,,,,
"CZK 20,000","CZK 6,000",746533,Studio,10/20/2022,40 m²,Fully furnished,3,,413.54,744.02,401.31,592.5,438.03,733.32,542.0,902.11,1.99,407.83,"Pod Klaudiánkou, Prague - Podolí",50.05435,14.42251,"CZK 40,000",G,New-build,Brick,,,,,,,,Up to 10 years,Luxurious,,Central,,,,,Complete,,,,,,,,,,,,,,,,,,,,,,,,,,,,,,,,,,,,,,,,,,,,,,,,,,,,,,,,,,,,,,,,,,,,,,,,,,,,,,,,,,,,,,,,
"CZK 21,000","CZK 8,000",746522,3+kk,10/19/2022,80 m²,Fully furnished,,,239.88,1386.44,1240.33,1767.32,950.41,1242.64,925.54,1097.89,1884.71,330.34,Prague - Horní Počernice,50.10405,14.61246,"CZK 28,000",G,Very good,Low-energy,,,,,,,,,,,,,,,,,,,,,,,,,,,,,,,,,,,,,,,,,,,,,,,,,,1.0,,,,,,,,,,,,,,,,,,,,,,,,,,,,,,,,,,,,,,,,,,,,,,,,,,,,,,
"CZK 20,500","CZK 2,000",746521,2+kk,11/1/2022,64 m²,Partly,2,,124.22,514.17,172.48,139.63,79.97,225.12,513.86,312.74,295.06,46.84,Prague - Bubeneč,50.10262,14.3957,"CZK 30,000",G,Very good,Brick,,,,,1.0,,,,,,,,,,,,,,,,,1.0,,,,,,,,,,,,,,,,,,,,,,,,,,,,,,,,,,,,,,,,,,,,,,,,,,,,,,,,,,,,,,,,,,,,,,,,,,,,,,,,,,
"CZK 19,500","CZK 4,500",746520,1 bedroom,10/19/2022,55 m²,Partly,4,1.0,170.45,375.46,126.62,207.81,120.03,159.5,605.48,281.87,725.32,211.38,"Sudoměřská, Prague - Žižkov",50.07816,14.45927,"CZK 39,000",D,Very good,Brick,,,,,,,,,,,,,,,,,,,,,,,,,,,,,,,,,,,,,,,,,,,,,,,,,,,,,,,,,,,,,,,,,,,,,,,,,,,,,,,,,,,,,,,,,,,,,,,,,,,,,,,,
"CZK 14,000","CZK 2,300",745250,Studio,10/19/2022,40 m²,Partly,1,,378.93,951.45,269.95,786.53,428.13,920.27,279.63,122.79,839.47,361.04,"Zdařilá, Prague - Nusle",50.05516,14.44648,"CZK 20,000",G,Very good,Brick,,,,,,,,,,Personal,,,,,,,,,,,,,,,,,,,,,,,,,,,,,,,,,,,,,,,,,,,,,,,,,,,,,,,,,,,,,,,,,,,,,,,,,,,,,,,,,,,,,,,,,,,,,,
"CZK 13,000",CZK 1,746380,2+kk,10/18/2022,45 m²,Fully furnished,13,1.0,76.87,1503.65,143.89,2095.32,41.77,1615.05,179.87,1092.78,785.27,773.1,Prague - Ruzyně,50.08342,14.3188,"CZK 13,000",G,Very good,Prefab concrete,,,,,,,,,,,,,,,,,,,,,,,,,,,,,,,,,,,,,,,,,,,,,,,,,,,,,,,,,,,,,,,,,,,,,,,,,,,,,,,,,,,,,,,,,,,,,,,,,,,,,,,,
"CZK 20,490","CZK 4,968",746512,2+kk,10/20/2022,67 m²,Unfurnished,1,1.0,434.99,1085.67,767.93,1125.8,418.21,1045.4,780.18,936.02,626.28,267.35,"Přeučilova, Prague - Stodůlky",50.03675694444,14.32825555555,"CZK 25,458",C,New-build,Brick,,1.0,,,1.0,,,,,Personal,,,,,,,,,,1.0,,,,,1.0,,,,,,,1.0,,,,,,,,,,,,,,,,,,,,,,,"CZK 25,458",,,,,,,,,,,,,,,,,,,,,,,,,,,,,,,,,,,,,,,,,,,,,,,,,
"CZK 30,000","CZK 9,000",740559,3+1,9/15/2022,118 m²,Partly,1,1.0,139.01,947.65,193.13,470.75,14.48,400.4,324.19,313.11,370.57,241.75,Prague - Nové Město,50.06909,14.41501,"CZK 30,000",G,Very good,Brick,,,,,,,,,,,,,,,,,,,,,,,,,1.0,,,,,,,,,,,,,,,,,,,,,,,,,,,,,,,,,,,,,,,,,,,,,,,,,,,,,,,,,,,,,,,,,,,,,,,,,,,,,,,
"CZK 28,000","CZK 7,500",746504,2+kk,10/20/2022,50 m²,Fully furnished,3,1.0,413.54,744.02,401.31,592.5,438.03,733.32,542.0,902.11,1.99,407.83,"Pod Klaudiánkou, Prague - Podolí",50.05435,14.42251,"CZK 56,000",G,New-build,Other,,1.0,,,,,,,Luxurious,,Central,,,,,Complete,,,,,,,,,,,,,,,,1.0,,,,,,,,,,,,,,,,,,,,,,1.0,,,,,,,,,,,,,,,,,,,,,,,,,,,,,,,,,,,,,,,,,,,,,,,,,,
"CZK 19,000","CZK 1,900",713119,2+kk,1/2/2023,58 m²,Partly,1,,62.93,91.41,100.95,111.19,111.49,98.49,117.88,498.31,841.9,219.5,"Karlovo náměstí, Prague - Nové Město",50.0758076,14.419087,"CZK 19,000",C,New-build,Brick,,,,,,,,,,Personal,,,,,,,,,,,,,,,,,,,,,,,,,,,,,,,,,,,,,,,,,,,,,,,,,,,,,,,,,,,,,,,,,,,,,,,,,,,,,,,,,,,,,,,,,,,,,,
"CZK 13,000","CZK 3,500",604244,Studio,11/1/2022,42 m²,,3,1.0,121.73,523.09,216.71,467.89,51.45,428.17,201.44,318.89,276.38,563.51,"Jeronýmova, Prague - Žižkov",50.086888,14.4482,"CZK 13,000",D,Very good,Brick,,,,,,,,,,Personal,,,,,,,,,,,,,,,,,,,,,,,,,,,,,,,,,,,,,,1.0,,,,,,,,,,,,,,,,,,,,,,,,,,,,,,,,,,,,,,,,,,,,,,,,,,,,,,,,
"CZK 19,000","CZK 2,910",410816,2+kk,,64 m²,Partly,5,1.0,230.65,1392.41,158.0,877.3,201.79,445.72,362.79,745.16,457.82,104.46,"Primátorská, Prague - Libeň",50.1127192,14.472558,"CZK 40,820",D,Very good,Brick,,,,,,,,,,Personal,,,,,,,,,,,,,,,,,,,,,,,,,,,,,,,,,,,,,,,,,,,,,,,,,,,,,,,,,,,,,,,,,,,,,,,,,,,,,,,,,,,,,,,,,,,,,,
"CZK 27,000","CZK 6,000",727089,3+1,10/3/2022,79 m²,Fully furnished,,,243.61,1348.9,1081.18,1898.71,473.63,915.47,1131.54,1525.33,1429.94,663.83,Prague - Horní Počernice,50.10538,14.60316,"CZK 50,000",B,New-build,Brick,,1.0,,,,,,,,Personal,,,,,,,,,,,,,,,,,,,,,,1.0,,,,,,,,,,,,,,,,,,,,,,,,,,1.0,,,,,,,,,,,,,,,,,,,,,,,,,,,,,,,,,,,,,,,,,,,,,,
"CZK 50,625","CZK 16,875",744437,4+1,12/1/2022,118 m²,Fully furnished,5,1.0,10.09,941.97,67.62,646.62,248.31,375.19,227.43,495.09,1021.07,415.81,"Grafická, Prague - Smíchov",50.0722637,14.3926388,,,,,,,,,,,,,,,,,,,,,,,,,,,,,,,,,,,,,,,,,,,,,,,,,,,,,,,,,,,,,,,,,,,,,,,,,,,,,,,,,,,,,,,,,,,,,,,,,,,,,,,,,,,,
"CZK 20,000","CZK 5,000",745134,2 bedroom,10/14/2022,82 m²,Partly,3,,248.33,892.41,202.99,522.35,119.6,381.58,467.64,154.04,89.67,193.68,"Jeseniova, Prague - Žižkov",50.09093,14.48245,"CZK 20,000",G,Very good,Brick,,1.0,,,,,,,,,,,,,,,,,,,,,,,,,,,,,,,,,,,,,,,,,,,,,,,,,,,,,,,,,1.0,,,,,,,,,,,,,,,,,,,,,,,,,,,,,,,,,,,,,,,,,,,,,
"CZK 16,000","CZK 3,500",746108,1 bedroom,10/17/2022,54 m²,Partly,6,1.0,208.1,437.2,184.39,308.17,167.22,221.24,643.13,319.51,787.05,273.11,"Přemyslovská, Prague - Žižkov",50.07854,14.45897,"CZK 20,000",C,Very good,Brick,,,,,,,,Over 50 years,,Personal,Central,,,,,Complete,,,,,,,,,,,,,,,,,,,,,,,,,,,,,,,,,,,,,,,,,,,,1.0,,,,,,,,,,,,,,,,,,,,,,,,,,,,,,,,,,,,,,,,,,,,
"CZK 17,600","CZK 3,244",745428,2+kk,11/1/2022,60 m²,Unfurnished,2,1.0,258.95,481.82,339.65,786.74,688.56,702,396.77,476.55,606.66,284.35,"Nad přehradou, Prague - Horní Měcholupy",50.04203,14.54986,"CZK 43,688",C,New-build,Brick,,1.0,,,,,,Up to 10 years,Luxurious,Personal,Central,,,,,,,,,,,,,,,,,,,,,1.0,,,,1.0,,,,,,,,,,,,,,,,,,,,,,,,,,,,,,,,,,,,,,,,,,,,,,,,,,,,,,,,,,,,,,,,,,,,
"CZK 29,999","CZK 5,000",644895,3+1,11/4/2022,107 m²,Fully furnished,3,,190.79,195.13,119.77,69.53,28.06,170.17,292.23,127.6,244.05,485.21,"Zlatnická, Prague - Nové Město",50.089797,14.432331,"CZK 35,000",C,Very good,Brick,1.0,,,,,,,,Standard,Personal,Gas boiler,,,,,,,,,,,,,,,,,,,,,,,,,,,,,,,,,,,,,,,,,,,,,,,,,,,,,,,,,,,,,,,,,,,,,,,,,,,,,,,,,,,,,,,,,,,,,
"CZK 14,500","CZK 5,785",526561,2+kk,12/1/2022,60 m²,Partly,1,,72.23,803.2,709.32,3179.83,655.29,1083.37,872.38,785.59,946.11,377.74,Prague - Kbely,50.1397126,14.5473277,"CZK 20,000",,,Brick,,,,,,,,10 to 30 years,,Personal,Distance,,,,,,,,,,,,,,,,,,,,,,,,,,,,,,,,,,,,,,,,,,,,,,,,,,,,,,,,,,,,,,,,,,,,,,,,,,,,,,,,,,,,,,,,,,,,,
"CZK 43,000","CZK 6,500",328770,3+kk,12/6/2021,92 m²,Fully furnished,3,1.0,127.84,622.21,113.7,719.84,173.59,657.84,458.51,526.25,398.43,423.05,"U Zvonařky, Prague - Vinohrady",50.0691704,14.4336586,CZK 0,,New-build,Brick,,1.0,,,1.0,,,Up to 10 years,Luxurious,Personal,Gas boiler,,,,,,,,,,,,,,,1.0,,,1.0,,,1.0,,1.0,,,,,,,,,,,,,,,1.0,,,,,,,,,,,,,,,,,,,,,,,,,,,,,,,,,,,,,,,,,,,,,,,,,,,,,,,
"CZK 29,925","CZK 9,975",746471,Studio,10/31/2022,30 m²,Fully furnished,2,1.0,210.86,390.29,319.5,985.86,301.65,338.01,858.33,290.45,385.77,539.9,"Strakonická, Prague - Smíchov",50.0643299,14.4102127,,,,,,,,,,,,,,,,,,,,,,,,,,,,,,,,,,,,,,,,,,,,,,,,,,,,,,,,,,,,,,,,,,,,,,,,,,,,,,,,,,,,,,,,,,,,,,,,,,,,,,,,,,,,
"CZK 14,000","CZK 3,000",233895,Studio,9/16/2020,25 m²,Fully furnished,1,,80.36,596.16,22.78,566.73,459.33,574.56,312.75,575.72,336.82,315.65,"Tlumačovská, Prague - Stodůlky",50.0402392371,14.336339004,"CZK 15,000",B,New-build,Prefab concrete,,,,,,,,Up to 10 years,Standard,Personal,Central,,,,,,,,,,,,,,,,,,,,,1.0,,,,,,,,,,,,,,,,,,,,,,,,,,,,,,,,,,,,,,,,,,,,,,,,,,,,,,,,,,,,,,,,,,,,,,,,
"CZK 21,000","CZK 2,600",107622,3+1,11/7/2022,75 m²,Unfurnished,5,1.0,388.42,791.87,343.93,726.7,567.22,739.07,350.84,172.63,2057.36,277.82,"Krynická, Prague - Troja",50.1269242,14.4089477,"CZK 23,600",E,,Prefab concrete,,,,,,,,,,Cooperative,Distance,,1.0,,,,,,,,,,,,,,,,,,,,,,,,,,,,,,,,1.0,,,,,,,,,,,,,,,,,,,,,,,,,,,,,,,,,,,,,,,,,,,,,,,,,,,,,,,,,,,
"CZK 15,000","CZK 6,998",245201,2+kk,10/19/2022,49 m²,Partly,3,1.0,256.8,339.39,283.99,274.22,274.25,300.82,706.23,859.75,1487.1,401.33,"Hnězdenská, Prague - Troja",50.1262549126,14.418264019,"CZK 25,000",,,Brick,,1.0,,,1.0,1.0,,,,Personal,Central,,,,,,,,,,,,,,,,,,,,,1.0,,,,,,,,,,1.0,,,,,,,,,,,,,,,,,,,,,,,,,,,,,,,,,,,,,,,,,,,,,,,,,,,,,,,,,,,,,,
"CZK 22,500","CZK 7,500",744187,2 bedroom,12/5/2022,42 m²,Fully furnished,3,1.0,152.25,672.65,40.42,444.62,81.03,447.64,262.25,308.06,547.1,276.36,"Slovinská, Prague - Vršovice",50.0716124,14.4594622,,,,,,,,,,,,,,,,,,,,,,,,,,,,,,,,,,,,,,,,,,,,,,,,,,,,,,,,,,,,,,,,,,,,,,,,,,,,,,,,,,,,,,,,,,,,,,,,,,,,,,,,,,,,
"CZK 15,915","CZK 5,305",746449,Studio,12/18/2022,20 m²,Fully furnished,5,1.0,86.47,662.34,358.81,554.53,76.78,567.42,340.69,376.18,415.89,386.16,"Orebitská, Prague - Žižkov",50.0864225,14.4459574,,,,,,,,,,,,,,,,,,,,,,,,,,,,,,,,,,,,,,,,,,,,,,,,,,,,,,,,,,,,,,,,,,,,,,,,,,,,,,,,,,,,,,,,,,,,,,,,,,,,,,,,,,,,
"CZK 19,000","CZK 1,800",745115,2+kk,11/1/2022,38 m²,Fully furnished,6,,189.58,492.43,62.98,261.23,63.45,332.38,396.28,314.59,781.77,200.24,"Baranova, Prague - Žižkov",50.07897,14.45807,"CZK 38,000",B,Very good,Brick,,1.0,,,,,,,,,,,,,,,,,,,,,,,,,,,,,,,,,,,,,,,,,,,,,,,,,,,,,,,,,,,1.0,1.0,,,,,,,,,,,,,,,,,,,,,,,,,,,,,,,,,,,,,,,,,,
"CZK 28,000","CZK 5,000",746432,3+kk,10/18/2022,98 m²,Partly,3,1.0,146.4,1732.33,705.79,1697.51,857.78,1365.7,1665.15,1342.58,942.96,164.01,"Za Mototechnou, Prague - Stodůlky",50.0587,14.32951,"CZK 56,000",G,New-build,Other,,,,,1.0,,,,,,,,,,,,,,,,,,,,,,,,,,,1.0,,,,,,,,,,,,,,,,,,,,,,,,,,,,,,,1.0,1.0,,,,,,,,,,,,,,,,,,,,,,,,,,,,,,,,,,,,,,,,
"CZK 20,000","CZK 3,200",746417,2+kk,11/1/2022,46 m²,Unfurnished,1,,185.23,683.53,147.26,255.34,148.94,536.76,874.45,455.63,776.61,344.37,"Dolnokrčská, Prague - Krč",50.03931,14.43834,"CZK 20,000",G,Very good,Brick,,1.0,,,,,,,,,,,,,,,,,,,,,,,,,,,,,,,,,,,,,,,,,,,,,1.0,,,,,,,,,,,,,,,,,,,,,,,,,,,,,,,,,,,,,,,,,,,,,,,,,,,,,,,,,
"CZK 21,000","CZK 3,813",746414,Studio,11/1/2022,37 m²,Fully furnished,1,1.0,462.45,2135.85,1754.48,2130.01,543.35,1998.32,1446.13,2004.04,669.32,1368.26,"Šífařská, Prague - Hodkovičky",50.01912,14.40123,"CZK 40,000",B,New-build,Low-energy,,1.0,,,,,,,,Personal,,1.0,1.0,,,,,,,,,,,,,,,,,,,1.0,,,,,,,,,,,,,,,,,,,,,,,,,,,,,,,,,,,,,,,,,,,,,,,,,,,,,,,,,,,,,,,,,,,,,,,,
"CZK 16,500","CZK 2,300",746415,2+kk,10/24/2022,48 m²,Partly,4,1.0,321.95,814.68,275.53,780.62,488.75,714.66,287.37,405.67,1532.88,94.33,"Jelínkova, Prague - Kobylisy",50.13296,14.46475,"CZK 22,000",D,Very good,Prefab concrete,,,,,,,,,,,Central,,,,,Complete,,,,,,,,,,,,,,,,,,,,,,,,,,,,,,,,,,,,,,,,,,,,,,,,,,,,,,,,,,,,,,,,,,,,,,,,,,,,,,,,,,,,,,,,
"CZK 30,000","CZK 7,000",746179,3+1,10/19/2022,80 m²,Partly,6,1.0,254.06,637.98,126.69,450.47,83.56,402.61,429.87,898.11,225.11,173.67,"U Uranie, Prague - Holešovice",50.10621,14.45328,"CZK 60,000",F,Very good,Brick,,,,,,1.0,,Over 50 years,Luxurious,Personal,Central,,,,,Complete,,,,,,,,,,,,,,,,,,,,,,,,,,,,,,,,,,,,,,,,1.0,,,,,,,,,1.0,,,,,,,,,,,,,,,,,,,,,,,,,,,,,,,,,,,,,,,
"CZK 14,000","CZK 4,500",634083,1 bedroom,11/1/2022,35 m²,Unfurnished,4,,85.61,218.94,23.75,72.42,79.73,113.55,227.25,279.42,538.77,366.16,Prague - Smíchov,50.076804,14.404503,"CZK 15,000",G,Very good,Brick,,,,,,,,Over 50 years,Standard,Personal,Gas boiler,,,,,Interior,,,,,,,,,,,,,,,,,,,,,,,,,,,,,,,,,,,,,,,,,,,,,,,,,,,,,,,,,,,,,,,,,,,,,,,,,,,,,,,,,,,,,,,,
"CZK 32,000","CZK 4,000",746410,4+kk,10/18/2022,137 m²,Partly,4,,95.01,1125.76,106.79,977.45,14.54,1159.1,215.93,209.42,510.53,222.09,"Skloněná, Prague - Vysočany",50.10011,14.48779,"CZK 40,000",G,Very good,Brick,1.0,,,,,,,,,,,,,,,,,,,,,,,,,,,,,,,,,,,,,,,,,,,,,,,,,,,,,,,,,1.0,,,,,,,,,,,,,,,,,,,,,,,,,,,,,,,,,,,,,,,,,,,,,,
"CZK 19,000","CZK 4,700",746408,2+kk,11/7/2022,63 m²,Partly,1,,197.53,1144.58,322.58,1136.91,147.58,1161.58,816.65,713.35,423.69,462.85,"Hostivařská, Prague - Hostivař",50.05378,14.53216,"CZK 38,000",G,Very good,Brick,1.0,1.0,,,,,,,,,,,,,,,,,1.0,,,,,,,,,,,,,,,,,,,,,,,,,,,,,,,1.0,,,,,,,,,,,,,,,,,,,,,,,,,,,,,,,,,,,,,,,,,,,,,,,,,,,,,,
"CZK 12,000","CZK 3,000",746394,2 bedroom,11/1/2022,51 m²,Partly,1,,97.74,1262.92,869.54,1191.16,1139.76,782.84,883.86,1079.24,1684.23,793.55,Prague - Uhříněves,50.03645,14.57359,"CZK 36,000",G,Good,Brick,,1.0,,1.0,,,,,,,,,,,,,,,,,,,,,,,,,,,,,,,,,,,,,,,,,,,,,,,,,,,,,,,,,,,,,,,,,,,,,,,,,,,,,,,,,,,,,,,,,,,,,,,,,,,,
"CZK 19,000","CZK 5,750",494547,2 bedroom,11/1/2022,54 m²,Partly,3,,177.58,592.4,355.1,487.67,288.32,393.04,731.03,498.14,1040.24,78.76,"Tuchorazská, Prague - Malešice",50.0812524,14.5061533,"CZK 38,000",,Very good,Prefab concrete,,1.0,,,,,,,,Personal,Central,,,,,Bathroom unit,,,,,,,,,,,,,,,,,,,,,,,,,,1.0,,,,,,,,,,,,,,,,,,,,,,,,,,,,,,,,,,,,,,,,,,,,,,,,,,,,,,,,,,,,,,
"CZK 13,000","CZK 2,600",708178,2+kk,2/25/2022,45 m²,Fully furnished,1,1.0,76.93,528.43,178.81,179.73,133.7,113,177.64,320.23,1283.78,202.91,"Petržílkova, Prague - Stodůlky",50.05165,14.34686,"CZK 13,000",G,Good,Prefab concrete,,,,,,,,,,Personal,,,,,,,,,,1.0,,,,,,,,,,,,,,,,,,,,,,,,,,,,,,,,,,,,,,,,,,,,,,,,,,,,,,,,,,,,,,,,,,,,,,,,,,,,,,,,,,,,
"CZK 16,500",CZK 0,746391,2 bedroom,11/1/2022,50 m²,Partly,1,,281.46,928.1,317.5,847.86,310.7,216.13,200.98,12.44,863.63,140.59,"Pod Sady, Prague - Modřany",50.00325,14.40752,"CZK 33,000",G,Very good,Brick,,1.0,,,,,,,,Cooperative,,,,,,,,,,,,,,,,,,,,,,,,,,,,,,,,,,,,,,,,,,,,,,,,,,,,,,,,,,,,,,,,,,,,,,,,,,,,,,,,,,,,,,,,,,,,,,
"CZK 21,000","CZK 3,500",746396,2+kk,10/18/2022,65 m²,Partly,2,1.0,80.87,292.82,479.39,1803.54,267.45,964.84,557.32,1296.65,916.68,87.45,"Hrdlořezská, Prague - Hrdlořezy",50.09343,14.50955,"CZK 42,000",C,Very good,Brick,,,,,1.0,,,Up to 10 years,Standard,Personal,,1.0,,,,,,,,,,,,,,,,,,,,,,,,,,,,,,,,,,,,,,,,,,,,,,,,,,,,,,,,,,,,,,,,,,,,,,,,,,,,,,,,,,,,,,,,,,,,
"CZK 28,493","CZK 9,497",742401,2+kk,12/1/2022,53 m²,Fully furnished,3,1.0,202.93,1083.69,84.41,522.08,140.61,459.37,143.09,392.14,304.14,134.72,"Drahobejlova, Prague - Libeň",50.1057951,14.4902938,,,,,,,,,1.0,,,,,,,,,,,,,,,,,,,,,,,,,,,,,,,,,,,,,,,,,,,,,,,,,,,,,,,,,,,,,,,,,,,,,,,,,,,,,,,,,,,,,,,,,,,,,,,,,,,
"CZK 19,000","CZK 5,000",746390,2+kk,10/18/2022,60 m²,Partly,5,,156.53,769.57,163.97,196.83,54.96,160.73,222.25,158.72,446.35,81.52,"Lotyšská, Prague - Bubeneč",50.10457,14.39694,"CZK 19,000",G,Very good,Brick,,,,,,,,,,,,,,,,,,,,,,,,,,,,,,,,,,,,,,,,,,,,,,,,,,,,,,,,,,,,,,,,,,1.0,,,,,,,,,,,,,,,,,,,,,,,,,,,,,,,,,,,,,,
"CZK 13,000","CZK 3,000",131411,Studio,11/1/2022,20 m²,Fully furnished,4,,94.0,222.82,40.58,189.53,23.13,29.1,182.63,300.98,417.98,343.94,"Seifertova, Prague - Žižkov",50.0842289,14.4529373,"CZK 13,000",,Very good,Brick,,,,,,,,Over 50 years,Standard,Personal,Electric boiler,,,,,Complete,,,,,,,,,,,,,,,,,,,,,,,,,,,,,,,,,,,,,,,,,,,,,,,,,,,,,,,,,,,,,,,,,,,,,,,,,,,,,,,,,,,,,,,,
"CZK 12,000","CZK 3,000",465647,1 bedroom,11/1/2022,30 m²,Partly,2,,126.53,592.0,266.32,694.94,381.48,723.76,161.03,267.26,231.13,107.99,"Stallichova, Prague - Krč",50.0456068,14.4379265,"CZK 30,000",G,,Brick,,,,,,,,,Standard,Cooperative,Distance,,,,,,,,1.0,,,,,,,,,,,,,,,,,,,,,,,,,,,,,,,,,,,,,,,,,,,,,,,,,,,,,,,,,,,,,,,,,,,,,,,,,,,,,,,,,,,,,
"CZK 12,500","CZK 2,000",281469,2+kk,10/18/2022,46 m²,Fully furnished,4,1.0,255.23,525.99,356.3,1313.25,184.07,512.32,114.24,114.24,178.41,242.9,"Donovalská, Prague - Chodov",50.0365199404,14.5037410019,"CZK 14,500",,Very good,Prefab concrete,,,,1.0,,,,,Standard,Personal,Distance,,,,,,,,,,,,,,,,,,,,,,,,,,,,,,,,,,,,,,,,,,,,,,,,,,,,,,,,,,,,,,,,,,,,,,,,,,,,,,,,,,,,,,,,,,,,,
"CZK 30,000","CZK 10,000",718922,Studio,10/22/2022,45 m²,Fully furnished,5,1.0,241.61,542.2,98.71,270.79,176.01,313.55,455.64,821.55,633.96,593.3,"Mečislavova, Prague - Nusle",50.0633237,14.4440058,,,,,,,,,,,,,,,,,,,,,,,,,,,,,,,,,,,,,,,,,,,,,,,,,,,,,,,,,,,,,,,,,,,,,,,,,,,,,,,,,,,,,,,,,,,,,,,,,,,,,,,,,,,,
"CZK 14,900","CZK 1,500",694567,Studio,11/15/2022,33 m²,Unfurnished,,1.0,248.3,264.57,167.06,164.99,46.52,349.24,214.57,1010.88,487.71,433.95,Prague - Bubeneč,50.10124,14.42167,"CZK 15,000",C,New-build,Brick,1.0,,,,,,,Up to 10 years,Luxurious,Personal,Electric boiler,,,,,Complete,,,,,,,,,,,,,,,,1.0,,,,,,,,,,,,,,,,,,1.0,,,,,,,,,,,,,,,,,,,,,,,,,,,,,,,,,,,,,,,,,,,,,,,,,,,,,,
"CZK 10,000","CZK 2,900",367555,Studio,11/1/2022,35 m²,Fully furnished,4,,183.69,888.99,221.45,1412.77,913.01,797.1,427.84,293.79,1131.2,212.89,"Doležalova, Prague - Černý Most",50.1023394,14.5661014,"CZK 13,500",,,Prefab concrete,,,,,,,,,Standard,Personal,Distance,,,,,Complete,,,,,,,,,,,,,,,,,,,,,,,,,,,,,,,,,,,,,,,,,,,,,,,,,,,,,,,,,,,,,,,,,,,,,,,,,,,,,,,,,,,,,,,,
"CZK 14,000","CZK 4,500",745089,2 bedroom,10/13/2022,55 m²,Partly,4,1.0,232.61,146.06,13.95,221.87,10.19,63.91,278.39,443.83,1225.33,285.5,Prague - Vokovice,50.09625,14.3602,"CZK 20,000",G,Good,Prefab concrete,,1.0,,,,,,,,,,,1.0,,,,,,,,,,,,,,,,,,,,,,,,,,,,,,,,1.0,,,,,,,,,,,,,,,,,,,,,,,,,,,,,,,,,,,,,,,,,,,,,,,,,,,,,,,,,,,
"CZK 28,000","CZK 2,500",176160,2 bedroom,1/1/2023,70 m²,Partly,2,,133.03,829.41,432.73,908.52,333.24,223.95,314.46,194.34,764.18,230.23,"K dolům, Prague - Modřany",50.0025673,14.4083338,"CZK 48,000",G,Very good,Brick,,,,,,,,Over 50 years,Luxurious,Personal,,,,,,Complete,,,,,,,,,,,,,,,,,,,,,,,,,,,,,,,,,,,,,,,,,,,,,,,,,,,1.0,,,,,,,,,,,,,,,,,,,,,,,,,,,,,,,,,,,,,
"CZK 38,250","CZK 12,750",733049,3+kk,11/11/2022,78 m²,Fully furnished,5,1.0,122.69,292.83,150.02,222.27,31.53,246.25,406.08,512.95,283.22,254.06,"Křižíkova a, Prague - Karlín",50.0928722,14.4500782,,,,,,,,,1.0,,,,,,,,,,,,,,,,,,,,1.0,1.0,,,,,,,,,,,,,,,,,,,,,,,,,,,,,,,,,,,,,,,,,,,,,,,,,,,,,,,,,,,,,,,,,,,,,,,,,,,,,,
"CZK 21,000","CZK 7,000",731156,2+kk,11/25/2022,49 m²,Fully furnished,2,1.0,84.02,732.97,86.86,659.07,276.51,744,408.19,306.62,634.43,198.98,"Na Míčánkách, Prague - Vršovice",50.0713305,14.4638794,,,,,,,,,,,,,,,,,,,,,,,,,,,,,,,,,,,,,,,,,,,,,,,,,,,,,,,,,,,,,,,,,,,,,,,,,,,,,,,,,,,,,,,,,,,,,,,,,,,,,,,,,,,,
"CZK 20,000","CZK 3,000",746378,2+kk,10/18/2022,60 m²,Fully furnished,5,,63.63,119.4,39.9,137.82,256.67,192.36,557.97,312.18,423.11,305.6,"Chvalská, Prague - Hloubětín",50.10585,14.53889,"CZK 40,000",G,Very good,Brick,,1.0,,,,,,,,,,,,,,,,,,,,,,1.0,,,,,,,,,,,,,,,,,,,,,,,,,,,,,,,,,,,,,,,,,,,,,,,,,,,,,,,,,,,,,,,,,,,,,,,,,,,,,,,,
"CZK 32,000","CZK 5,000",745082,3+kk,11/1/2022,76 m²,Fully furnished,2,,323.29,1377.6,728.37,1332.13,1089.0,1228.83,1090.87,1024.81,1020.05,729.53,Prague - Hloubětín,50.10854,14.52547,"CZK 37,000",A,New-build,Brick,,,,,,,,Up to 10 years,Luxurious,,,,,,,Complete,,,,,,,,,,,,,,,,,,,,,,,,,,,,,,,,,,,,,,,,,,,,,,,,,,,,,,,,,,,,,,,,,,,,,,,,,,,,,,,,,,,,,,,,
"CZK 12,500",CZK 0,683559,1 bedroom,10/14/2022,38 m²,Unfurnished,13,1.0,62.99,804.51,86.75,804.08,551.66,78.24,373.96,681.84,957.0,222.55,"Vratislavská, Prague - Bohnice",50.13059,14.42444,"CZK 25,000",B,Very good,Prefab concrete,,,,,,,,,Standard,Personal,Central,,1.0,,,Complete,,,,,,,,,,,,,,,,,,,,,,,,,,,,,,,,,,,,,,,,,,,,,,,,,,,,1.0,,,,,,,,,,,,,,,,,,,,,,,,,,,,,,,,,,,,
"CZK 31,875","CZK 10,625",746367,2 bedroom,10/22/2022,57 m²,Fully furnished,7,1.0,7.74,76.74,105.28,213.89,45.41,117.47,178.45,327.18,381.26,239.99,"Dělnická, Prague - Holešovice",50.1031132,14.4472134,,,,,,,,,,,,,,,,,,,,,,,,,,,,,1.0,1.0,,,,,,,,,,,,,,,,,,,,,,,,,,,,,,,,,,,,,,,,,,,,,,,,,,,,,,,,,,,,,,,,,,,,,,,,,,,,,,
"CZK 40,481","CZK 13,494",742150,3+kk,11/1/2022,75 m²,Fully furnished,6,1.0,195.12,1018.19,151.41,722.84,224.35,262.66,303.64,382.55,1097.28,303.28,"Grafická, Prague - Smíchov",50.0726658,14.3919787,,,,,,,,,,,,,,,,,,,,,,,,,,,,,,,,,,,,,,,,,,,,,,,,,,,,,,,,,,,,,,,,,,,,,,,,,,,,,,,,,,,,,,,,,,,,,,,,,,,,,,,,,,,,
"CZK 37,500","CZK 12,500",733712,2+kk,10/22/2022,56 m²,Fully furnished,5,1.0,240.81,540.67,44.44,271.87,34.53,284.1,466.7,624.38,640.6,582.46,"Mečislavova, Prague - Nusle",50.0633339,14.4440155,,,,,,,,,,,,,,,,,,,,,,,,,,,,,,,,,,,,,,,,,,,,,,,,,,,,,,,,,,,,,,,,,,,,,,,,,,,,,,,,,,,,,,,,,,,,,,,,,,,,,,,,,,,,
"CZK 20,000","CZK 4,000",746366,2+kk,12/5/2022,65 m²,Unfurnished,2,1.0,253.9,961.72,321.55,859.32,645.33,312,691.31,585.21,1546.71,399.19,"Chmelařská, Prague - Jinonice",50.05646,14.3448,"CZK 20,000",C,New-build,Brick,,1.0,,,,,,,,,,,,,,,,,,,,,,,,,,,,,,1.0,,,,,,,,,,,,,,,,,,,,,,,,,,,,,,,,,,,,,1.0,,,,,,,,,,,,,,,,,,,,,,,,,,,,,,,,,,,
"CZK 19,500",CZK 0,616122,2+kk,10/15/2022,46 m²,Fully furnished,1,1.0,105.48,447.32,55.57,107.43,120.62,417.1,299.1,75.78,745.25,298.76,"Libická, Prague - Vinohrady",50.076751,14.457554,CZK 0,G,Very good,Brick,,,,,,,,,Standard,Personal,Electric boiler,,,,,Interior,,,,,,,,,,,,,,,,,,,,,,,,,,,,,,,,,,,,,,,,,,,,,,,,,,,,,,,,,,,,,,,,,,,,,,,,,,,,,,,,,,,,,,,,
"CZK 16,000","CZK 4,600",745110,Studio,10/13/2022,51 m²,Partly,2,1.0,373.67,821.45,917.68,1381.73,368.84,437.95,467.18,1260.2,388.5,390.26,Prague - Řeporyje,50.03704,14.31131,"CZK 20,000",B,Very good,Brick,,,,,,,,10 to 30 years,Standard,Personal,Central,,,,,,,,1.0,,,,,,,,,,,,,,,,,,,,,,,,,,,,,,,,,,,,,,,,,,,,,,,1.0,,,,,,,,,,,,,,,,,,,,,,,,,,,,,,,,,,,,,,
"CZK 41,625","CZK 13,875",720848,4+kk,10/22/2022,112 m²,Fully furnished,4,1.0,168.35,737.87,30.76,217.13,7.9,216.51,106.1,336.15,114.49,565.37,"Ostrovní, Prague - Nové Město",50.0806286,14.4175374,,,,,,,,,,,,,,,,,,,,,,,,,,,,,1.0,1.0,,,,,,,,,,,,,,,,,,,,,,,,,,,,,,,,,,,,,,,,,,,,,,,,,,,,,,,,,,,,,,,,,,,,,,,,,,,,,,
"CZK 31,680","CZK 10,560",730431,3+1,11/1/2022,111 m²,Fully furnished,1,,208.61,131.46,936.81,2564.81,336.74,613.32,243.84,2102.93,1889.94,338.05,"K Zámku, Prague - Dolní Počernice",50.0890765,14.5799076,,,,,,,,,,,,,,,,,,,,,,,,,,,,,1.0,1.0,,,,,,,,,,,,,,,,,,,,,,,,,,,,,,,,,,,,,,,,,,,,,,,,,,,,,,,,,,,,,,,,,,,,,,,,,,,,,,
"CZK 18,300","CZK 1,500",624279,3+kk,12/1/2022,52 m²,,2,,215.16,586.2,164.17,470.6,188.39,302.5,110.53,688.16,172.84,443.61,"Umělecká, Prague - Holešovice",50.102638,14.427271,"CZK 39,600",G,Good,Brick,,,,,,,,,,Personal,,,,,,,,,,,,,,,,,,,,,,,,,,,,,,,,,,,,,,,,,,,,,,,,,,,,,,,,,,,,,,,,,,,,,,,,,,,,,,,,,,,,,,,,,,,,,,
"CZK 12,990","CZK 3,924",746351,2+kk,10/20/2022,32 m²,Fully furnished,5,1.0,235.83,557.36,240.14,646.54,376.16,642.67,1149.68,477.86,1219.93,131.45,"Peroutkova, Prague - Jinonice",50.05863194444,14.37728555555,"CZK 16,914",C,Very good,Prefab concrete,,,,,,,,,,Personal,,,,,,,,,,1.0,,,,,,,,,,,,,,,,,,,,,,,,,,,,,,,,,,,"CZK 16,914",,,,,,,,,,,,,,,,,,,,,,,,,,,,,,,,,,,,,,,,,,,,,,,,,
"CZK 23,900","CZK 4,900",746315,3+kk,10/18/2022,80 m²,Partly,2,,324.82,2458.54,265.94,2130.79,220.09,372.95,922.34,1858.16,878.13,448.42,"U Homolky, Prague - Motol",50.07235,14.34775,"CZK 40,000",E,Very good,Brick,,,,,1.0,1.0,,,,,,,,,,,1.0,,,,,,,,,,,,,,,,,,,,1.0,,,,,,,,,,,,,,,,,,,,,,,,,,,,,,,,,,,,,,,,,,,,,,,,,,,,,,,,,,,,,,,,,,,
"CZK 14,000","CZK 4,000",746345,2 bedroom,10/18/2022,42 m²,Partly,1,,148.47,1621.35,780.62,2759.71,1793.98,2419.41,1393.18,2301.18,363.53,507.8,Prague - Malá Chuchle,50.02361,14.39405,"CZK 28,000",C,Good,Brick,,1.0,,,,,,,,,,,,,,,,,,,,,,,,,,,,,,,,,,,,,,,,,,,,,,,,,,,,,,,,,,,,,,,,,,,,,,,,,,,,,,,,,,,,,,,,,,,,,,,,,,,,,,
"CZK 74,813","CZK 24,937",740299,4+1,11/30/2022,136 m²,Fully furnished,3,1.0,305.35,603.07,123.44,366.02,52.59,406,368.79,628.46,396.1,92.23,"Betlémská, Prague - Staré Město",50.0837893,14.416317,,,,,,,,,,,,,,,,,,,,,,,,,,,,,,,,,,,,,,,,,,,,,,,,,,,,,,,,,,,,,,,,,,,,,,,,,,,,,,,,,,,,,,,,,,,,,,,,,,,,,,,,,,,,
"CZK 29,925","CZK 9,975",731240,1 bedroom,10/22/2022,30 m²,Fully furnished,2,1.0,22.29,481.37,107.82,95.32,6.34,158.39,351.4,425.94,380.79,468.94,"Legerova, Prague - Vinohrady",50.0749602,14.4305105,,,,,,,,,,,,,,,,,,,,,,,,,,,,,,,,,,,,,,,,,,,,,,,,,,,,,,,,,,,,,,,,,,,,,,,,,,,,,,,,,,,,,,,,,,,,,,,,,,,,,,,,,,,,
"CZK 11,500","CZK 7,000",746266,2+kk,11/1/2022,48 m²,Partly,2,,52.86,1172.55,942.08,1062.97,780.53,1093.65,1023.34,1020.89,955.8,684.62,Prague - Hlubočepy,50.03816,14.38894,"CZK 5,000",G,Good,Brick,,,,,,,,,,Personal,,,,,,,,,,,,,1.0,,,,,,,,,,,,,,,,,,,,,,,,,,,,,,,,,,,,,,,,,,,,,,,,,,,,,,,,,,,,,,,,,,,,,,,,,,,,,,,,,
"CZK 42,075","CZK 14,025",746320,2 bedroom,10/30/2022,62 m²,Fully furnished,6,1.0,73.01,281.28,58.33,478.54,20.37,379.07,102.37,138.49,668.56,481.36,"Francouzská, Prague - Vinohrady",50.0739894,14.440101,,,,,,,,,,,,,,,,,,,,,,,,,,,,,,,,,,,,,,,,,,,,,,,,,,,,,,,,,,,,,,,,,,,,,,,,,,,,,,,,,,,,,,,,,,,,,,,,,,,,,,,,,,,,
"CZK 20,000","CZK 5,000",745050,2 bedroom,1/2/2023,59 m²,Fully furnished,6,1.0,67.7,199.8,126.83,640.35,111.39,70.94,284.54,284.54,307.97,239.17,"Kubánské náměstí, Prague - Vršovice",50.07052,14.47844,"CZK 20,000",G,Very good,Brick,1.0,,,,,,,,,,,,,,,,,,,,,,,,,,,,,,,,,,,,,,,,,,,,,,,,,,,,,,,,,,,,,,,,,,,,,,,,,,,,,,,,,,,,,,,,,,,,,,,,,,,,,,,
"CZK 15,000","CZK 4,000",746247,1 bedroom,11/1/2022,45 m²,Partly,1,1.0,7.86,758.59,156.4,454.01,26.06,422.54,691.8,859.05,241.9,404.26,Prague - Holešovice,50.10481,14.45562,"CZK 15,000",G,Good,Brick,,1.0,,,,,,,,,,,,,,,,,,,,,,,,,,,,,,,,,,,,,,,,,,,,,,,,,,,,,,,,,,,,,,,,,,,,,,,,,,,,,,,,,,,,,,,,,,,,,,,,,,,,,,
"CZK 23,500",CZK 0,746276,2 bedroom,12/1/2022,60 m²,Partly,1,,284.76,1454.38,267.07,1090.58,264.67,245.75,539.04,641.16,361.46,213.96,"Nad Šárkou, Prague - Dejvice",50.10541,14.37119,"CZK 47,000",G,Good,Brick,,,,,,,,,,,,,,,,,,,,,,,,,,,,,,,,,,,,,,,,,,,,,,,,,,,,,,,,,,,,,,,,,,,,,,1.0,,,,,,,,,,,,,,,,,,,,,,,,,,,,,,,,,,
"CZK 16,000","CZK 7,000",746284,2 bedroom,12/1/2022,52 m²,Partly,2,,238.26,410.58,189.07,396.15,403.95,312.74,277.6,236.27,1040.19,32.29,"Na Okraji, Prague - Veleslavín",50.09112,14.34756,"CZK 23,000",G,Good,Brick,,1.0,,,,,,30 - 50 years,Standard,Cooperative,Central,,,,,,,,1.0,,,,,,,,,,,,,,,,,,,,,,,,,,,,,,,,,,,,,,,,,,,,,,,,,,,,,,,,,,,,,,,,,,,,,,,,,,,,,,,,,,,,,
"CZK 21,500","CZK 4,000",746310,3+kk,11/1/2022,79 m²,Partly,4,1.0,299.89,1219.74,1096.93,2515.21,49.57,384.2,725.49,1663.97,1521.51,78.27,"V Zeleném údolí, Prague - Kunratice",50.02105,14.46609,"CZK 24,000",B,Very good,Brick,,,,,1.0,,,,,,,,,,,,,,,,,,,,,,,,,,,,,,,,,,,,,,,,,,,,,,,,,,,,,,,,,,,,,,,,,,1.0,,,,,,,,,,,,,,,,,,,,,,,,,,,,,,,,,
"CZK 17,000","CZK 4,000",744678,1 bedroom,11/1/2022,40 m²,Partly,1,,195.39,371.11,113.17,318.76,4.68,177.3,352.42,361.14,291.98,366.55,Prague - Karlín,50.09224,14.44274,"CZK 25,000",G,Very good,Brick,,,,,,,,,,,,,1.0,,,,,,,,,,,,,,,,,,,,,,,,,,,,,,,,,,,,,,,,,,,,,,,,,,,,,,,,,,,,,,,,,,,,,,,,,,,,,,,,,,,,,,,,,,,
"CZK 25,000","CZK 7,420",746293,3+kk,2/1/2023,75 m²,Unfurnished,3,,110.68,1051.98,78.43,235.61,317.51,401.71,343.2,625.49,1092.38,223.56,Prague - Kobylisy,50.1238,14.44957,"CZK 35,000",G,Very good,Brick,1.0,,,,,,,,Luxurious,,Central,,,,,Complete,,,,,1.0,,,,,,,,,,,,,,,,,,,,,,,,,,,,,,,,,,,,,,,,,,,,,,,,,,,,,,,,,,,,,,,,,,,,,,,,,,,,,,,,,,,
"CZK 35,000",CZK 0,746290,3+kk,10/30/2022,100 m²,Fully furnished,2,1.0,91.07,448.7,86.43,440.13,17.29,443.11,266.22,545.91,268.72,412.57,"Husitská, Prague - Žižkov",50.08738,14.45211,"CZK 34,998",A,Very good,Other,,,,,1.0,,,,,,,,,,,,,,,,,,,,,,,,,,,1.0,,,,,,,,,,,,,,,,,,,,,,,,,,,,,,,,,,,,,,,,1.0,,,,,,,,,,,,,,,,,,,,,,,,,,,,,,,,
"CZK 14,490","CZK 3,214",746281,Studio,10/20/2022,41 m²,Partly,4,1.0,369.55,606.73,982.5,1185.69,391.77,722.92,971.34,895.64,288.68,390.86,"Škrábkových, Prague - Letňany",50.14091083333,14.51861805555,"CZK 17,704",B,Very good,Brick,,1.0,,,,,,,,Personal,,,,,,,,,,1.0,,,,,1.0,,,,,,,,,,,,,,,,,,,,,,,,,,,,,,"CZK 17,704",,,,,,,,,,,,,,,,,,,,,,,,,,,,,,,,,,,,,,,,,,,,,,,,,
"CZK 28,000","CZK 6,558",744686,4+kk,10/10/2022,86 m²,Partly,4,1.0,115.09,232.26,104.19,202.12,115.51,115.98,298.16,247.74,996.48,121.69,"Petržílkova, Prague - Stodůlky",50.05055,14.34251,"CZK 37,000",C,New-build,Brick,,1.0,,,1.0,,,,,,,,,,,,,,,,,,,,,,,,,,,,,,,,,,,,,,,,,,,,,,,,,,,,,,,,,,,,,,,,,,,,,,,,,,,,,,,,,,,,,,,,,,,,,,,,,,,
"CZK 19,500","CZK 4,558",743593,2 bedroom,10/13/2022,53 m²,Partly,5,1.0,68.47,1024.35,99.34,338.92,104.21,311.36,123.31,366.99,678.07,110.42,Prague - Bubeneč,50.10685,14.39612,"CZK 25,000",G,Good,Brick,,1.0,,,1.0,,,,,,Central,,,,,,,,1.0,,,,,,,,,,,,,,,,,,,,,,,,,,,,,,,,,,,,,,,,,,,,,,,,,,,,,,,,,,,,,,,,,,,,,,,,,,,,,,,,,,,,,
"CZK 16,990","CZK 3,000",745442,1 bedroom,10/24/2022,37 m²,Partly,4,,73.13,649.66,191.22,1162.14,190.47,124.32,919.62,725.78,818.98,527.72,"Na Neklance, Prague - Smíchov",50.06122,14.40449,"CZK 17,000",G,Very good,Low-energy,1.0,1.0,,,,,,,,,,,,,,,,,,,,,,,,,,,,,,,,,,,,,,,,,,,,,,,,,,,,,,,,,,,,,,,,,,,,,,,,,,,,,,,,,,,,,,,,,,,,,,,,,,,,,,
"CZK 14,000","CZK 3,200",746279,1 bedroom,11/1/2022,55 m²,Fully furnished,,,314.94,877.4,111.16,387.88,78.17,208.59,515.29,987.39,398.91,899.23,"U Smaltovny, Prague - Holešovice",50.10297,14.43574,"CZK 28,000",E,Very good,Brick,,,,,,,,,,,,,,,,,,,,,,,,,,,,,,,,,,,,,,,,,,,,,,,,,,,,,,,,,,,,,,,,,,,,,,,,,,,,,,,,,,,,,,,,,,,,,,,,,,,,,,,,
"CZK 12,188","CZK 4,062",745149,1 bedroom,11/1/2022,80 m²,Fully furnished,5,1.0,113.8,339.96,97.8,888.62,130.7,708.04,240.3,257.58,514.15,165.05,"Voskovcova, Prague - Hlubočepy",50.0299891,14.3690326,,,,,,,,,,,,,,,,,,,,,,,,,,,,,,,,,,,,,,,,,,,,,,,,,,,,,,,,,,,,,,,,,,,,,,,,,,,,,,,,,,,,,,,,,,,,,,,,,,,,,,,,,,,,
"CZK 18,900","CZK 2,149",390465,2+kk,11/1/2022,56 m²,Partly,5,1.0,350.62,774.96,143.31,764.62,466.54,889.26,260.82,2106.59,1099.37,88.37,"Tulešická, Prague - Zličín",50.0587978,14.2829235,"CZK 25,000",C,,Brick,,,,,1.0,,,,,Personal,,,,,,,,,,,,,,,,,,,,,,,,,,1.0,,,,,,,,,,,,,,,,,,,,,,,,,,,,,,,,,,,,,,,,,,,,,,,,,,,,,,,,,,,,,,,,,,,,
"CZK 12,000","CZK 5,000",180353,Studio,10/18/2022,25 m²,Fully furnished,5,1.0,74.14,204.1,72.93,279.74,86.81,366.1,416.76,568.98,394.6,236.02,"Minská, Prague - Vršovice",50.0669648,14.4568866,"CZK 20,000",G,Very good,Brick,,,,,,,,,Standard,Personal,,,,,,,,,,,,,,,,,,,,,,,,,,,,,,,,,,,,,,,,,,,,,,,,,,,,,,,,,,,,,,,1.0,,,,,,,,,,,,,,,,,,,,,,,,,,,,,,,
"CZK 12,000","CZK 3,246",591943,2+kk,11/1/2022,44 m²,Unfurnished,4,1.0,260.43,1301.45,57.54,1690.69,512.07,453.27,143.12,768.12,1735.53,101.74,"Zdiměřická, Prague - Chodov",50.023694,14.512249,"CZK 20,000",G,Good,Prefab concrete,,,,,,,,30 - 50 years,,Personal,Distance,,,,,,,,,,,,,,,,,,,,,,,,,,,,,,,,,,,,,,,,,,,,,,,,,,,,,,,,,,,,,,,,,,,,,,,,,,,,,,,,,,,,,,,,,,,,,
"CZK 18,500","CZK 2,000",476398,2+kk,12/1/2022,48 m²,Fully furnished,5,,315.66,467.84,146.44,303.55,120.03,260.61,235.31,544.52,653.7,278.03,"Za Zelenou liškou, Prague - Krč",50.0462954,14.4431616,"CZK 25,000",,,Brick,,,,,,,,,,Personal,,,,,,,,,,,,,,,,,,,,,,,,,,,,,,,,,,,,,,,,,,,,,,,,,,,,,,,,,,,,,,,,,,,,,,,,,,,,,,,,,,,,,,,,,,,,,,
"CZK 14,500","CZK 4,000",742169,Studio,10/1/2022,35 m²,Partly,3,,282.39,491.2,238.33,617.43,208.01,411.04,262.07,457.2,219.92,361.96,Prague - Vinohrady,50.06605,14.43413,"CZK 14,500",D,Good,Brick,1.0,,,,,,,,,,,,,,,,,,,,,,,,,,,,,,,,,,,,,,,,,,,,,,,,,,,,,,,,,,,,,,,,,,,,,,,,,,,,,,,,,,,,,,,,,,,,,,,,,,,,,,,
"CZK 15,000","CZK 3,000",684540,2+kk,12/15/2022,36 m²,Partly,10,1.0,232.68,253.84,184.93,323.97,117.69,268.2,784.64,947.04,1288.25,395.85,"Hnězdenská, Prague - Troja",50.1263923,14.4205116,"CZK 30,000",G,Very good,Other,,,,,,,,,,Personal,Distance,,,,,,,,,,,,,,,,,,,,,,,,,,,,,,,,,,,,,,,,,,,,,,,,,,,,,,,,,,,,,,,,,,,,,,,,,,,,,,,,,,,,,,,,,,,,,
"CZK 14,000",CZK 570,191528,2+kk,11/1/2022,48 m²,Partly,2,,256.21,373.61,215.13,765.39,147.92,459,346.45,567.17,529.79,327.7,"U Nikolajky, Prague - Smíchov",50.066729016086,14.3962244431,"CZK 28,000",,,Brick,,,,,,,,,,Personal,,,,,,,,,,,,,,,,,,,,,,,,,,,,,,,,,,,,,,,,,,,,,,,,,,,,,,,,,,,,,,,,,,,,,,,,,,,,,,,,,,,,,,,,,,,,,,
"CZK 13,500","CZK 3,000",743238,2 bedroom,1/1/2023,60 m²,Fully furnished,1,,152.23,474.1,229.59,415.47,123.37,351.35,85.55,210.75,482.1,93.9,Prague - Břevnov,50.08639,14.34647,"CZK 20,000",G,Good,Prefab concrete,1.0,,,,,,,,,,,,1.0,,,,,,,,,,,,,,,,,,,,,,,,,,,,,,,,,,,,,,,,,,,,,,,,,,,,,,,,,,,,,,,,,,,,,,,,,,,,,,,,,,,,,,,,,,,
"CZK 19,000","CZK 4,000",746114,Studio,12/1/2022,25 m²,Fully furnished,1,1.0,549.23,662.36,441.09,761.17,468.73,740,498.65,448.69,636.62,748.27,"Perucká, Prague - Vinohrady",50.06851,14.43809,"CZK 40,000",C,New-build,Prefab concrete,,1.0,,,,,,,,,,,,,,,,,,,,,,,,,,,,,,1.0,,,,,,,,,,,,,,,,,,,,,,,,,,,,,,,,,,,,,,,,,,,,,,,,,,,,,,,,,,,,,,,,,,,,,,,,
"CZK 19,366","CZK 1,634",743786,1 bedroom,11/15/2022,45 m²,Unfurnished,3,1.0,129.24,11.67,129.87,643.14,94.89,101.48,197.83,270.2,412.1,242.21,"Litevská, Prague - Vršovice",50.07158,14.47671,"CZK 42,000",D,Very good,Brick,,,,,,,,,,,,,,,,,,,,,,,,,,,,,,,,,,,,,,,,,,,,,,,,,,,,,,,,,,,,,,,,,,,,,,,,,,,,,,,,,,,,,,,,,,,,,,,,,,,,,,,,
"CZK 19,500","CZK 5,500",743419,2+kk,10/2/2022,67 m²,Partly,5,1.0,223.84,298.22,216.33,267.31,211.61,336.6,332.5,624.56,561.12,123.08,"Václavkova, Prague - Dejvice",50.09718,14.39754,"CZK 65,000",G,Very good,Brick,,,,,,,,,,,,,,,,,,,,1.0,,,,,,,,,,,,,,,,,,,,,,,,,,,,,,,,,,,,,,,,,,,,,,,,,,,,,,,,,,,,,,,,,,,,,,,,,,,,,,,,,,,,
"CZK 13,500",CZK 700,605573,2 bedroom,11/1/2022,76 m²,,4,,104.13,1556.73,111.23,982.92,154.02,551.34,434.28,836.5,518.5,304.41,"Braunerova, Prague - Libeň",50.112882,14.474947,"CZK 13,500",G,Good,Brick,,,,,,,,,,Personal,,,,,,,,,1.0,,,,,,,,,,,,,,,,,,,,,,,,,,,,,,,,,,,,,,,,,,,,,,,,,,,,,,,,,,,,,,,,,,,,,,,,,,,,,,,,,,,,,
"CZK 18,000","CZK 1,000",697622,2+kk,10/21/2022,42 m²,Partly,1,,292.69,656.94,498.74,327.69,154.18,1254.37,385.86,685.76,207.05,339.6,"Pod Stárkou, Prague - Michle",50.0576031,14.4536973,"CZK 19,000",B,New-build,Low-energy,,1.0,,,,,,,Luxurious,Personal,Central,,,,,,,,,,,,,,1.0,,,,,,,,,,,,,,,,1.0,,,,,,,,,,,,,,,,,1.0,,,,,,,,,,,,,,,,,,,,,,,,,,,,,,,,,,,,,,,,,,,,,,
"CZK 18,000","CZK 5,000",746232,3+kk,11/1/2022,67 m²,Partly,3,,49.8,1433.0,52.85,115.73,306.85,65.74,1324.76,24.26,3904.85,839.5,Prague - Zbraslav,49.97449,14.39298,"CZK 18,000",B,Very good,Brick,,,,,,,,,,,,,,,,,,,,,,,,,,,,,,,,,,,,,,,,,,,,,,,,,,,,,,,,,,,,,,,,,,,,,,,,,,,,,,,,,,,,,,,,,,,,,,,,,,,,,,,,
"CZK 59,408","CZK 19,802",742058,4+1,10/22/2022,219 m²,Fully furnished,6,1.0,122.69,292.83,150.02,222.27,31.53,246.25,406.08,512.95,283.22,254.06,"Křižíkova a, Prague - Karlín",50.0928722,14.4500782,,,,,,,,,1.0,,,,,,,,,,,,,,,,,,,,1.0,1.0,,,,,,,,,,,,,,,,,,,,,,,,,,,,,,,,,,,,,,,,,,,,,,,,,,,,,,,,,,,,,,,,,,,,,,,,,,,,,,
"CZK 12,000","CZK 3,500",745024,1 bedroom,10/13/2022,38 m²,Unfurnished,1,,216.79,807.44,95.38,480.2,230.51,604.73,565.13,688.42,625.05,286.59,"Pod Vilami, Prague - Nusle",50.06056,14.44615,"CZK 15,000",G,Very good,Brick,,,,,,,,,,,,,,,,,,,,,,,,,,,,,,,,,,,,,,,,,,,,,,,,,,,,,,,,,,,,,,,,,,,,,,,,,,,,,,,,,,,,,,,,,,,,,,,,,,,,,,,,
"CZK 36,675","CZK 12,225",742243,2+kk,11/25/2022,48 m²,Fully furnished,2,1.0,170.48,421.6,257.32,426.75,52.86,339.7,54.65,63.39,473.33,754.41,"Balbínova, Prague - Vinohrady",50.0795659,14.4357789,,,,,,,,,,,,,,,,,,,,,,,,,,,,,,,,,,,,,,,,,,,,,,,,,,,,,,,,,,,,,,,,,,,,,,,,,,,,,,,,,,,,,,,,,,,,,,,,,,,,,,,,,,,,
"CZK 22,125","CZK 7,375",743334,1 bedroom,12/1/2022,54 m²,Fully furnished,2,1.0,256.43,673.8,672.43,1344.08,205.23,475.07,299.92,396.69,376.69,229.89,"Slévačská, Prague - Hloubětín",50.1044601,14.5518792,,,,,,,,,,,,,,,,,,,,,,,,,,,,,,,,,,,,,,,,,,,,,,,,,,,,,,,,,,,,,,,,,,,,,,,,,,,,,,,,,,,,,,,,,,,,,,,,,,,,,,,,,,,,
"CZK 27,600","CZK 9,200",745022,Studio,12/12/2022,35 m²,Fully furnished,1,1.0,237.21,722.71,270.23,1114.48,162.06,485.4,549.42,612.82,571.2,287.12,"U Nikolajky, Prague - Smíchov",50.0656652,14.3917771,,,,,,,,,1.0,,,,,,,,,,,,,,,,,,,,1.0,1.0,,,,,,,,,,,,,,,,,,,,,,,,,,,,,,,,,,,,,,,,,,,,,,,,,,,,,,,,,,,,,,,,,,,,,,,,,,,,,,
"CZK 24,581","CZK 8,194",743331,Studio,12/1/2022,28 m²,Fully furnished,1,,194.2,798.76,138.2,283.7,89.62,474.09,247.17,335.61,500.98,81.99,"U Zeměpisného ústavu, Prague - Bubeneč",50.1033901,14.4020568,,,,,,,,,,,,,,,,,,,,,,,,,,,,,,,,,,,,,,,,,,,,,,,,,,,,,,,,,,,,,,,,,,,,,,,,,,,,,,,,,,,,,,,,,,,,,,,,,,,,,,,,,,,,
"CZK 35,063","CZK 11,687",742129,2 bedroom,11/1/2022,85 m²,Fully furnished,6,1.0,228.78,477.17,188.19,476.21,152.93,354.17,176.92,420.71,579.69,570.91,"Wenzigova, Prague - Nové Město",50.0708256,14.4316409,,,,,,,,,,,,,,,,,,,,,,,,,,,,,1.0,1.0,,,,,,,,,,,,,,,,,,,,,,,,,,,,,,,,,,,,,,,,,,,,,,,,,,,,,,,,,,,,,,,,,,,,,,,,,,,,,,
"CZK 31,500","CZK 10,500",746228,2 bedroom,12/17/2022,75 m²,Fully furnished,3,1.0,286.21,293.35,195.84,193.77,92.11,378.02,243.35,1039.65,522.33,334.73,"Čechova, Prague - Bubeneč",50.1016621,14.4210737,,,,,,,,,,,,,,,,,,,,,,,,,,,,,,,,,,,,,,,,,,,,,,,,,,,,,,,,,,,,,,,,,,,,,,,,,,,,,,,,,,,,,,,,,,,,,,,,,,,,,,,,,,,,
"CZK 46,530","CZK 15,510",746227,2 bedroom,12/17/2022,48 m²,Fully furnished,2,,158.42,248.82,154.82,246.13,112.68,264.3,390.21,408.3,154.53,114.55,"Řásnovka, Prague - Staré Město",50.0918754,14.4250902,,,,,,,,,,,,,,,,,,,,,,,,,,,,,,,,,,,,,,,,,,,,,,,,,,,,,,,,,,,,,,,,,,,,,,,,,,,,,,,,,,,,,,,,,,,,,,,,,,,,,,,,,,,,
"CZK 63,413","CZK 21,137",746226,3+kk,12/17/2022,62 m²,Fully furnished,3,1.0,2.22,191.43,20.53,48.07,1.19,48.35,128.16,305.9,208.92,259.31,"Dlouhá, Prague - Staré Město",50.0907943,14.427063,,,,,,,,,,,,,,,,,,,,,,,,,,,,,,,,,,,,,,,,,,,,,,,,,,,,,,,,,,,,,,,,,,,,,,,,,,,,,,,,,,,,,,,,,,,,,,,,,,,,,,,,,,,,
"CZK 33,750","CZK 11,250",746225,2+kk,12/17/2022,75 m²,Fully furnished,6,1.0,163.79,319.88,110.55,226.38,103.86,407.78,227.16,243.22,785.75,360.1,"Na Zbořenci, Prague - Nové Město",50.0769346,14.4169603,,,,,,,,,,,,,,,,,,,,,,,,,,,,,1.0,1.0,,,,,,,,,,,,,,,,,,,,,,,,,,,,,,,,,,,,,,,,,,,,,,,,,,,,,,,,,,,,,,,,,,,,,,,,,,,,,,
"CZK 32,400","CZK 10,800",746224,2 bedroom,12/17/2022,65 m²,Fully furnished,5,1.0,163.79,319.88,110.55,226.38,103.86,407.78,227.16,243.22,785.75,360.1,"Na Zbořenci, Prague - Nové Město",50.0769346,14.4169603,,,,,,,,,,,,,,,,,,,,,,,,,,,,,,,,,,,,,,,,,,,,,,,,,,,,,,,,,,,,,,,,,,,,,,,,,,,,,,,,,,,,,,,,,,,,,,,,,,,,,,,,,,,,
"CZK 30,000","CZK 10,000",746223,2+kk,12/17/2022,67 m²,Fully furnished,2,1.0,190.62,1447.15,484.7,1260.45,182.11,737.34,559.67,596.72,660.13,404.95,"V Zahradách, Prague - Libeň",50.1148427,14.4750191,,,,,,,,,1.0,,,,,,,,,,,,,,,,,,,,1.0,1.0,,,,,,,,,,,,,,,,,,,,,,,,,,,,,,,,,,,,,,,,,,,,,,,,,,,,,,,,,,,,,,,,,,,,,,,,,,,,,,
"CZK 16,000","CZK 3,000",746221,1 bedroom,10/17/2022,45 m²,Partly,2,1.0,201.57,585.57,47.99,684.45,193.71,421.51,363.76,267.7,337.41,532.05,"Novgorodská, Prague - Vršovice",50.06472,14.45098,"CZK 50,000",G,Very good,Brick,1.0,1.0,,,,,,,,,,,1.0,,,Complete,,,,,1.0,,,,,,,,,,,,,,,,,,,,,,,,,,,,,,,,,,,,,,,,,,,,,,,,,,,,,,,,,,,,,,,,,,,,,,,,,,,,,,,,,,,
"CZK 32,000","CZK 6,000",744995,4+1,11/1/2022,100 m²,Unfurnished,1,,332.92,496.76,464.44,2244.27,482.91,368.22,126.22,1304.29,1307.45,476.97,"Navigátorů, Prague - Liboc",50.09243,14.31163,"CZK 50,000",G,Very good,Prefab concrete,,1.0,,,1.0,,,Up to 10 years,Luxurious,,Central,,,,,Complete,,,,,,,,,,,,,,,,,,,,,,,,,,,,,,,,,,,,,,,,,,,,,,,,,,,,,,,,,,1.0,1.0,,,,,,,,,,,,,,,,,,,,,,,,,,,,,
"CZK 22,000",CZK 775,705074,2 bedroom,2/3/2022,84 m²,Partly,3,1.0,248.79,693.52,178.58,597.23,44.85,525.88,53.92,488.2,477.59,359.3,"Žateckých, Prague - Nusle",50.06199,14.43511,"CZK 40,000",G,Very good,Brick,,,,,,,,Over 50 years,Standard,Personal,,,,,,,,,,,,,,,,,,,,,,,,,,,,,,,,1.0,,,,,,,,,,,,,,,,,,,,,,,,,,,,,,,,,,,,,,,,,,,,,,,,,,,,,,,,,,,,,,
"CZK 24,750","CZK 8,250",744147,1 bedroom,12/4/2022,33 m²,Fully furnished,2,,135.92,324.33,21.29,391.1,0.72,128.36,277.99,286.71,365.94,338.43,"Sokolovská, Prague - Karlín",50.0922065,14.4436651,,,,,,,,,,,,,,,,,,,,,,,,,,,,,1.0,1.0,,,,,,,,,,,,,,,,,,,,,,,,,,,,,,,,,,,,,,,,,,,,,,,,,,,,,,,,,,,,,,,,,,,,,,,,,,,,,,
"CZK 13,600","CZK 6,900",746161,2 bedroom,11/14/2022,55 m²,Fully furnished,3,,166.79,356.9,9.17,99.93,77.53,187.58,193.16,303.32,290.35,421.51,Prague - Břevnov,50.08417,14.3687,"CZK 40,000",E,Very good,Brick,,,,,,,,,,,,,,,,,,,,,,,,,,,,,,,,,,,,,,,,,,1.0,,,,,,,,,,,,,,,,,,,,,,,,,,,,,,,,,,,,,,,,,,,,,,,,,,,,,,,,,,,,,,
"CZK 19,000","CZK 3,000",746158,2+kk,10/17/2022,42 m²,Fully furnished,6,1.0,387.66,1161.08,368.36,1479.67,607.87,589.53,635.66,1274.38,419.38,636.25,"Ginzova, Prague - Záběhlice",50.05613,14.48895,"CZK 38,000",G,Very good,Brick,,,,,1.0,,,,,,,,,,,,,,,,,,,,,,,,,,,,,,,,,,,,,1.0,,,,,,,,,,,,,,,,,,,,,,,,,,,,,,,,,,,,,,,,,,,,,,,,,,,,,,,,,,,,,,
"CZK 17,000","CZK 3,700",746149,2 bedroom,10/17/2022,56 m²,Fully furnished,2,,48.07,1392.6,13.55,1318.41,71.63,1492.74,349.48,275.79,515.7,616.65,Prague - Podolí,50.04694,14.41511,"CZK 34,000",G,Very good,Brick,,1.0,,,,,,,,,,,,,,,,,,,,,,,,,,,,,,,,,,,,,,,,,,,,,,,,,,,,,,,,,,,,,,,,,,,,,,,,,,,,,,,,,,,,,,,,,,,,,,,,,,,,,,
"CZK 19,000","CZK 2,100",744982,2+kk,12/1/2022,56 m²,Fully furnished,5,,137.07,126.64,8.03,93.34,22.38,67.09,242.0,396.84,354.99,434.46,Prague - Žižkov,50.08438,14.45175,"CZK 19,000",G,Very good,Brick,,,,,,,,,,,,,1.0,,,,,,,,,,,,,,,,,,,,,,,,,,,,,,,,,,,,,,,,,,,,,,,,,,,,,,,,,,,,,,,,,,,,,,,,,,,,,,,,,,,,,,,,,,,
"CZK 30,000","CZK 3,000",648470,4+1,11/1/2022,120 m²,Fully furnished,3,,249.63,641.92,222.88,284.81,115.39,374.62,669.49,474.73,460.19,340.99,"Vltavská, Prague - Smíchov",50.069819,14.407961,"CZK 30,000",F,Very good,Other,,,,,,,,,Standard,Personal,Gas boiler,,,,,Complete,,,,,,,,,,,,,,,,,,,,,,,,,,,,,,,,,,,,,,,,,,,,,,,,,,,,,,,,,,,,,,,,,,,,,,,,,,,,,,,,,,,,,,,,
"CZK 18,750","CZK 6,250",742817,3+1,11/24/2022,90 m²,Fully furnished,2,1.0,82.8,397.93,96.94,404.98,135.48,353.78,131.46,217.55,654.74,661.34,"Blanická, Prague - Vinohrady",50.0746503,14.439294,,,,,,,,,,,,,,,,,,,,,,,,,,,,,,,,,,,,,,,,,,,,,,,,,,,,,,,,,,,,,,,,,,,,,,,,,,,,,,,,,,,,,,,,,,,,,,,,,,,,,,,,,,,,
"CZK 11,453","CZK 3,817",745100,4+kk,11/21/2022,60 m²,Fully furnished,-1,,128.07,590.39,54.39,441.02,27.54,567.88,151.31,255.51,710.79,142.74,"Masarykovo nábřeží, Prague - Nové Město",50.0778219,14.4145055,,,,,,,,,,,,,,,,,,,,,,,,,,,,,,,,,,,,,,,,,,,,,,,,,,,,,,,,,,,,,,,,,,,,,,,,,,,,,,,,,,,,,,,,,,,,,,,,,,,,,,,,,,,,
"CZK 12,500","CZK 3,000",746118,Studio,10/17/2022,35 m²,Fully furnished,2,,201.93,691.02,142.92,614.07,135.65,655.7,425.06,202.6,531.27,193.61,"Vondroušova, Prague - Řepy",50.06449,14.30157,"CZK 25,000",G,Very good,Prefab concrete,,1.0,,,,,,,,,,,1.0,,,,,,,,,,,,,,,,,,,,,,,,,,,,,,,,,,,,,,,,,,,,,,,,,,,,,,,,,,,,,,,,,,,,,,,,,,,,,,,,,,,,,,,,,,,
"CZK 12,000","CZK 6,000",441084,2+kk,10/17/2022,40 m²,Partly,13,1.0,290.5,1478.11,6.35,1675.83,6.35,764.19,1025.9,1352.52,742.75,563.81,"Štúrova, Prague - Krč",50.0297479,14.4497107,"CZK 20,000",C,Good,Prefab concrete,,,,,,,,30 - 50 years,Standard,Personal,Central,,,,,Complete,,,,,,,,,,,,,,,,,,,,,,,,,,,,,,,,,,,,,,,,,,,,,,,,,,,,,,,,,,,,,,,,,,,,,,,,,,,,,,,,,,,,,,,,
"CZK 35,000","CZK 7,000",746109,3+kk,10/17/2022,121 m²,Fully furnished,5,1.0,204.78,606.46,143.9,258.53,101.25,231.7,634.03,439.27,424.73,489.24,"Jindřicha Plachty, Prague - Smíchov",50.07062,14.40669,"CZK 35,000",G,Very good,Brick,,1.0,,,,,,,,Personal,,,,,,Complete,,,,,,,,,,,,,,,,,,,,,,,,,,,,,,,1.0,,,,,,,,,,,,,,,,,,,,,,,,,,,,,,,,,,,,,,,,,,,,,,,,,,,,,,,,,
"CZK 20,300","CZK 1,000",743628,Studio,10/3/2022,33 m²,Partly,6,,314.25,1111.49,273.41,514.79,226.23,518.02,517.41,640.88,391.56,602.95,Prague - Nusle,50.05882,14.43473,"CZK 60,000",B,Very good,Brick,,,,,,,,,,,,,,,,,,,,,,,,,,,,,,,,,,,,,,,,,,,,,,,,,,,,,,,,,,,,,,,,,,,,,,,,,,,,1.0,,,,,,,,,,,,,,,,,,,,,,,,,,,,
"CZK 29,900",CZK 740,238692,4+kk,7/22/2022,146 m²,Partly,3,,109.74,980.99,386.17,954.65,148.18,1005.58,631.08,500.51,373.2,376.53,"Hornoměcholupská, Prague - Hostivař",50.0521645,14.5301399,"CZK 59,800",C,Good,Brick,,,,,,,,,Standard,Personal,,,,,,Complete,,,,1.0,,,,,,,,,,,,,,,,,,,,,,,,,,,,,,,,,,,,,,,,,,,,,,,,,,,,,,,,,,,,,,,,,,,,,,,,,,,,,,,,,,,,
"CZK 20,000","CZK 4,800",746089,3+kk,10/17/2022,45 m²,Fully furnished,2,1.0,159.4,322.07,148.98,275.16,173.97,209.67,101.95,673.74,157.65,551.83,"Umělecká, Prague - Holešovice",50.10187,14.428,"CZK 20,000",G,Good,Brick,,1.0,,,,,,,,,,,,,,,,,1.0,,,,,,,,,,,,,,,,,,,,,,,,,,,,,,,,,,,,,,,,,,,,,,,,,,,,,,,,,,,,,,,,,,,,,,,,,,,,,,,,,,,,,
"CZK 14,000","CZK 3,300",741848,2+kk,10/20/2022,38 m²,Unfurnished,19,1.0,122.96,512.95,144.57,811.18,323.7,71.33,239.39,721.53,271.07,155.23,Prague - Záběhlice,50.05717,14.49623,"CZK 14,000",G,Very good,Prefab concrete,,,,,,,,,,,Central,,,,,Complete,,,,,,,,,,,,,,,,,,,,,,,,,,1.0,,,,,,,,,,,,,,,,,,,,,,,,,,,,,,,,,,,,,,,,,,,,,,,,,,,,,,,,,,,,,,
"CZK 25,000","CZK 5,000",744088,3+kk,10/15/2022,68 m²,Partly,1,,204.14,814.58,199.39,383.89,106.43,571.1,358.65,368.21,379.65,360.78,"Sevastopolská, Prague - Vršovice",50.07088,14.44827,"CZK 25,000",G,New-build,Brick,,,,,,,,Up to 10 years,Standard,,,,,,,Complete,,,,,,,,,,,,,,,,,,,,,,,,,,,,,,,,,,,,,,,,,,,,,,,,,,,,,,,,,,,,,,,,,,,,,,,,,,,,,,,,,,,,,,,,
"CZK 18,000",CZK 880,746088,2 bedroom,11/1/2022,58 m²,Unfurnished,5,1.0,125.81,257.91,184.94,698.46,169.5,12.83,342.65,342.65,366.08,235.45,"Kubánské náměstí, Prague - Vršovice",50.07069,14.47921,"CZK 36,000",G,Very good,Brick,,,,,,,,,Standard,,Central,,,,,,,,,,1.0,,,,,,,,,,,,,,,,,,,,,,,,,,,,,,,,,,,,,,,,,,,,,,,,,,,,,,,,,,,,,,,,,,,,,,,,,,,,,,,,,,,
"CZK 30,750","CZK 10,250",742166,Studio,12/1/2022,30 m²,Fully furnished,3,1.0,210.86,390.29,319.5,985.86,301.65,338.01,858.33,290.45,385.77,539.9,"Strakonická, Prague - Smíchov",50.0643299,14.4102127,,,,,,,,,,,,,,,,,,,,,,,,,,,,,,,,,,,,,,,,,,,,,,,,,,,,,,,,,,,,,,,,,,,,,,,,,,,,,,,,,,,,,,,,,,,,,,,,,,,,,,,,,,,,
"CZK 17,490","CZK 1,955",746083,2+kk,10/20/2022,50 m²,Partly,2,1.0,247.39,791.7,312.51,743.86,316.12,769.01,506.88,330.03,544.42,154.82,"Ruská, Prague - Vršovice",50.07286833333,14.46363333333,"CZK 19,445",G,Good,Brick,,,,,,,,,,Personal,,,,,,,,,,,,,,,1.0,,,,,,,,,,,,,,,,,,,,,,,,,,,,,,"CZK 19,445",,,,,,,,,,,,,,,,,,,,,,,,,,,,,,,,,,,,,,,,,,,,,,,,,
"CZK 14,000","CZK 2,000",746078,2+kk,11/1/2022,42 m²,Unfurnished,4,,228.64,1876.49,1368.28,1869.15,1233.1,1326.77,570.45,1524.34,1211.79,139.44,"Pod Lysinami, Prague - Hodkovičky",50.02162,14.41277,"CZK 14,000",G,Good,Prefab concrete,,1.0,,,,,,,,,,,,,,,,,,,,,,,,,,,,,,,,,,,,,,,,,,,,,,,,,,,,,,,,,,,,,,,,,,,,,,,,,,,,,,,,,,,,,,,,,,,,,,,,,,,,,,
"CZK 23,000",CZK 620,745359,3+kk,10/16/2022,78 m²,Partly,3,1.0,404.77,533.0,140.78,371.82,76.23,229.39,441.11,538.84,586.84,467.4,"Kubelíkova, Prague - Žižkov",50.08217,14.45096,"CZK 40,000",G,Very good,Brick,1.0,,,,,,,,,,,,,,,,,,1.0,,,,,,,,,,,,,,,,,,,,,,,,,,,,,,,,,,,,,,,,,,,,,,,,,,,,,,,,,,,,,,,,,,,,,,,,,,,,,,,,,,,,,
"CZK 18,000","CZK 4,000",742782,2+kk,10/1/2022,42 m²,Partly,1,,148.42,116.82,25.63,88.26,53.08,75.51,129.1,638.15,62.46,332.41,Prague - Břevnov,50.08364,14.3644,"CZK 30,000",G,Good,Brick,,,,,,,,,,,,,,,,,,,,,,,,,,,,,,,,,,,,,,,,,,,,,,,,,,,,,,,,,,,,,,,,,,,,,,,,,,,,,,,,,,,,,,,,,,,,,,,,,,,,,,,,
"CZK 39,000","CZK 13,000",728062,2 bedroom,12/7/2022,92 m²,Fully furnished,7,1.0,73.01,281.28,58.33,478.54,20.37,379.07,102.37,138.49,668.56,481.36,"Francouzská, Prague - Vinohrady",50.0739894,14.440101,,,,,,,,,,,,,,,,,,,,,,,,,,,,,1.0,1.0,,,,,,,,,,,,,,,,,,,,,,,,,,,,,,,,,,,,,,,,,,,,,,,,,,,,,,,,,,,,,,,,,,,,,,,,,,,,,,
"CZK 59,250","CZK 19,750",717599,4+kk,10/22/2022,90 m²,Fully furnished,2,1.0,140.09,527.92,223.64,125.85,37.89,66.77,510.79,1001.31,1180.94,559.23,"Stroupežnického, Prague - Smíchov",50.0710929,14.4032595,,,,,,,,,,,,,,,,,,,,,,,,,,,,,,,,,,,,,,,,,,,,,,,,,,,,,,,,,,,,,,,,,,,,,,,,,,,,,,,,,,,,,,,,,,,,,,,,,,,,,,,,,,,,
"CZK 19,500","CZK 4,500",746014,2+kk,10/17/2022,45 m²,Partly,6,1.0,427.51,1472.11,453.04,988.01,361.53,898.87,185.03,696.49,949.4,391.56,Prague - Karlín,50.0942,14.4649,"CZK 19,000",C,Very good,Prefab concrete,,,,,,,,,,,,,,,,,,,,,,,,,,,,,,,,,,,,,,,,,,,,,,,,,,,,,,,,,,,,,,,,,,,,,,,,,,,,,,,,,,,,,,,,,,,,,,,,,,,,,,,,
"CZK 13,500","CZK 4,500",746001,2+kk,10/17/2022,44 m²,Partly,1,,223.57,2279.54,323.22,2175.41,503.41,1310.82,1305.61,638.96,773.0,560.63,Prague - Břevnov,50.07573,14.32772,"CZK 18,000",G,Very good,Brick,,1.0,,1.0,,,,,,,,,,,,,,,,,,,,,,,,,,,,,,,,,,,,,,,,,,,,,,,,,,,,,,,,,,,,,,,,,,,,,,,,,,,,,,,,,,,,,,,,,,,,,,,,,,,,
"CZK 8,490","CZK 2,500",423838,3+1,11/30/2022,15 m²,Fully furnished,8,1.0,233.92,627.15,488.43,1660.14,159.48,960.96,649.4,1058.18,566.02,238.57,"Sládkovičova, Prague - Krč",50.0225909,14.4534508,"CZK 10,990",,Very good,Prefab concrete,,1.0,,,,,,,,Personal,Distance,,,,,Complete,,,,,,,,,,,,,,,,,,,,,,,,,,,,,,,,,,,,,,,,,,,,,,,,,,,,,,,1.0,,,,,,,,,,,,,,,,,,,,,,,,,,,,,,,,,
"CZK 14,471","CZK 2,500",745972,Studio,11/15/2022,30 m²,Partly,1,1.0,221.42,809.68,192.03,1317.91,240.49,750.22,307.21,295.54,343.39,117.33,"Schulhoffova, Prague - Háje",50.0369,14.51675,"CZK 60,000",C,Good,Prefab concrete,,,,,,,,,,,,,,,,,,,,,,,,,,,,,,,,,,,,,,,,,,,,,,,,,,,,,,,,,,,,,,,,,,,,,,,,,,,,,,,,,,,,,,,,,,,,,,,,,,,,,,,,
"CZK 24,500","CZK 5,000",579807,2+kk,11/1/2022,67 m²,Partly,5,1.0,306.14,376.82,138.91,373.56,88.24,308.14,221.01,289.75,593.17,265.22,"Blodkova, Prague - Žižkov",50.079875,14.449475,"CZK 24,500",C,Very good,Brick,,,,,,,,,,Personal,,,,,,,,,,,,,1.0,,,,,,,,,,,,,,,,,,,,,,,,,,,,,,,,,,,,,,,,,,,,,,,,,,,,,,,,,,,,,,,,,,,,,,,,,,,,,,,,,
"CZK 14,000","CZK 4,115",745907,2+kk,10/17/2022,44 m²,Partly,2,,257.32,1255.61,460.68,1112.59,374.46,794.82,647.98,135.15,1255.42,360.37,Prague - Strašnice,50.07473,14.50805,"CZK 60,000",B,New-build,Brick,1.0,,,,,,,,,,,,,,,,,,,,,,,,,,,,,,,,,,,,,,,,,,,,,,,,,,,,,,,,,,,,,,,,,,,,,,,,,,,,,,,,,,,,,,,,,,,,,,,,,,,,,,,
"CZK 8,600",CZK 0,222887,4+1,10/28/2022,9 m²,Partly,7,1.0,453.77,838.0,504.64,772.83,444.74,814.92,390.42,333.34,3134.0,113.22,"U Pentlovky, Prague - Troja",50.1280662,14.4074461,"CZK 8,600",A,Very good,Prefab concrete,,1.0,,,,,,,,Personal,Distance,,,,,Complete,,,,,,,,,,,,,,,,,,,,,,,,,,,,,,,,,,,,,,,,,,,,,,,,,,,,,,,,,,,,,,,,,,,,,,,,,,,,,,,,,,,,,,,,
"CZK 21,000",CZK 700,745818,2+kk,10/17/2022,47 m²,Fully furnished,4,1.0,113.11,379.86,71.41,241.99,45.66,98.49,295.44,275.59,558.97,269.92,"Korunní, Prague - Vinohrady",50.0755,14.45124,"CZK 42,000",G,New-build,Brick,,,,,,,,,,,,,,,,,,,,,,,,,,,,,,,,,,,,,,,,,,,,,,,,,,,,,,,,,,,,,,,,,,,,,,,,,,,,,,,,,,,,,,,,,,,,,,,,,,,,,,,,
"CZK 20,000","CZK 2,300",684626,3+kk,10/31/2022,65 m²,Unfurnished,3,1.0,330.5,1110.43,257.15,531.04,209.97,520.02,501.16,657.13,407.81,601.89,"5. května, Prague - Nusle",50.05893,14.43458,"CZK 25,000",G,Very good,Brick,,,,,,1.0,,,Standard,Cooperative,Electric boiler,,,,,Complete,,,,,,,,,,,,,,,,,,,,,,,,,,,,,,,,,,,,,,,,,,,,,,,,,,,,,,,,,,,,,,,,,,,,,,,,,,,,,,,,,,,,,,,,
"CZK 14,000","CZK 4,800",745812,1 bedroom,10/17/2022,36 m²,Partly,4,,111.65,608.86,74.16,512.01,358.21,419.05,256.16,331.17,552.81,125.13,Prague - Vršovice,50.07329,14.47054,"CZK 28,000",G,Very good,Brick,,,,,,,,,,,,,,,,,,,,,,,,,,,,,,,,,,,,,,,,,,,,,,,,,,,,,,,,,,,,,,,,,,,,,,,,,,,,,1.0,,,,,,,,,,,,,,,,,,,,,,,,,,,
"CZK 21,000",CZK 800,552114,2 bedroom,12/1/2022,75 m²,Partly,2,,278.53,1180.67,194.4,221.24,89.96,237.86,173.72,473.66,408.03,174.63,"Neklanova, Prague - Vyšehrad",50.0669126,14.4200506,"CZK 30,000",,Good,Brick,,,,,,,,,Luxurious,Personal,Gas boiler,,,,,Complete,,,,,,,,,,,,,,,,,,,,,,,,,,,,,,,,,,,,,,,,,,,,,,,,,,,,,,,,,,,,,,,,,,,,,,,,,,,,,,,,,,,,,,,,
"CZK 16,990","CZK 4,074",745810,2 bedroom,10/20/2022,58 m²,Partly,4,1.0,411.69,553.69,396.58,541.0,401.84,631.23,689.73,642.13,716.32,150.77,"Želivecká, Prague - Záběhlice",50.06069972222,14.49897416666,"CZK 21,064",C,Very good,Prefab concrete,,,,,,,,,,Cooperative,,,,,,,,,,1.0,,,,,1.0,,,,,,,,,,,,,,,,,,,,,,,,,,,,,,"CZK 21,064",,,,,,,,,,,,,,,,,,,,,,,,,,,,,,,,,,,,,,,,,,,,,,,,,
"CZK 21,990","CZK 2,415",745809,2+kk,10/21/2022,49 m²,Fully furnished,1,1.0,142.21,463.87,155.81,203.1,48.09,135.41,281.24,218.91,604.62,102.8,"Pod Kavalírkou, Prague - Košíře",50.06930833333,14.37020805555,"CZK 24,405",C,Very good,Other,,1.0,,,,,,,,Personal,,,,,,,,,,,,,,,,,,,,,,,,,,,,,,,,,,,,,,,,,,,,,"CZK 24,405",,,,,,,,,,,,,,,,,,,,,,,,,,,,,,,,,,,,,,,,,,,,,,,,,
"CZK 48,645","CZK 16,215",732720,3+1,10/22/2022,55 m²,Fully furnished,2,,158.42,248.82,154.82,246.13,112.68,264.3,390.21,408.3,154.53,114.55,"Řásnovka, Prague - Staré Město",50.0918754,14.4250902,,,,,,,,,,,,,,,,,,,,,,,,,,,,,,,,,,,,,,,,,,,,,,,,,,,,,,,,,,,,,,,,,,,,,,,,,,,,,,,,,,,,,,,,,,,,,,,,,,,,,,,,,,,,
"CZK 39,600","CZK 13,200",717648,2+kk,11/15/2022,46 m²,Fully furnished,2,,249.05,258.88,108.69,237.41,65.07,536.83,294.74,273.73,806.33,231.2,"Míšeňská, Prague - Malá Strana",50.0876118,14.4080467,,,,,,,,,,,,,,,,,,,,,,,,,,,,,,,,,,,,,,,,,,,,,,,,,,,,,,,,,,,,,,,,,,,,,,,,,,,,,,,,,,,,,,,,,,,,,,,,,,,,,,,,,,,,
"CZK 33,750","CZK 11,250",735565,2+kk,10/30/2022,45 m²,Fully furnished,2,1.0,210.86,390.29,319.5,985.86,301.65,338.01,858.33,290.45,385.77,539.9,"Strakonická, Prague - Smíchov",50.0643299,14.4102127,,,,,,,,,,,,,,,,,,,,,,,,,,,,,,,,,,,,,,,,,,,,,,,,,,,,,,,,,,,,,,,,,,,,,,,,,,,,,,,,,,,,,,,,,,,,,,,,,,,,,,,,,,,,
"CZK 15,000","CZK 3,850",745803,2+kk,10/18/2022,72 m²,Unfurnished,1,,31.2,247.86,1450.09,1804.27,65.48,268.27,148.08,546.81,293.61,295.38,Prague - Řeporyje,50.03312,14.31185,"CZK 30,770",G,Very good,Brick,,1.0,,,,,,,,,,,,,,,,,,,,,,,,,,,,,,,,,,,,,,,,,,,,,,,,,,,,,,,,,,,,,,,,,,,,,,,,,,,,,,,,,,,,,,,,,,,,,,,,,,,,,,
"CZK 20,000","CZK 4,500",366896,2+kk,11/6/2022,60 m²,Fully furnished,3,,73.21,966.72,206.7,778.71,680.46,199.26,628.92,627.32,1164.71,545.15,"Hornoměcholupská, Prague - Horní Měcholupy",50.0433026,14.5670631,"CZK 25,000",,New-build,Brick,,,,,,,,Up to 10 years,Standard,Personal,Central,1.0,,,,,,,,,,,,,,,,,,,,,,,,,,,,,,,,,,,,,,,,,,,,,,,,,,,,,,,,,,,,,,,,,,,,,,,,,,,,,,,,,,,,,,,,,,,,
"CZK 19,000","CZK 1,873",745800,2+kk,11/1/2022,45 m²,Partly,1,,115.05,748.64,111.95,447.83,83.15,310.97,261.84,1039.25,361.49,358.16,"Petra Slezáka, Prague - Karlín",50.09445,14.45703,"CZK 20,873",C,Very good,Brick,,1.0,,,,,,,,,,,,,,,,,,,,,,,,,,,,,,,,,,,,,,,,,,1.0,,,,,,,,,,,,,,,,,,,,,,,,,,,,,,,,,,,,,,,,,,,,,,,,,,,,,,,,,,,,
"CZK 25,000","CZK 4,800",712844,3+kk,1/31/2023,102 m²,Partly,1,,254.65,1258.13,273.94,1199.72,286.54,700.92,476.27,882.36,518.5,332.22,"Záběhlická, Prague - Záběhlice",50.05301,14.49077,"CZK 25,000",,Very good,Brick,,,,,,,,,,Personal,,,,,,,,,,,,,,,,,,,,,,,,,,,,,,,,,,,,,,,1.0,,,,,,,,,,,,,,,,,,,,,,,,,,,,,,,,,,,,,,,,,,,,,,,,,,,,,,,
"CZK 63,000","CZK 21,000",735517,3+kk,11/7/2022,110 m²,Fully furnished,6,1.0,30.08,409.78,41.21,139.22,4.79,323.92,155.78,264.84,623.64,381.72,"Myslíkova, Prague - Nové Město",50.0781479,14.4179311,,,,,,,,,,,,,,,,,,,,,,,,,,,,,,,,,,,,,,,,,,,,,,,,,,,,,,,,,,,,,,,,,,,,,,,,,,,,,,,,,,,,,,,,,,,,,,,,,,,,,,,,,,,,
"CZK 30,000","CZK 10,000",734260,2+kk,11/6/2022,41 m²,Fully furnished,5,,394.46,497.82,253.13,432.3,279.54,389.35,316.56,724.72,695.79,345.02,"Krchlebská, Prague - Krč",50.0471114,14.4429584,,,,,,,,,,,,,,,,,,,,,,,,,,,,,,,,,,,,,,,,,,,,,,,,,,,,,,,,,,,,,,,,,,,,,,,,,,,,,,,,,,,,,,,,,,,,,,,,,,,,,,,,,,,,
"CZK 46,125","CZK 15,375",745690,3+1,10/22/2022,85 m²,Fully furnished,6,,454.17,745.98,361.06,472.33,313.02,651.07,424.33,459.82,510.94,766.36,"Řehořova, Prague - Žižkov",50.0861948,14.4437541,,,,,,,,,,,,,,,,,,,,,,,,,,,,,1.0,1.0,,,,,,,,,,,,,,,,,,,,,,,,,,,,,,,,,,,,,,,,,,,,,,,,,,,,,,,,,,,,,,,,,,,,,,,,,,,,,,
