Price,Fees,Listing ID,Layout,Avaliable from,Floor space,Fully furnished,Floor,Lift,public_transport,post,shop,bank,restaurant,pharmacy,school,kindergarten,sports_field,playground,District,Latitude,Longitude,Refundable security deposit,Building type,Age,Condition,Ownership,EPC,Heating,Balkón 7 m²,Sklep 3 m²,New-build,Parking,Garage,Designe,Sklep 4 m²,Balkón 8 m²,Sklep 1 m²,Terasa 7 m²,Sklep 5 m²,Balkón 5 m²,Reconstruction,Sklep 7 m²,Lodžie 3 m²,Terasa 66 m²,Balkón 4 m²,Enclosed balcony,Lodžie 6 m²,Sklep 2 m²,Balkón 6 m²,Balkón 2 m²,Terasa 6 m²,Domácí mazlíčci vítáni,Balkón 10 m²,Terasa 10 m²,Lodžie 7 m²,Sklep 9 m²,Terasa 13 m²,Sklep 2.5 m²,Sklep 8 m²,Lodžie 16 m²,Terrace,Lodžie 8 m²,Balcony,Terasa 14 m²,Lodžie 10 m²,Terasa 28 m²,Balkón 54 m²,Balkón 3.2 m²,Terasa 11 m²,Lodžie 9 m²,Balkón 1 m²,Balkón 3 m²,Terasa 3 m²,Lodžie 2 m²,Terasa 15 m²,Lodžie 4 m²,Sklep 6 m²,Cellar,Lodžie 4.5 m²,Balkón 11 m²,Terasa 12 m²,Lodžie 5 m²,Sklep 10 m²,Balkón 3.7 m²,Sklep 2.9 m²,Terasa 100 m²,Balkón 16 m²,Sklep 12 m²,Terasa 24 m²,Sklep 0.1 m²,Balkón 20 m²,Terasa 80 m²,Balkón 9.8 m²,Terasa 30 m²,Sklep 1.5 m²,Balkón 2.1 m²,Balkón 9 m²,Terasa 20 m²,Plot space,Terasa 8 m²,Terasa 17 m²,Terasa 25 m²,Terasa 9 m²,Terasa 35 m²,Sklep 2.4 m²,Lodžie 12 m²,Balkón 12 m²,Administrative fee,Terasa 5 m²,Balkón 3.5 m²,Balkón 33 m²,Sklep 4.12 m²,Terasa 9.8 m²,Plot type,Terasa 31 m²,Terasa 16 m²,Terasa 40 m²,Lodžie 28 m²,Lodžie 8.7 m²,Sklep 2.7 m²,Terasa 78 m²,Terasa 2 m²,Balkón 15 m²,Lodžie 7.1 m²,Lodžie 20 m²,Terasa 50 m²,Balkón 29 m²,Terasa 49 m²,Sklep 1.2 m²,Terasa 12.7 m²,Terasa 70 m²,Balkón 60 m²,Terasa 60 m²,Balkón 40 m²,Balkón 73 m²,Terasa 27 m²,Terasa 300 m²,Balkón 2.6 m²,Lodžie 6.1 m²,Sklep 8.1 m²,Terasa 32 m²,Balkón 6.1 m²,Sklep 4.1 m²,Terasa 10.1 m²,Lodžie 5.1 m²,Terasa 21 m²,Terasa 200 m²,Terasa 37 m²,Balkón 8.73 m²,Terasa 2.67 m²,Lodžie 15 m²,Terasa 18 m²,Sklep 15 m²,Balkón 13 m²,Terasa 29 m²,Terasa 83 m²,Sklep 6.4 m²,Sklep 20 m²
"CZK 17,250","CZK 5,750",751066,3+kk,1/14/2023,90 m²,Fully furnished,2,1.0,82.8,397.93,96.94,404.98,135.48,353.78,131.46,217.55,654.74,661.34,"Blanická, Prague - Vinohrady",50.0746503,14.439294,,,,,,,,,,,,,,,,,,,,,,,,,,,,,,,,,,,,,,,,,,,,,,,,,,,,,,,,,,,,,,,,,,,,,,,,,,,,,,,,,,,,,,,,,,,,,,,,,,,,,,,,,,,,,,,,,,,,,,,,,,,,,,,,,,,,,,,,,
"CZK 15,750","CZK 5,250",751065,1 bedroom,1/14/2023,30 m²,Fully furnished,3,,217.38,2062.48,1281.33,4705.18,629.6,1074.91,597.5,3134.16,2915.46,646.77,"Švihovská, Prague - Písnice",49.9954018,14.4704771,,,,,,,,,,,,,,,,,,,,,,,,,,,,,,,,,,,,,,,,,,,,,,,,,,,,,,,,,,,,,,,,,,,,,,,,,,,,,,,,,,,,,,,,,,,,,,,,,,,,,,,,,,,,,,,,,,,,,,,,,,,,,,,,,,,,,,,,,
"CZK 22,000","CZK 4,900",696293,2+kk,11/1/2022,65 m²,Fully furnished,6,1.0,413.28,1735.35,664.61,1716.9,1129.1,673.99,1385.04,1406.61,935.06,65.95,"Sousedíkova, Prague - Vysočany",50.10522,14.51718,"CZK 53,800",Brick,Up to 10 years,New-build,Personal,C,Distance,1.0,1.0,1.0,1.0,1.0,,,,,,,,,,,,,,,,,,,,,,,,,,,,,,,,,,,,,,,,,,,,,,,,,,,,,,,,,,,,,,,,,,,,,,,,,,,,,,,,,,,,,,,,,,,,,,,,,,,,,,,,,,,,,,,,,,,,,,,,,,,,,
"CZK 19,000","CZK 5,000",649500,2+kk,11/7/2022,53 m²,Fully furnished,1,,15.08,865.08,392.37,1315.18,408.88,415.49,977.08,707.27,742.72,221.51,"Pod Kesnerkou, Prague - Smíchov",50.059194,14.403452,"CZK 24,000",Brick,,Very good,Personal,G,Gas boiler,,,,1.0,1.0,Standard,1.0,,,,,,,,,,,,,,,,,,,,,,,,,,,,,,,,,,,,,,,,,,,,,,,,,,,,,,,,,,,,,,,,,,,,,,,,,,,,,,,,,,,,,,,,,,,,,,,,,,,,,,,,,,,,,,,,,,,,,,,,,,,
"CZK 20,000","CZK 3,000",751061,2+kk,12/1/2022,43 m²,Fully furnished,5,1.0,134.41,349.02,141.81,147.86,106.89,285.12,429.62,388.73,287.59,364.29,Prague - Holešovice,50.10255,14.45232,"CZK 30,000",Brick,,Very good,,G,,,,,1.0,,,,,,,,,,,,,,,,,,,,,,,,,,,,,,,,,,,,,,,,,,,,,,,,,,,,,,,,,,,,,,,,,,,,,,,,,,,,,,,,,,,,,,,,,,,,,,,,,,,,,,,,,,,,,,,,,,,,,,,,,,,,,,
"CZK 25,000","CZK 4,900",750268,3+kk,12/1/2022,74 m²,Unfurnished,11,1.0,293.48,347.83,253.75,340.49,322.66,321.54,379.21,378.23,656.9,191.84,Prague - Braník,50.02404,14.43051,"CZK 30,000",Prefab concrete,,New-build,,C,,,,,1.0,,,,1.0,1.0,,,,,,,,,,,,,,,,,,,,,,,,,,,,,,,,,,,,,,,,,,,,,,,,,,,,,,,,,,,,,,,,,,,,,,,,,,,,,,,,,,,,,,,,,,,,,,,,,,,,,,,,,,,,,,,,,,,,,,,,,
"CZK 49,800",CZK 0,750196,3+kk,11/9/2022,83 m²,Fully furnished,4,1.0,53.7,387.31,44.01,207.41,17.27,408.1,162.52,77.73,407.38,477.34,Prague - Žižkov,50.08512,14.44599,CZK 0,Low-energy,Up to 10 years,New-build,,B,Distance,,1.0,1.0,,1.0,Luxurious,,,,1.0,,,,,,,,,,,,,,,,,,,,,,,,,,,,,,,,,,,,,,,,,,,,,,,,,,,,,,,,,,,,,,,,,,,,,,,,,,,,,,,,,,,,,,,,,,,,,,,,,,,,,,,,,,,,,,,,,,,,,,,,
"CZK 17,000","CZK 4,800",750917,1 bedroom,12/1/2022,43 m²,Partly,1,,254.7,533.48,156.8,293.91,124.14,212.66,172.18,306.93,215.82,280.53,"Letohradská, Prague - Holešovice",50.09866,14.42865,"CZK 17,000",Brick,,Very good,,G,,,,,,,Standard,,,,,1.0,,,,,,,,,,,,,,,,,,,,,,,,,,,,,,,,,,,,,,,,,,,,,,,,,,,,,,,,,,,,,,,,,,,,,,,,,,,,,,,,,,,,,,,,,,,,,,,,,,,,,,,,,,,,,,,,,,,,,,,
"CZK 27,000","CZK 4,000",751056,3+kk,11/14/2022,80 m²,Unfurnished,3,1.0,270.99,805.86,418.55,529.84,133.09,572.45,475.14,222.91,262.68,93.83,"Olgy Havlové, Prague - Žižkov",50.08891,14.48433,"CZK 27,000",Low-energy,Up to 10 years,Very good,,G,Central,,,,1.0,1.0,Luxurious,1.0,,,,,1.0,,,,,,,,,,,,,,,,,,,,,,,,,,,,,,,,,,,,,,,,,,,,,,,,,,,,,,,,,,,,,,,,,,,,,,,,,,,,,,,,,,,,,,,,,,,,,,,,,,,,,,,,,,,,,,,,,,,,,,
"CZK 12,000","CZK 2,500",174881,Studio,12/1/2022,28 m²,Fully furnished,1,,226.66,939.69,299.15,885.56,390.66,1023.59,639.08,376.27,335.52,549.23,"U družstva Práce, Prague - Podolí",50.0426816,14.4317734,"CZK 14,500",Brick,Over 50 years,Very good,Personal,,Central,,1.0,,,,Standard,,,,,,,,,,,,,,,,,,,,,,,,,,,,,,,,,,,,,,,,,,,,,,,,,,,,,,,,,,,,,,,,,,,,,,,,,,,,,,,,,,,,,,,,,,,,,,,,,,,,,,,,,,,,,,,,,,,,,,,,,,,,
"CZK 25,000","CZK 6,700",745532,3+kk,11/14/2022,66 m²,Unfurnished,3,,360.72,636.62,344.12,565.83,199.44,644.55,300.07,164.26,302.52,165.34,"Krokova, Prague - Nusle",50.06266,14.42477,"CZK 50,000",Brick,Over 50 years,Very good,Personal,C,Electric boiler,,,,,,Luxurious,,,,,,,Complete,1.0,,,,,,,,,,,,,,,,,,,,,,,,,,,,,,,,,,,,,,,,,,,,,,,,,,,,,,,,,,,,,,,,,,,,,,,,,,,,,,,,,,,,,,,,,,,,,,,,,,,,,,,,,,,,,,,,,,,,
"CZK 13,800","CZK 2,510",751053,Studio,11/14/2022,42 m²,Partly,1,,270.99,869.39,88.77,659.29,361.21,783.93,155.5,2021.21,1030.51,165.53,"Sazovická, Prague - Zličín",50.05808,14.28322,"CZK 32,000",Prefab concrete,,Very good,,G,,,,,,,,,,,,1.0,,,,1.0,,,,,,,,,,,,,,,,,,,,,,,,,,,,,,,,,,,,,,,,,,,,,,,,,,,,,,,,,,,,,,,,,,,,,,,,,,,,,,,,,,,,,,,,,,,,,,,,,,,,,,,,,,,,,,,,,,,
"CZK 32,000","CZK 6,500",751054,Other,12/1/2022,113 m²,Partly,12,1.0,75.26,1396.09,673.04,1281.43,490.57,1033.15,1226.73,874.68,456.74,416.44,"Zvěřinova, Prague - Strašnice",50.0846,14.48268,"CZK 59,800",Brick,,New-build,,G,,,,1.0,1.0,1.0,,,,,,1.0,,,,,1.0,,,,,,,,,,,,,,,,,,,,,,,,,,,,,,,,,,,,,,,,,,,,,,,,,,,,,,,,,,,,,,,,,,,,,,,,,,,,,,,,,,,,,,,,,,,,,,,,,,,,,,,,,,,,,,,,,,
"CZK 18,000",CZK 600,301921,1 bedroom,11/14/2022,41 m²,Partly,1,,316.84,352.65,93.9,661.25,81.68,511.18,79.55,104.75,828.95,584.37,"Jana Masaryka, Prague - Vinohrady",50.0714204,14.4383192,"CZK 18,000",Brick,Over 50 years,Very good,Personal,G,,,,,,,,,,,,,,,,,,,,,,,,,,,,,,,,,,,,,,,,,,,,,,,,,,,,,,,,,,,,,,,,,,,,,,,,,,,,,,,,,,,,,,,,,,,,,,,,,,,,,,,,,,,,,,,,,,,,,,,,,,,,,,,,,,,
"CZK 14,500",CZK 100,614674,Studio,12/1/2022,45 m²,Partly,3,,473.56,1254.32,605.44,1035.59,947.56,1156.68,545.39,574.88,1519.13,309.4,"Křemenná, Prague - Uhříněves",50.037252,14.594891,"CZK 20,000",Brick,,New-build,Personal,A,,,,1.0,1.0,,,,,,,,,,,,,,,,,,,,,,,,,,,,,,,,,,,,,,,,,,,,,,,,,,,,,,,,,,,,,,,,,,,,,,,,,,,,,,,,,,,,,,,,,,,,,,,,,,,,,,,,,,,,,,,,,,,,,,,,,,,,,,
"CZK 16,000","CZK 4,000",489991,Studio,2/1/2023,46 m²,Partly,4,1.0,98.47,1132.93,156.85,973.28,91.23,149.01,142.46,236.35,755.29,106.65,"Komořanská, Prague - Modřany",50.0040766,14.405199,"CZK 30,000",Brick,,New-build,Personal,,Central,,,1.0,,,,,,,,,,,,,,1.0,1.0,,,,,,,,,,,,,,,,,,,,,,,,,,,,,,,,,,,,,,,,,,,,,,,,,,,,,,,,,,,,,,,,,,,,,,,,,,,,,,,,,,,,,,,,,,,,,,,,,,,,,,,,,,,,,,,,
"CZK 21,500","CZK 3,500",751043,2+kk,11/14/2022,50 m²,Unfurnished,7,1.0,180.96,769.15,284.9,477.76,369.64,355.95,677.52,557.5,322.29,248.52,"Počernická, Prague - Strašnice",50.07977,14.48632,"CZK 43,000",Brick,,New-build,,A,,,,1.0,,1.0,,,,,,,,,,,,,,1.0,,,,,,,,,,,,,,,,,,,,,,,,,,,,,,,,,,,,,,,,,,,,,,,,,,,,,,,,,,,,,,,,,,,,,,,,,,,,,,,,,,,,,,,,,,,,,,,,,,,,,,,,,,,,,,,
"CZK 15,540",CZK 460,604348,Studio,12/1/2022,36 m²,,3,,294.35,543.75,154.07,228.67,285.16,326.75,219.91,615.54,478.97,199.7,"Nad Primaskou, Prague - Strašnice",50.074383,14.486915,"CZK 32,000",Brick,,Very good,Personal,E,Electric boiler,,,,,,Standard,,,,,,,Interior,,,,,,,1.0,,,,,,,,,,,,,,,,,,,,,,,,,,,,,,,,,,,,,,,,,,,,,,,,,,,,,,,,,,,,,,,,,,,,,,,,,,,,,,,,,,,,,,,,,,,,,,,,,,,,,,,,,,,,,,
"CZK 27,000","CZK 5,000",517931,2+kk,12/1/2022,55 m²,Fully furnished,2,,98.22,363.84,107.93,28.37,19.06,161.02,454.52,509.1,250.77,629.5,Prague - Karlín,50.0914053,14.4388752,"CZK 30,000",Brick,Up to 10 years,,Cooperative,,Electric boiler,,,,,,Luxurious,,,,,,,Interior,,,,,,,,1.0,,,,,,,,,,,,,,,,,,,,,,,,,,,,,,,,,,,,,,,,,,,,,,,,,,,,,,,,,,,,,,,,,,,,,,,,,,,,,,,,,,,,,,,,,,,,,,,,,,,,,,,,,,,,,
"CZK 30,000","CZK 1,400",751020,3+1,1/1/2023,95 m²,Fully furnished,5,1.0,83.09,656.57,68.92,675.09,133.2,641.46,501.68,569.42,382.05,406.68,Prague - Vinohrady,50.06829,14.4342,"CZK 30,000",Brick,Over 50 years,Good,,G,,,,,,,Standard,1.0,,,,,,Complete,,,,,,,,,1.0,,,,,,,,,,,,,,,,,,,,,,,,,,,,,,,,,,,,,,,,,,,,,,,,,,,,,,,,,,,,,,,,,,,,,,,,,,,,,,,,,,,,,,,,,,,,,,,,,,,,,,,,,,,,
"CZK 24,000","CZK 4,260",751037,2+kk,12/1/2022,52 m²,Fully furnished,2,1.0,62.41,928.02,321.1,851.07,233.65,873.15,630.87,439.6,406.72,380.47,Prague - Zličín,50.06432,14.29795,"CZK 40,000",Low-energy,,New-build,,B,,,,1.0,,1.0,,,,,,,,,,,,,,,,,,,,,,,,,,,,,,,,,,,,,,,,,,,,,,,,,,,,,,,,,,,,,,,,,,,,,,,,,,,,,,,,,,,,,,,,,,,,,,,,,,,,,,,,,,,,,,,,,,,,,,,,,,,,,
"CZK 16,000","CZK 2,785",748462,2+kk,11/1/2022,42 m²,Unfurnished,3,,224.7,1021.23,140.57,167.41,154.01,184.03,338.21,474.58,401.68,514.26,"Neklanova, Prague - Vyšehrad",50.066,14.42173,"CZK 16,000",Brick,,Very good,,G,,,,,1.0,,,,,,,,,,,,,,,,,,,,,,,,,,,,,,,,,,,,,,,,,,,,,,,,,,,,,,,,,,,,,,,,,,,,,,,,,,,,,,,,,,,,,,,,,,,,,,,,,,,,,,,,,,,,,,,,,,,,,,,,,,,,,,
"CZK 13,400","CZK 5,500",751025,Studio,11/30/2022,46 m²,Fully furnished,2,1.0,215.97,332.59,95.33,689.19,224.81,304.93,173.84,204.51,407.99,223.48,"Jeseniova, Prague - Žižkov",50.08607,14.45856,"CZK 13,400",Other,,Very good,,G,,,,,,1.0,,,,,,,,,,,,,,,,,,1.0,,,,,,,,,,,,,,,,,,,,,,,,,,,,,,,,,,,,,,,,,,,,,,,,,,,,,,,,,,,,,,,,,,,,,,,,,,,,,,,,,,,,,,,,,,,,,,,,,,,,,,,,,,,
"CZK 44,900",CZK 0,748653,5+1,11/1/2022,134 m²,Partly,5,,190.36,206.05,130.7,80.45,0.46,181.09,319.73,138.52,254.98,496.13,Prague - Nové Město,50.08971,14.43218,"CZK 100,003",Brick,,Very good,,D,,,,,1.0,,,,,,,,,,,,,,,,1.0,,,,1.0,,,,,,,,,,,,,,,,,,,,,,,,,,,,,,,,,,,,,,,,,,,,,,,,,,,,,,,,,,,,,,,,,,,,,,,,,,,,,,,,,,,,,,,,,,,,,,,,,,,,,,,,,,
"CZK 14,000","CZK 3,500",156257,2+kk,12/1/2022,43 m²,Partly,12,1.0,224.6,474.65,449.08,2795.81,448.58,492.66,453.09,1851.42,1264.96,1.53,"U valu, Prague - Ruzyně",50.0881906,14.305318,"CZK 17,500",Prefab concrete,,,Personal,,,,1.0,,1.0,,,,,,,,,,,,,,,,,,,,,,,,,,,,,,,,,,,,,,,,,,,,,,,,,,,,,,,,,,,,,,,,,,,,,,,,,,,,,,,,,,,,,,,,,,,,,,,,,,,,,,,,,,,,,,,,,,,,,,,,,,,,,,
"CZK 28,000","CZK 4,000",361189,2+kk,1/10/2023,80 m²,Fully furnished,4,,61.51,303.8,249.25,309.12,63.7,295.0,411.57,316.79,329.52,221.99,"Na žertvách, Prague - Libeň",50.1048339,14.4770456,CZK 2,Brick,,New-build,Personal,B,,,,,,,Luxurious,,,,,,,Complete,,,,,,,,,,,,1.0,1.0,,,,,,,,,,,,,,,,,,,,,,,,,,,,,,,,,,,,,,,,,,,,,,,,,,,,,,,,,,,,,,,,,,,,,,,,,,,,,,,,,,,,,,,,,,,,,,,,,,,,,,,,
"CZK 14,573","CZK 3,500",751019,2 bedroom,1/1/2023,54 m²,Unfurnished,3,1.0,346.87,392.06,402.34,390.87,376.13,396.11,871.5,811.16,646.15,363.95,"Hledíková, Prague - Záběhlice",50.05468,14.51524,"CZK 10,000",Prefab concrete,,Very good,,G,,,,,1.0,,,,,,,,,,,,,,,,,,,,,,,1.0,,,,,,,,,,,,,,,,,,,,,,,,,,,,,,,,,,,,,,,,,,,,,,,,,,,,,,,,,,,,,,,,,,,,,,,,,,,,,,,,,,,,,,,,,,,,,,,,,,,,,,,
"CZK 15,000","CZK 3,000",750328,2 bedroom,12/1/2022,59 m²,Unfurnished,1,,218.6,889.65,525.62,1625.48,383.68,743.63,247.33,632.85,937.56,768.46,"Evropská, Prague - Liboc",50.0926,14.31865,"CZK 20,000",Brick,,Good,,F,,,,,,,,,,,,,,,,,,,,,,,,,,,,,1.0,,,,,,,,,,,,,,,,,,,,,,,,,,,,,,,,,,,,,,,,,,,,,,,,,,,,,,,,,,,,,,,,,,,,,,,,,,,,,,,,,,,,,,,,,,,,,,,,,,,,,,
"CZK 16,000","CZK 5,300",751008,2+kk,11/14/2022,54 m²,Fully furnished,1,,95.5,1317.88,772.52,990.21,198.18,759.86,134.2,78.7,288.32,459.59,"Přetlucká, Prague - Strašnice",50.06271,14.50945,"CZK 29,998",Brick,,Very good,,G,,,,,1.0,,,,,,,,,,,,,,,,,,,,,,,,,1.0,,,,,,,,,,,,,,,,,,,,,,,,,,,,,,,,,,,,,,,,,,,,,,,,,,,,,,,,,,,,,,,,,,,,,,,,,,,,,,,,,,,,,,,,,,,,,,,,,,,,,
"CZK 12,500","CZK 4,000",750995,1 bedroom,11/14/2022,43 m²,Partly,2,,141.16,569.32,262.94,514.11,61.25,474.4,247.66,365.11,322.61,485.61,"Husitská, Prague - Žižkov",50.08685,14.44745,"CZK 14,500",Brick,,Very good,,G,,,,,,,,,,,,,,,,,,,,,,,,,,,,,,,,,,,,,,,,,,,,,,,,,,,,,,,,,,,,,,,,,,,,,,,,,,,,,,,,,,,,,,,,,,,,,,,,,,,,,,,,,,,,,,,,,,,,,,,,,,,,,,,,,,,
"CZK 19,900","CZK 5,000",749503,2+kk,11/11/2022,63 m²,Partly,4,1.0,254.7,1365.13,315.85,1039.67,376.93,875.41,316.02,1020.66,1304.92,1121.85,"Čerpadlová, Prague - Vysočany",50.10123,14.50568,"CZK 39,800",Brick,,New-build,,B,,,,1.0,,1.0,,,,,,,,,,,,,,,,1.0,,,,,,,,,,,,,,,,,,,,,,,,,,,,,,,,,,,,,,,,,,,,,,,,,,,,,,,,,,,,,,,,,,,,,,,,,,,,,,,,,,,,,,,,,,,,,,,,,,,,,,,,,,,,,
"CZK 19,500","CZK 5,500",750994,2+kk,1/2/2023,51 m²,Partly,5,,189.69,1277.15,50.13,1215.52,143.27,503.78,134.7,298.84,305.51,246.81,"Střížkovská, Prague - Střížkov",50.12408,14.48391,"CZK 39,000",Low-energy,,New-build,,B,,,,,,,,,,,,,,,,,,,,1.0,,,,,,,,,,,1.0,,,,,,,,,,,,,,,,,,,,,,,,,,,,,,,,,,,,,,,,,,,,,,,,,,,,,,,,,,,,,,,,,,,,,,,,,,,,,,,,,,,,,,,,,,,,,,,,,,,,
"CZK 22,550","CZK 1,800",718496,2+kk,12/15/2022,50 m²,Partly,2,1.0,306.06,759.0,371.18,685.09,299.84,778.57,448.11,332.65,603.09,213.49,"Ruská, Prague - Vršovice",50.07294,14.46445,"CZK 22,500",Brick,,Very good,Personal,G,,,,,,,,,,,,,,,,,,,,,,,1.0,,,,,,,,,,,,,,,,,,,,,,,,,,,,,,,,,,,,,,,,,,,,,,,,,,,,,,,,,,,,,,,,,,,,,,,,,,,,,,,,,,,,,,,,,,,,,,,,,,,,,,,,,,,,
"CZK 22,500","CZK 5,200",750984,2+kk,1/1/2023,61 m²,Fully furnished,4,1.0,29.12,479.15,12.02,507.81,194.11,499.98,167.56,459.07,743.8,109.58,Prague - Stodůlky,50.04383,14.33673,"CZK 45,000",Prefab concrete,,New-build,,A,,,,1.0,1.0,1.0,,,,,,,1.0,,,,,,,,,,,,,,,,,,,1.0,,,,,,,,,,,,,,,,,,,,,,,,,,,,,,,,,,,,,,,,,,,,,,,,,,,,,,,,,,,,,,,,,,,,,,,,,,,,,,,,,,,,,,,,,,,,,,,,,,,
"CZK 22,000",CZK 928,689600,2 bedroom,12/1/2022,64 m²,Partly,1,,118.26,1235.44,119.12,620.84,168.28,222.9,458.33,268.1,383.32,350.75,"Podbabská, Prague - Bubeneč",50.1104,14.39458,"CZK 40,000",,30 - 50 years,Very good,Personal,E,,,,,,,Standard,,,,,,,Interior,,,,,,,,,,,1.0,,,,,,,,,,,,,,,,,,,,,,,,,,,,,,,,,,,,,,,,,,,,,,,,,,,,,,,,,,,,,,,,,,,,,,,,,,,,,,,,,,,,,,,,,,,,,,,,,,,,,,,,,,
"CZK 20,000","CZK 4,000",750981,2+kk,11/21/2022,57 m²,Fully furnished,1,1.0,373.47,1344.07,450.94,1313.02,485.68,1005.05,1040.78,872.99,1025.94,142.6,Prague - Řepy,50.07492,14.31167,"CZK 30,000",Prefab concrete,Up to 10 years,New-build,Personal,C,,,,1.0,1.0,1.0,,,,,,,,Complete,,,,,,,,,,,1.0,,,,,,,,,,,,,,,,,,,,,,,,,,,,,,,,,,,,,,,,,,,,,,,,,,,,,,,,,,,,,,,,,,,,,,,,,,,,,,,,,,,,,,,,,,,,,,,,,,,,,,,,,,
"CZK 20,190","CZK 2,310",750977,2 bedroom,1/1/2023,55 m²,Unfurnished,4,,108.02,1085.67,103.38,802.77,84.16,104.52,509.96,412.64,550.7,316.33,Prague - Strašnice,50.06804,14.49431,"CZK 45,000",Brick,,Very good,,E,,,,,,,,,,1.0,,,,,,,,,,,,,,,,,,,,,,,,,,,,,,,,,,,,,,,,,,,,,,,,,,,,,,,,,,,,,,,,,,,,,,,,,,,,,,,,,,,,,,,,,,,,,,,,,,,,,,,,,,,,,,,,,,,,,,,,,
"CZK 17,000","CZK 6,000",749054,Studio,11/4/2022,32 m²,Fully furnished,3,1.0,152.93,806.07,163.65,319.49,65.27,93.5,536.3,915.84,488.21,814.71,"Šimáčkova, Prague - Holešovice",50.10308,14.43375,"CZK 20,000",Brick,,Very good,,C,,,,,1.0,,,1.0,,,,,,,,,,,,,,,,,,,,,,,,,,,,,,,,,,,,,,,,,,,,,,,,,,,,,,,,,,,,,,,,,,,,,,,,,,,,,,,,,,,,,,,,,,,,,,,,,,,,,,,,,,,,,,,,,,,,,,,,,,,
"CZK 23,000","CZK 4,800",750974,2+kk,11/14/2022,58 m²,Unfurnished,3,1.0,385.75,1412.21,516.57,1404.54,328.71,1429.21,872.52,980.99,561.04,600.2,"U Hostivařského nádraží, Prague - Hostivař",50.05429,14.53365,"CZK 46,000",Prefab concrete,,New-build,Personal,G,,,,1.0,1.0,1.0,,1.0,,,,,,,,,,,,,,,,,,,,,,,,,1.0,,,,,,,,,,,,,,,,,,,,,,,,,,,,,,,,,,,,,,,,,,,,,,,,,,,,,,,,,,,,,,,,,,,,,,,,,,,,,,,,,,,,,,,,,,,,,,,,,,
"CZK 18,000","CZK 3,800",731205,Studio,12/1/2022,38 m²,Partly,8,1.0,406.29,744.63,290.7,539.71,319.88,734.62,509.68,1006.76,121.55,355.04,Prague - Strašnice,50.0802779,14.4893397,"CZK 43,600",Low-energy,Up to 10 years,New-build,Personal,B,Central,,1.0,1.0,1.0,1.0,Luxurious,,1.0,,,,,,,,,,,,,,,,,,,,,,,,,1.0,,,,,,,,,,,,,,,,,,,,,,,,,,,,,,,,,,,,,,,,,,,,,,,,,,,,,,,,,,,,,,,,,,,,,,,,,,,,,,,,,,,,,,,,,,,,,,,,,
"CZK 30,000","CZK 5,000",750970,3+kk,11/21/2022,66 m²,Partly,7,1.0,198.93,1010.58,378.72,393.04,293.65,480.74,221.54,170.54,296.61,9.55,Prague - Nusle,50.05295,14.43289,"CZK 60,000",Brick,,Very good,Personal,G,,,,,,,,,,,,,,,,,,,,,,,,,,,,,,,,,,,,,,,,,,,,,,,,,,,,,,,,,,,,,,,,,,,,,,,,,,,,,,,,,,,,,,,,,,,,,,,,,,,,,,,,,,,,,,,,,,,,,,,,,,,,,,,,,,,
"CZK 12,500","CZK 3,200",750969,Studio,11/14/2022,25 m²,Fully furnished,5,,106.19,713.8,99.45,193.46,182.78,315.56,323.89,442.1,242.13,348.19,"Ve Smečkách, Prague - Nové Město",50.0781,14.42657,"CZK 15,700",Brick,,Very good,,D,,,,,1.0,,,,,,,,,,,,,,,,,,,,1.0,,,,,,,,,,,,,,,,,,,,,,,,,,,,,,,,,,,,,,,,,,,,,,,,,,,,,,,,,,,,,,,,,,,,,,,,,,,,,,,,,,,,,,,,,,,,,,,,,,,,,,,,,,
"CZK 18,000","CZK 2,500",750955,Studio,2/1/2023,39 m²,Partly,3,1.0,309.7,982.13,517.03,742.57,338.99,785.18,687.87,323.42,471.2,301.54,"Olgy Havlové, Prague - Žižkov",50.08853,14.48154,"CZK 18,000",Other,,New-build,,B,,,,1.0,1.0,,,,,,,,1.0,,,,,,,,,,,,1.0,,,,,,,,,,,,,,,,,,,,,,,,,,,,,,,,,,,,,,,,,,,,,,,,,,,,,,,,,,,,,,,,,,,,,,,,,,,,,,,,,,,,,,,,,,,,,,,,,,,,,,,,,,
"CZK 28,000","CZK 5,000",655153,2+kk,12/16/2022,81 m²,Fully furnished,2,,100.73,202.23,179.86,3040.14,131.72,1834.92,293.58,527.21,675.26,759.37,"Marvanova, Prague - Satalice",50.12457,14.57117,"CZK 33,000",Other,Up to 10 years,New-build,Personal,C,Gas boiler,1.0,,1.0,1.0,1.0,Luxurious,,,,,,,,,,,,,,,,,,,,,,,,,,,,,,,,,,,,,,,,,,,,,,,,,,,,,,,,,,,,,,,,,,,,,,,,,,,,,,,,,,,,,,,,,,,,,,,,,,,,,,,,,,,,,,,,,,,,,,,,,,,,
"CZK 24,000","CZK 2,500",750952,2+kk,11/14/2022,51 m²,Partly,1,,122.42,317.73,153.45,300.48,51.29,257.8,149.09,139.88,385.59,666.67,"Italská, Prague - Vinohrady",50.07894,14.43681,"CZK 72,000",Brick,Over 50 years,Very good,Personal,G,,,,,,,,,,,,,,Complete,,,,,,,,,,,,,,,,,,,,,,,,,,,,,,,,,,,,,,,,,,,,,,,,,,,,,,,,,,,,,,,,,,,,,,,,,,,,,,,,,,,,,,,,,,,,,,,,,,,,,,,,,,,,,,,,,,,,,
"CZK 13,000","CZK 2,500",704809,Studio,11/1/2022,17 m²,Fully furnished,6,1.0,258.87,1176.88,518.78,460.6,457.79,197.31,707.5,932.29,451.17,572.73,"Lisabonská, Prague - Libeň",50.10365925,14.496393654922,"CZK 15,500",Brick,,New-build,Personal,G,Central,,,,,,,,,,,,,Complete,,,,,,,,,,,,,,,,,,,,,,,,,,,,,,,,,,,,,,,,,,,,,,,,,,,,,,,,,,,,,,,,,,,,,,,,,,,,,,,,,,,,,,,,,,,,,,,,,,,,,,,,,,,,,,,,,,,,,
"CZK 18,900","CZK 3,000",750953,Studio,11/14/2022,38 m²,Partly,3,1.0,170.33,699.26,223.59,204.25,213.73,205.22,415.63,706.65,480.94,37.51,"Vojenova, Prague - Libeň",50.10503,14.47316,"CZK 18,900",Other,,New-build,,B,,,,1.0,,1.0,,,,,,,1.0,,,,,,,,,,,,1.0,,,,,,,,,,,,,,,,,,,,,,,,,,,,,,,,,,,,,,,,,,,,,,,,,,,,,,,,,,,,,,,,,,,,,,,,,,,,,,,,,,,,,,,,,,,,,,,,,,,,,,,,,,
"CZK 19,000","CZK 3,000",750486,2+kk,1/1/2023,49 m²,Fully furnished,3,1.0,101.85,564.3,53.33,307.95,171.82,307.73,449.26,399.04,533.51,686.37,"Mojmírova, Prague - Nusle",50.06368,14.44643,"CZK 38,000",Brick,,Very good,,A,,,,,1.0,,,,,,,,,,,,,,,,,,,,,,,,,,,,,,1.0,,,,,,,,,,,,,,,,,,,,,,,,,,,,,,,,,,,,,,,,,,,,,,,,,,,,,,,,,,,,,,,,,,,,,,,,,,,,,,,,,,,,,,,,,,,,,,,,
"CZK 8,000","CZK 4,000",661029,Small studio,5/3/2021,20 m²,Fully furnished,3,1.0,145.71,232.54,165.62,167.34,301.43,310.99,241.66,363.24,523.55,380.64,"Vladivostocká, Prague - Vršovice",50.068585,14.4713735,"CZK 9,000",Other,,Very good,,D,Distance,,,,,,Standard,,,,,,,,,,,,,,,,,,,,,,,,,,,,,,,,,,,,,,,,,,,,,,,,,,,,,,,,,,,,,,,,,,,,,,,,,,,,,,,,,,,,,,,,,,,,,,,,,,,,,,,,,,,,,,,,,,,,,,,,,,,,
"CZK 15,000","CZK 3,500",575551,2+kk,10/1/2019,55 m²,Partly,8,1.0,116.66,571.83,430.04,501.71,501.74,443.52,563.74,1041.88,1325.23,183.48,"Poznaňská, Prague - Bohnice",50.13045,14.4188109,"CZK 20,000",Prefab concrete,,Very good,Cooperative,A,Central,,1.0,,,,Standard,,,,,,,Complete,,,,,,1.0,,,,,,,,,,,,,,,,1.0,,,,,,,,,,,,,,,,,,,,,,,,,,,,,,,,,,,,,,,,,,,,,,,,,,,,,,,,,,,,,,,,,,,,,,,,,,,,,,,,,,,,,,,,,,,,,,,
"CZK 12,000","CZK 7,000",444803,1 bedroom,12/1/2022,45 m²,Fully furnished,5,1.0,246.99,994.42,71.42,321.39,20.14,179.2,316.58,271.04,420.27,395.15,"Biskupcova, Prague - Žižkov",50.0900527,14.4731604,"CZK 20,000",Brick,,Good,Personal,,,,,,,,Standard,,,,,,,,,,,,,,1.0,,,,,,,,,,,,,,,,,,,,,,,,,,,,,,,,,,,,,,,,,,,,,,,,,,,,,,,,,,,,,,,,,,,,,,,,,,,,,,,,,,,,,,,,,,,,,,,,,,,,,,,,,,,,,,
"CZK 8,500","CZK 4,000",749492,Small studio,12/1/2022,20 m²,Fully furnished,2,,929.82,1304.97,1897.81,3822.93,1566.71,3723.25,1969.75,2021.5,4529.82,1007.21,Prague - Sedlec,50.13206,14.39499,"CZK 12,500",Brick,,Good,Personal,C,,,,,1.0,,,,,,,,,,,,,,,,,,,,,,1.0,,,,,,,,,,,,,,,,,,,,,,,,,,,,,,,,,,,,,,,,,,,,,,,,,,,,,,,,,,,,,,,,,,,,,,,,,,,,,,,,,,,,,,,,,,,,,,,,,,,,,,,,
"CZK 24,000","CZK 4,700",697245,2+kk,12/15/2022,54 m²,Fully furnished,1,1.0,94.71,1149.03,526.81,1108.88,799.46,1075.87,1079.13,1110.68,1000.78,341.73,"Granitova, Prague - Hloubětín",50.10797,14.52751,"CZK 40,000",Brick,,New-build,Personal,G,Electric boiler,,,,,1.0,,,,,,,,,,,,,,,,,,,,,,,,,,,,,,,1.0,,,,,,,,,,,,,,,,,,,,,,,,,,,,,,,,,,,,,,,,,,,,,,,,,,,,,,,,,,,,,,,,,,,,,,,,,,,,,,,,,,,,,,,,,,,,,,
"CZK 15,000","CZK 4,000",319883,2+kk,9/1/2022,43 m²,Fully furnished,4,1.0,416.89,893.09,446.97,403.03,457.39,458.55,284.17,513.98,506.27,21.06,"Bellušova, Prague - Stodůlky",50.042152,14.3220897,"CZK 30,000",Prefab concrete,,,Personal,,,,,,,,,,,,,,,,,,,,,,,,,,,,,,,,,,,,,,,,,,,,,,,,,,,,,,,,,,,,,,,,,,,,,,,,,,,,,,,,,,,,,,,,,,,,,,,,,,,,,,,,,,,,,,,,,,,,,,,,,,,,,,,,,,,,
"CZK 20,000","CZK 5,000",750943,3+1,11/14/2022,80 m²,Partly,9,1.0,178.39,937.67,416.98,930.33,270.43,343.92,456.85,495.28,1400.97,450.98,"Údolní, Prague - Hodkovičky",50.0252,14.42314,"CZK 20,000",Prefab concrete,,Very good,,D,,,,,1.0,,,,,,,,,,,,,,,,1.0,,,,1.0,,,,,,,,,,,,,1.0,,,,,,,,,,,,,,,,,,,,,,,,,,,,,,,,,,,,,,,,,,,,,,,,,,,,,,,,,,,,,,,,,,,,,,,,,,,,,,,,,,,,,,,,,,,,,
"CZK 13,999","CZK 3,500",535074,Studio,12/1/2022,35 m²,Unfurnished,1,,261.68,824.15,57.69,334.41,52.72,142.26,491.99,933.92,461.91,859.93,"Schnirchova, Prague - Holešovice",50.1028731,14.4349312,"CZK 13,999",Brick,,,Cooperative,,,,,,,,,,,,,,,,,,,,,,,,,,,,,,,,,,,,,,,,,,,,,,,,,,,,,,,,,,,,,,,,,,,,,,,,,,,,,,,,,,,,,,,,,,,,,,,,,,,,,,,,,,,,,,,,,,,,,,,,,,,,,,,,,,,,
"CZK 22,000","CZK 3,000",729217,2+kk,11/15/2022,50 m²,Unfurnished,2,1.0,74.47,248.04,144.44,546.23,23.58,607.43,204.39,503.62,355.73,315.68,Prague - Malá Strana,50.08164,14.40601,"CZK 22,000",Brick,,Very good,Personal,G,,,,,,,,,,,,,,,,,,,,,,,,,,,,,,,,,,,,,,,,,,,,,,,,,,,,,,,,,,,,,,,,,,,,,,,,,,,,,,,,,,,,,,,,,,,,,,,,,,,,,,,,,,,,,,,,,,,,,,,,,,,,,,,,,,,
"CZK 17,500","CZK 1,000",562797,2+kk,11/7/2022,52 m²,Partly,1,,333.82,584.56,154.21,439.08,344.7,495.05,589.37,587.29,769.29,294.06,"Krátká, Prague - Vinohrady",50.0750204,14.4851619,"CZK 18,500",Brick,,,Personal,,Electric boiler,,,,,,,,,,,,,Interior,,,,,,,,,,,,,,,,,,,,,,,,,,,,,,,,,,,,,,,,,,,,,,,,,,,,,,,,,,,,,,,,,,,,,,,,,,,,,,,,,,,,,,,,,,,,,,,,,,,,,,,,,,,,,,,,,,,,,
"CZK 19,000","CZK 5,303",750825,3+1,12/1/2022,84 m²,Partly,1,1.0,77.62,668.25,563.52,643.16,586.67,333.39,301.89,190.63,920.2,102.5,"Skuteckého, Prague - Řepy",50.06858,14.31193,"CZK 38,000",Prefab concrete,,Very good,,G,,,,,,,,,,,,,,,,,,,,,1.0,,,,,,,,,,,,,,,,,,,,,,,,,,,,,,,,,,,,,,,,,,,,,,,,,,,,,,,,,,,,,,,,,,,,,,,,,,,,,,,,,,,,,,,,,,,,,,,,,,,,,,,,,,,,,,
"CZK 40,500","CZK 3,700",749072,3+kk,11/7/2022,93 m²,Partly,3,1.0,122.4,207.49,78.7,167.84,108.33,181.16,118.0,459.49,852.37,311.57,"Václavská, Prague - Nové Město",50.07498,14.41715,"CZK 45,000",Brick,,Very good,,G,,,,,,,,,,,,,,,,,,,,,,,,,,,,,,,,,,,,,,,,,,,,,,,,,,,,,,,,,,,,,,,,,,,,,,,,,,,,,,,,,,,,,,,,,,,,,,,,,,,,,,,,,,,,,,,,,,,,,,,,,,,,,,,,,,,
"CZK 15,000","CZK 6,000",750911,2+kk,12/1/2022,40 m²,Fully furnished,7,1.0,107.44,1295.05,188.34,1644.08,112.71,709.13,842.85,1174.67,559.7,380.76,"Štúrova, Prague - Krč",50.02978,14.44976,"CZK 20,000",Prefab concrete,,Good,,G,,,,,1.0,,,,,,,,,,,,,,,,,,,,,,,,,,,,,,,,,,,,,,,,,,,,,,,,,,,,,,,,,,,,,,,,,,,,,,,,,,,,,,,,,,,,,,,,,,,,,,,,,,,,,,,,,,,,,,,,,,,,,,,,,,,,,,
"CZK 30,000","CZK 4,000",750894,2+kk,11/14/2022,84 m²,Fully furnished,7,1.0,458.42,1780.49,709.75,1762.04,1174.23,719.13,1430.17,1451.74,980.2,20.82,Prague - Vysočany,50.10518,14.51655,"CZK 30,000",Brick,,New-build,,B,,,,1.0,,1.0,,,,,,,,,,,,,,,,,,,,,,,,,,,,,,,,,1.0,,,,,,,,,,,,,,,,,,,,,,,,,,,,,,,,,,,,,,,,,,,,,,,,,,,,,,,,,,,,,,,,,,,,,,,,,,,,,,,,,,,,,,,,,,,,
"CZK 10,010","CZK 3,990",750901,Studio,11/14/2022,27 m²,Fully furnished,7,1.0,102.24,486.47,175.91,421.31,421.34,470.16,170.89,276.56,1754.73,377.25,"Svídnická, Prague - Troja",50.12776,14.41251,"CZK 15,000",Prefab concrete,,Very good,,G,,,,,1.0,,,,,,,,,,,,,,,,,,,,1.0,,,1.0,,,,,,,,,,,,,,,,,,,,,,,,,,,,,,,,,,,,,,,,,,,,,,,,,,,,,,,,,,,,,,,,,,,,,,,,,,,,,,,,,,,,,,,,,,,,,,,,,,,,,,,
"CZK 13,800","CZK 3,600",750899,2+kk,12/1/2022,45 m²,Partly,3,1.0,215.48,274.27,440.04,633.25,349.02,538.84,290.79,784.27,2031.22,215.97,"U Kříže, Prague - Jinonice",50.05442,14.36762,"CZK 20,000",Brick,,Very good,,D,,,,,1.0,,,,,,,,,,,,,,,,,,1.0,,,,,,,,,,,,,,,,,,,,,,,,,,,,,,,,,,,,,,,,,,,,,,,,,,,,,,,,,,,,,,,,,,,,,,,,,,,,,,,,,,,,,,,,,,,,,,,,,,,,,,,,,,,,
"CZK 35,000","CZK 2,000",750194,3+kk,11/14/2022,100 m²,Partly,5,,13.11,719.52,50.98,252.06,106.29,267.09,197.37,353.22,193.66,284.81,"Žitná, Prague - Nové Město",50.07736,14.42588,"CZK 70,000",Brick,Over 50 years,Very good,Personal,G,Electric boiler,,,,,,Standard,,,,,,,Interior,,,,,,,,,,,,,,,,,,,,,,,,,,,,,,,,,,,,,,,,,,,,,,,,,,,,,,,,,,,,,,,,,,,,,,,,,,,,,,,,,,,,,,,,,,,,,,,,,,,,,,,,,,,,,,,,,,,,,
"CZK 22,500","CZK 4,600",750896,3+1,1/1/2023,75 m²,Fully furnished,10,1.0,136.33,940.02,346.11,1259.9,326.58,362.22,336.45,874.78,150.91,96.88,"Bramboříková, Prague - Záběhlice",50.05491,14.49274,"CZK 20,000",Prefab concrete,,Very good,,D,,,,,1.0,,,,,,,,,,,,,1.0,,,,,,,1.0,,,,,,,,,,,,,,,,,,,,,,,,,,,,,,,,,,,,,,,,,,,,,,,,,,,,,,,,,,,,,,,,,,,,,,,,,,,,,,,,,,,,,,,,,,,,,,,,,,,,,,,,,,
"CZK 18,000","CZK 6,000",750897,2 bedroom,1/2/2023,18 m²,Fully furnished,1,1.0,86.73,959.67,89.11,676.82,473.62,437.14,758.7,446.38,225.81,349.26,"Nad Vodovodem, Prague - Strašnice",50.0808334,14.4862352,,,,,,,,,,,,1.0,,,,,,,,,,,,,,,,,,,,,,,,,,,,1.0,,1.0,,,,,,,,,,,,,,,,,,,,,,,,,,,,,,,,,,,,,,,,,,,,,,,,,,,,,,,,,,,,,,,,,,,,,,,,,,,,,,,,,,,,,,,,,,,,,,,
"CZK 23,500","CZK 5,000",748861,2 bedroom,12/1/2022,52 m²,Fully furnished,4,,359.18,338.14,224.24,380.82,384.32,544.05,220.21,287.34,648.54,75.06,"Nad Vodovodem, Prague - Malešice",50.082,14.49586,"CZK 28,500",Prefab concrete,,Good,,G,,,,,1.0,,,,,,,,,,,,,,,,,,,,,,,,,,,,,,,,,,,,,,,,,,,,,,,,,,,,,,,,,,,,,,,,,,,,,,,,,,,,,,,,,,,,,,,,,,,,,,,,,,,,,,,,,,,,,,,,,,,,,,,,,,,,,,
"CZK 20,000",CZK 0,692373,2 bedroom,11/3/2022,70 m²,Fully furnished,,,177.89,442.14,303.03,2757.53,222.22,1011.1,654.29,1998.78,1233.94,601.96,"Na Šejdru, Prague - Libuš",50.00698,14.46001,"CZK 20,000",Brick,,Very good,Personal,G,,,,,,,,,,,,,,,,,,,,,,,,,,,,,,,,,,,,,,,,,,,,,,,,,,,,,,,,,,,,,,,,,,,,,,,,,,,,,,,,,,,,,,,,,,,,,,,,,,,,,,,,,,,,,,,,,,,,,,,,,,,,,,,,,,,
"CZK 24,000","CZK 6,000",716761,3+1,12/1/2022,75 m²,Fully furnished,7,1.0,69.61,506.32,83.14,1497.66,725.41,563.08,613.34,646.45,1092.89,385.31,"Cíglerova, Prague - Černý Most",50.1069,14.56511,"CZK 40,000",Prefab concrete,,Very good,Personal,C,Central,,,,,,Standard,,,,,,,Complete,,,,,,,,,,,,,,,,,,,,,,,,,,,,,,,,,,,,,,,,,,,,,,,,,,,,,,,,,,,,,,,,,,,,,,,,,,,,,,,,,,,,,,,,,,,,,,,,,,,,,,,,,,,,,,,,,,,,,
"CZK 14,500","CZK 2,961",359174,2+kk,1/1/2023,37 m²,Partly,3,1.0,387.35,1366.21,297.56,1304.59,457.31,775.48,366.63,467.01,306.26,231.87,"Habartická, Prague - Střížkov",50.1218161,14.4824004,"CZK 12,500",Prefab concrete,,Very good,Personal,,Distance,1.0,,,1.0,,,,,,,,,Complete,,,,,,,,,,,,,,,,,,,,,,,,,,,,,,,,,,,,,,,,,,,,,,,,,,,,,,,,,,,,,,,,,,,,,,,,,,,,,,,,,,,,,,,,,,,,,,,,,,,,,,,,,,,,,,,,,,,,,
"CZK 17,000","CZK 3,000",582133,2 bedroom,11/14/2022,54 m²,Partly,1,1.0,207.07,910.16,75.18,1412.62,33.12,720.03,363.42,290.37,274.92,237.1,"Brechtova, Prague - Chodov",50.036897,14.51398,"CZK 20,000",Prefab concrete,,Very good,Personal,D,Distance,,,,,,Standard,,,,,,,Interior,,,,,,,,,,,,,,,,,,,,,,,,,,1.0,,,,,,,,,,,,,,,,,,,,,,,,,,,,,,,,,,,,,,,,,,,,,,,,,,,,,,,,,,,,,,,,,,,,,,,,,,,,,,,,,,,,,,,,,,,
"CZK 14,000",CZK 600,284934,Small studio,12/15/2022,35 m²,Partly,1,,227.46,320.45,463.64,256.41,15.55,1192.93,365.02,708.71,627.38,444.99,"Nuselská, Prague - Michle",50.0559445,14.4510722,"CZK 14,000",Brick,Over 50 years,,Personal,,Gas boiler,,,,,,,,,,,,,Interior,,,,,,,,,,,,,,,,,,,,,,,,,,,,,,,,,,,,,,,,,,,,,,,,,,,,,,,,,,,,,,,,,,,,,,,,,,,,,,,,,,,,,,,,,,,,,,,,,,,,,,,,,,,,,,,,,,,,,
"CZK 20,000","CZK 2,000",750842,2+kk,1/1/2023,57 m²,Fully furnished,2,1.0,300.04,508.32,336.88,637.4,193.96,610.62,115.03,232.53,370.25,191.83,"Lužická, Prague - Vinohrady",50.07344,14.44654,"CZK 20,000",Brick,,Very good,Personal,D,,,,,,,Standard,,,,,,,Complete,,,,,,,,,,,,,,,,,,,,,,,,,,,,,,,,,,,,,,,,,,,,,,,,,,,,,,,,,,,,,,,,,,,,,,,,,,,,,,,,,,,,,,,,,,,,,,,,,,,,,,,,,,,,,,,,,,,,,
"CZK 14,000",CZK 0,457969,2+kk,12/1/2022,40 m²,Unfurnished,1,,241.07,1061.59,1303.16,2303.06,258.64,1807.64,1330.77,1728.31,904.56,973.33,Prague - Hostivař,50.056173,14.5453454,CZK 0,Brick,,,,,Electric boiler,,,,,,,,,,,,,,,,,,,,,,,,,,,,,,,,,,,,,,,,,,,,,,,,,,,,,,,,,,,,,,,,,,,,,,,,,,,,,,,,,,,,,,,,,,,,,,,,,,,,,,,,,,,,,,,,,,,,,,,,,,,,,,,,,,
"CZK 25,000","CZK 1,300",748804,3+kk,12/10/2022,94 m²,Fully furnished,2,1.0,160.12,1211.08,874.77,1059.67,532.16,998.72,786.91,1128.48,670.21,41.85,"Wiesenthalova, Prague - Řeporyje",50.03857,14.32246,"CZK 25,000",Brick,,New-build,,C,,,,1.0,1.0,1.0,,,,,,,,,,,,,,,,,,,1.0,,,,,,,,,,,,,,,,1.0,1.0,,,,,,,,,,,,,,,,,,,,,,,,,,,,,,,,,,,,,,,,,,,,,,,,,,,,,,,,,,,,,,,,,,,,,,,,,,,,,,,,,,,,,,,,,
"CZK 15,400","CZK 3,800",750238,Studio,12/1/2022,35 m²,Partly,3,1.0,41.51,824.15,288.43,650.62,319.47,760.15,571.45,778.35,509.46,267.21,"Kolbenova, Prague - Vysočany",50.11045,14.51322,"CZK 15,400",Brick,,New-build,,B,,,,1.0,1.0,,,,,,,,,,,,,,,,,,,,,,,,,,,,,,,,,,,,,,1.0,,,,,,,,,,,,,,,,,,,,,,,,,,,,,,,,,,,,,,,,,,,,,,,,,,,,,,,,,,,,,,,,,,,,,,,,,,,,,,,,,,,,,,,,
"CZK 18,000","CZK 3,500",273610,Studio,11/14/2022,34 m²,Fully furnished,-1,1.0,255.79,607.98,115.3,206.19,68.12,166.28,607.81,440.8,426.26,417.94,"Jindřicha Plachty, Prague - Smíchov",50.0705554,14.407636,"CZK 20,000",Brick,,Very good,Personal,,Distance,,,,,,,,,,,,,,,,,,,,,,,,,,,,,,,,,,,,,,,,,,,1.0,,,,,,,,,,,,,,,,,,,,,,,,,,,,,,,,,,,,,,,,,,,,,,,,,,,,,,,,,,,,,,,,,,,,,,,,,,,,,,,,,,,,,,,
"CZK 18,000","CZK 4,800",484702,2 bedroom,10/1/2019,50 m²,Fully furnished,3,,235.07,974.23,183.61,794.93,414.38,550.29,568.61,357.23,667.12,204.9,"Flájská, Prague - Strašnice",50.0711408,14.4996515,CZK 0,Prefab concrete,,,Cooperative,,,,,,,,,,,,,,,,,,,,,,1.0,,,,,,,,,,,,,,,,,,,,,,,,,,,,,,,,,,,,,,,,,,,,,,,,,,,,,,,,,,,,,,,,,,,,,,,,,,,,,,,,,,,,,,,,,,,,,,,,,,,,,,,,,,,,,,
"CZK 16,500","CZK 4,300",624596,Studio,11/9/2022,36 m²,Fully furnished,5,,99.62,630.69,70.94,39.12,2.18,65.65,171.37,307.14,85.83,416.86,"Milady Horákové, Prague - Holešovice",50.099393,14.431395,"CZK 20,800",Brick,,Very good,Personal,A,,,,,,,,,,,,,,Complete,,,,,,,,,,,,,,,,,,,,,,,,,,,,,,,,,,,,,,,,,,,,,,,,,,,,,,,,,,,,,,,,,,,,,,,,,,,,,,,,,,,,,,,,,,,,,,,,,,,,,,,,,,,,,,,,,,,,,
"CZK 15,000","CZK 1,430",526156,1 bedroom,11/14/2022,46 m²,Partly,11,1.0,58.12,111.19,58.42,1640.69,388.14,167.94,218.2,605.91,755.62,220.17,"Bratří Venclíků, Prague - Černý Most",50.1061474,14.5598414,"CZK 15,000",Prefab concrete,,,Personal,,Distance,,,,,,Standard,,,,,,,Complete,,,,,,,1.0,,,,,,,,,,,,,,,,,,,,,,,,1.0,,,,,,,,,,,,,,,,,,,,,,,,,,,,,,,,,,,,,,,,,,,,,,,,,,,,,,,,,,,,,,,,,,,,,,,,,,,,,,,,,,,,,,
"CZK 15,500","CZK 5,000",261360,1 bedroom,10/1/2022,42 m²,Partly,1,,331.24,781.05,684.31,744.39,389.49,703.4,548.2,708.51,1253.91,306.21,Prague - Suchdol,50.1402544,14.3836969,"CZK 30,000",Brick,Over 50 years,Very good,Personal,,Central,,,,,,Luxurious,,,,,,,Complete,,,,,,,,,,,,,,,,,,,,,,,,,,,,,,,,,,,,,,,,,,,,,,,,,,,,,,,,,,,,,,,,,,,,,,,,,,,,,,,,,,,,,,,,,,,,,,,,,,,,,,,,,,,,,,,,,,,,,
"CZK 13,500","CZK 3,500",647672,Studio,2/1/2023,34 m²,Partly,5,1.0,422.25,2098.33,1716.97,2092.5,405.38,1960.81,1218.59,2136.21,369.49,1105.34,"Šífařská, Prague - Hodkovičky",50.021423,14.402726,"CZK 17,000",Brick,Up to 10 years,New-build,Personal,B,,,,,,,Standard,,,,,,,,,,,1.0,,,,,,,,,,,,,,,,,,,,,,,,,,,,,,,,,,,,,,,,,,,,,,,,,,,,,,,,,,,,,,,,,,,,,,,,,,,,,,,,,,,,,,,,,,,,,,,,,,,,,,,,,,,,,,,,,
"CZK 9,500","CZK 5,000",479645,Studio,11/14/2022,32 m²,Partly,6,1.0,130.29,593.46,407.61,578.67,393.83,366.94,244.95,187.7,1179.12,256.26,"Novodvorská, Prague - Braník",50.0271152,14.4283682,"CZK 14,500",Prefab concrete,,,Personal,,Distance,,,,,,Standard,,,,,,,Complete,,,,,,,1.0,,,,,,,,,,,,,,,,,,,,,,,,,,,,,,,,,,,,,,,,,,,,,,,,,,,,,,,,,,,,,,,,,,,,,,,,,,,,,,,,,,,,,,,,,,,,,,,,,,,,,,,,,,,,,,
"CZK 12,500","CZK 3,600",578794,1 bedroom,11/1/2019,39 m²,Partly,,,57.3,2023.39,621.34,1655.16,289.95,735.57,465.78,435.31,357.11,274.33,"Na Pískách, Prague - Dejvice",50.108696,14.375387,"CZK 32,200",Brick,,Very good,Personal,B,,,,,,,,,,,,,,,,,,,,,,,,,,,,,,,,,,,,,,,,,,,,,,,,,,,,,,,,,,,,,,,,,,,,,,,,,,,,,,,,,,,,,,,,,,,,,,,,,,,,,,,,,,,,,,,,,,,,,,,,,,,,,,,,,,,
"CZK 14,000","CZK 3,000",653954,Small studio,12/1/2022,50 m²,Partly,1,,358.61,1101.76,764.23,2072.17,775.27,1907.11,846.07,1357.75,558.54,886.92,"Návětrná, Prague - Slivenec",50.0253429,14.360525856426,"CZK 20,000",Brick,Up to 10 years,New-build,Personal,C,Central,,,,1.0,,Standard,,,,,,,,,,,,,,,,,,,,,,,,,1.0,,,,,,,,,,,,,,,,,,,,,,,,,,,,,,,,,,,,,,,,,,,,,,,,,,,,,,,,,,,,,,,,,,,,,,,,,,,,,,,,,,,,,,,,,,,,,,,,,,,
"CZK 21,000","CZK 4,000",713575,3+kk,11/14/2022,67 m²,Partly,5,,264.57,1568.64,239.85,852.85,471.53,516.86,771.19,451.58,1268.89,71.74,"Mirovická, Prague - Kobylisy",50.13037,14.44918,"CZK 21,000",Prefab concrete,,Very good,Personal,G,Central,,,,,,,,,,,,,Complete,,,,,,,,,,,,,,1.0,,,,,,,,,,,,,,,,,,,,,,,,,,,,,,,,,,,,,,,,,,,,,,,,,,,,,,,,,,,,,,,,,,,,,,,,,,,,,,,,,,,,,,,,,,,,,,,,,,,,,,,
"CZK 12,500","CZK 3,000",750871,2+kk,11/14/2022,65 m²,Fully furnished,1,,363.19,4015.79,3879.02,6105.93,940.98,5320.39,4092.8,4084.9,2955.55,2601.24,Prague - Zadní Kopanina,50.00712,14.31781,"CZK 30,000",Other,,Good,,G,,,,,,,,,,,,,,,,,,,,,,,,,,,,,,,,,,,,,,,,,,,,,,,,,,,,,,,,,,,,,,,,,,,,,,,,,,,,,,,,,,,,,,,,,,,,,,,,,,,,,,,,,,,,,,,,,,,,,,,,,,,,,,,,,,,
"CZK 12,000","CZK 3,400",750806,Studio,12/1/2022,30 m²,Partly,4,,281.12,1009.21,132.94,823.22,527.81,947.86,322.09,2187.8,1197.11,132.55,"Prušánecká, Prague - Zličín",50.05742,14.28128,"CZK 15,000",Brick,,New-build,,C,Central,,,1.0,,,,1.0,,,,,,,,,,,,,,,,,,,,,,,,,,,,,,,,,,,,,,,,,,,,,,,,,,,,,,,,,,,,,,,,,,,,,,,,,,,,,,,,,,,,,,,,,,,,,,,,,,,,,,,,,,,,,,,,,,,,,,,,,,,
"CZK 22,000","CZK 4,500",749996,2 bedroom,11/8/2022,58 m²,Partly,2,1.0,178.42,229.24,292.1,426.04,204.35,277.79,95.43,112.86,496.28,290.49,"Šantrochova, Prague - Břevnov",50.08793,14.34934,"CZK 22,000",Prefab concrete,,Very good,,C,,1.0,,,,,,1.0,,,,,,,,,,,,,,,,,,,,,,,,,,,,,,,,,,,,,,,,,,,,,,,,,,,,,,,,,,,,,,,,,,,,,,,,,,,,,,,,,,,,,,,,,,,,,,,,,,,,,,,,,,,,,,,,,,,,,,,,,,,
"CZK 19,500","CZK 4,500",639749,2+kk,11/19/2020,55 m²,Fully furnished,3,1.0,214.85,111.86,183.29,1264.57,201.57,1099.51,477.0,709.91,746.45,109.54,"Hugo Haase, Prague - Hlubočepy",50.029126,14.363101,"CZK 25,000",Brick,,New-build,Personal,A,,,,,,,,,,,,,,,,,,,,,,,,,,,,,,,,,,,,,,,,,,,,,,,,,,,,,,,,,,,,,,,,,,,,,,,,,,,,,,,,,,,,,,,,,,,,,,,,,,,,,,,,,,,,,,,,,,,,,,,,,,,,,,,,,,,
"CZK 19,000",CZK 600,750761,Studio,11/13/2022,36 m²,Fully furnished,6,,54.95,818.37,692.83,786.65,38.17,794.49,702.9,966.1,271.55,246.5,"Raichlova, Prague - Stodůlky",50.03875,14.32879,"CZK 35,000",Low-energy,,New-build,,A,,,,,,,,,,,,,1.0,,,,,,,,,,,,,,,,,,,,,,,,,,,,,,,,,,,,,,,,,,,,,,,,,,,,,,,,,,,,,,,,,,,,,,,,,,,,,,,,,,,,,,,,,,,,,,,,,,,,,,,,,,,,,,,,,,,,,,
"CZK 14,722","CZK 1,350",750719,2 bedroom,11/13/2022,50 m²,Partly,3,,117.42,680.09,418.78,584.73,107.71,176.21,387.47,504.24,590.23,262.97,"Třeboňská, Prague - Michle",50.04361,14.45668,"CZK 25,000",Brick,,Very good,,G,,,,,,,,,,,,,,,,,,,,,,,,,,,,,,,,,,,,,,,,,,,,,,,,,,,,,,,,,,,,,,,,,,,,,,,,,,,,,,,,,,,,,,,,,,,,,,,,,,,,,,,,,,,,,,,,,,,,,,,,,,,,,,,,,,,
"CZK 31,500","CZK 10,500",746228,2 bedroom,12/17/2022,75 m²,Fully furnished,3,1.0,286.21,293.35,195.84,193.77,92.11,378.02,243.35,1039.65,522.33,334.73,"Čechova, Prague - Bubeneč",50.1016621,14.4210737,,,,,,,,,,,,,,,,,,,,,,,,,,,,,,,,,,,,,,,,,,,,,,,,,,,,,,,,,,,,,,,,,,,,,,,,,,,,,,,,,,,,,,,,,,,,,,,,,,,,,,,,,,,,,,,,,,,,,,,,,,,,,,,,,,,,,,,,,
"CZK 41,250","CZK 13,750",747658,2 bedroom,11/16/2022,85 m²,Fully furnished,3,,191.57,753.62,69.97,330.93,13.61,374.53,239.9,389.11,372.07,326.14,"Štěpánská, Prague - Nové Město",50.0782592,14.4248942,,,,,,,,,,,,,,,,,,,,,,,,,,,,,,,,,,,,,,,,,,,,,,,,,,,,,,,,,,,,,,,,,,,,,,,,,,,,,,,,,,,,,,,,,,,,,,,,,,,,,,,,,,,,,,,,,,,,,,,,,,,,,,,,,,,,,,,,,
"CZK 33,750","CZK 11,250",748328,2+kk,12/30/2022,60 m²,Fully furnished,2,1.0,239.73,541.75,45.52,270.79,35.61,285.18,465.63,625.46,639.52,581.38,"Mečislavova, Prague - Nusle",50.0633237,14.4440058,,,,,,,,,,,,,,,,,,,,,,,,,,,,,,,,,,,,,,,,,,,,,,,,,,,,,,,,,,,,,,,,,,,,,,,,,,,,,,,,,,,,,,,,,,,,,,,,,,,,,,,,,,,,,,,,,,,,,,,,,,,,,,,,,,,,,,,,,
"CZK 21,750","CZK 7,250",748687,2+kk,1/1/2023,56 m²,Fully furnished,3,,70.48,651.68,120.37,158.26,122.08,195.97,124.22,455.88,648.75,501.88,"Klapkova, Prague - Kobylisy",50.1234603,14.456174,,,,,,,,,,,,,,,,,,,,,,,,,,,,,,,,,,,,,,,,,,,,,,,,,,,,,,,,,,,,,,,,,,,,,,,,,,,,,,,,,,,,,,,,,,,,,,,,,,,,,,,,,,,,,,,,,,,,,,,,,,,,,,,,,,,,,,,,,
"CZK 33,750","CZK 11,250",748840,1 bedroom,1/2/2023,43 m²,Fully furnished,3,1.0,275.28,321.52,72.5,617.26,60.27,467.19,25.57,60.76,793.43,562.96,"Americká, Prague - Vinohrady",50.0717643,14.4385436,,,,,,,,,,,,,,,,,,,,,,,,,,,,,,,,,,,,,,,,,,,,,,,,,,,,,,,,,,,,,,,,,,,,,,,,,,,,,,,,,,,,,,,,,,,,,,,,,,,,,,,,,,,,,,,,,,,,,,,,,,,,,,,,,,,,,,,,,
"CZK 32,250","CZK 10,750",748836,Studio,1/2/2023,27 m²,Fully furnished,4,1.0,275.28,321.52,72.5,617.26,60.27,467.19,25.57,60.76,793.43,562.96,"Americká, Prague - Vinohrady",50.0717643,14.4385436,,,,,,,,,,,,,,,,,,,,,,,,,,,,,,,,,,,,,,,,,,,,,,,,,,,,,,,,,,,,,,,,,,,,,,,,,,,,,,,,,,,,,,,,,,,,,,,,,,,,,,,,,,,,,,,,,,,,,,,,,,,,,,,,,,,,,,,,,
"CZK 12,000","CZK 4,000",680872,2+kk,11/1/2022,34 m²,Partly,2,,130.05,892.4,387.7,913.41,109.61,1065.35,661.3,1138.39,97.26,394.24,Prague - Zličín,50.0596356,14.2948596,"CZK 20,000",Brick,,Good,Personal,G,,,,,,,,,,,,,,,,,,,,,,,,,,,,,,,,,,,,,,,,,,,,,,,,,,,,,,,,,,,,,,,,,,,,,,,,,,,,,,,,,,,,,,,,,,,,,,,,,,,,,,,,,,,,,,,,,,,,,,,,,,,,,,,,,,,
"CZK 33,750","CZK 11,250",750278,2+kk,1/9/2023,56 m²,Fully furnished,5,1.0,240.81,540.67,44.44,271.87,34.53,284.1,466.7,624.38,640.6,582.46,"Mečislavova, Prague - Nusle",50.0633339,14.4440155,,,,,,,,,,,,,,,,,,,,,,,,,,,,,,,,,,,,,,,,,,,,,,,,,,,,,,,,,,,,,,,,,,,,,,,,,,,,,,,,,,,,,,,,,,,,,,,,,,,,,,,,,,,,,,,,,,,,,,,,,,,,,,,,,,,,,,,,,
"CZK 30,000","CZK 10,000",750850,Studio,12/22/2022,45 m²,Fully furnished,8,,76.73,449.94,88.91,208.35,67.86,441.71,825.13,163.5,558.56,82.03,"Banskobystrická, Prague - Dejvice",50.1000121,14.3916447,,,,,,,,,,,,,,,,,,,,,,,,,,,,,,,,,,,,,,,,1.0,,1.0,,,,,,,,,,,,,,,,,,,,,,,,,,,,,,,,,,,,,,,,,,,,,,,,,,,,,,,,,,,,,,,,,,,,,,,,,,,,,,,,,,,,,,,,,,,,,,,
"CZK 17,250","CZK 5,750",744960,3+1,12/16/2022,90 m²,Fully furnished,5,1.0,82.8,397.93,96.94,404.98,135.48,353.78,131.46,217.55,654.74,661.34,"Blanická, Prague - Vinohrady",50.0746503,14.439294,,,,,,,,,,,,,,,,,,,,,,,,,,,,,,,,,,,,,,,,,,,,,,,,,,,,,,,,,,,,,,,,,,,,,,,,,,,,,,,,,,,,,,,,,,,,,,,,,,,,,,,,,,,,,,,,,,,,,,,,,,,,,,,,,,,,,,,,,
"CZK 12,300","CZK 2,700",645720,2+kk,11/12/2022,41 m²,Partly,2,1.0,139.91,1033.51,152.43,913.09,108.39,129.65,138.04,177.38,787.39,73.2,"Komořanská, Prague - Modřany",50.003901,14.405669,"CZK 15,000",Prefab concrete,10 to 30 years,Very good,Personal,C,,,1.0,,,,,,,,,,,,,,,,,,,,,,,,,,,,,,,,,,,,,,,,,,,,,,,,,,,,,,,,,,,,,,,,,,,,,,,,,,,,,,,,,,,,,,,,,,,,,,,,,,,,,,,,,,,,,,,,,,,,,,,,,,,,,,,,
"CZK 16,000","CZK 7,000",623029,3+1,11/14/2022,85 m²,,1,,75.19,790.65,757.41,982.11,241.07,751.94,979.14,499.59,1350.38,377.22,"Černokostelecká, Prague - Strašnice",50.077467,14.509792,"CZK 30,000",Brick,,Good,Personal,,,,,,,,Standard,,,,,,,,,,,,,,,,,,,,,,,,,,,,,,,,,,,,,,,,,,,,,,,,,,,,,,,,,,,,,,,,,,,,,,,,,,,,,,,,,,,,,,,,,,,,,,,,,,,,,,,,,,,,,,,,,,,,,,,,,,,,
"CZK 9,500","CZK 2,500",750846,Studio,12/1/2022,22 m²,Partly,1,,255.27,649.46,185.33,266.18,341.8,305.96,321.26,185.03,1092.62,265.04,"Na Okraji, Prague - Veleslavín",50.08969,14.34116,"CZK 12,000",Brick,,Good,,G,,,,,,,,,,,,,,,,,,,,,,,,,,,,,,,,,,,,,,,,,,,,,,,,,,,,,,,,,,,,,,,,,,,,,,,,,,,,,,,,,,,,,,,,,,,,,,,,,,,,,,,,,,,,,,,,,,,,,,,,,,,,,,,,,,,
"CZK 18,000","CZK 4,000",748480,2+kk,10/31/2022,48 m²,Partly,4,1.0,255.21,985.67,205.04,329.62,113.56,187.43,307.83,261.47,428.5,370.42,"Viklefova, Prague - Žižkov",50.08969,14.47408,"CZK 40,000",Brick,Over 50 years,Very good,Personal,D,,,1.0,,1.0,,Standard,,,,,,,Complete,,,,,,,,,,,,,,,,,,,,,,,,,,,,,,,,,,,,,,,,,,,,,,,,,,,,,,,,,,,,,,,,,,,,,,,,,,,,,,,,,,,,,,,,,,,,,,,,,,,,,,,,,,,,,,,,,,,,,
"CZK 16,000","CZK 2,500",750843,Studio,1/1/2023,35 m²,Fully furnished,2,1.0,53.62,491.12,49.94,757.1,100.21,674.56,103.85,182.31,999.85,332.1,"Prachnerova, Prague - Košíře",50.07038,14.38045,"CZK 20,000",Brick,,Very good,,G,,,,,1.0,,,,,,,,,,,,,,,,,,1.0,,,,,,,,,,,,,,,,,,,,,,,,,,,,,,,,,,,,,,,,,,,,,,,,,,,,,,,,,,,,,,,,,,,,,,,,,,,,,,,,,,,,,,,,,,,,,,,,,,,,,,,,,,,,
"CZK 21,375","CZK 7,125",734261,3+1,11/16/2022,35 m²,Fully furnished,-1,1.0,36.05,792.81,20.0,597.08,172.08,638.36,366.32,329.81,486.26,346.96,"Dvacátého osmého pluku, Prague - Vršovice",50.0707338,14.4627954,,,,,,,,,,,,,,,,,,,,,,,,,,,,,,,,,,,,,,,,1.0,,1.0,,,,,,,,,,,,,,,,,,,,,,,,,,,,,,,,,,,,,,,,,,,,,,,,,,,,,,,,,,,,,,,,,,,,,,,,,,,,,,,,,,,,,,,,,,,,,,,
"CZK 33,675","CZK 11,225",750070,2+kk,12/2/2022,55 m²,Fully furnished,2,1.0,170.48,421.6,257.32,426.75,52.86,339.7,54.65,63.39,473.33,754.41,"Balbínova, Prague - Vinohrady",50.0795659,14.4357789,,,,,,,,,,,,,,,,,,,,,,,,,,,,,,,,,,,,,,,,,,,,,,,,,,,,,,,,,,,,,,,,,,,,,,,,,,,,,,,,,,,,,,,,,,,,,,,,,,,,,,,,,,,,,,,,,,,,,,,,,,,,,,,,,,,,,,,,,
"CZK 16,000","CZK 3,200",742438,Studio,10/31/2022,32 m²,Unfurnished,3,1.0,82.28,235.54,175.06,282.55,25.92,289.11,326.1,408.92,261.26,279.79,Prague - Libeň,50.10434,14.47655,"CZK 40,000",Low-energy,Up to 10 years,New-build,,B,,,,1.0,1.0,1.0,Luxurious,,,,,,,,,,,,,,,,,,,,,,,,,,,,,1.0,,,,,,,,,,1.0,,,,,,,,,,,,,,,,,,,,,,,,,,,,,,,,,,,,,,,,,,,,,,,,,,,,,,,,,,,,,,,,,,,,,,,,,,,,,,,,,,,,,
"CZK 19,000","CZK 5,000",750063,2+kk,1/1/2023,70 m²,Fully furnished,4,,42.48,356.42,1.41,273.6,37.38,99.81,133.28,157.81,542.99,184.99,"Korunní, Prague - Vinohrady",50.07529,14.45379,"CZK 20,000",Brick,,Very good,,G,,,,,,,,,,,,,,,,,,,,,,,,,,,,,,,,,,,,,,,,,,,,,,,,,,,,,,,,,,,,,,,,,,,,,,,,,,,,,,,,,,,,,,,,,,,,,,,,,,,,,,,,,,,,,,,,,,,,,,,,,,,,,,,,,,,
"CZK 28,000","CZK 6,000",750838,3+kk,11/13/2022,81 m²,Partly,7,1.0,198.14,695.31,173.68,85.46,59.31,158.17,152.51,227.04,249.34,133.13,"Hálkova, Prague - Nové Město",50.07613,14.42759,"CZK 56,000",Other,,Very good,,G,,,,,,,,,,,,,,,,,,,,,,,,,,,,,,,,,,,,,,,,,,1.0,,,,,,,,,,,,,,,,,,,,,,,,,,,,,,,,,,,,,,,,,,,,,,,,,,,,,,,,,,,,,,,,,,,,,,,,,,,,,,,,,,,,,,,,,
"CZK 17,000","CZK 4,500",527998,2+kk,2/1/2023,52 m²,Partly,2,,161.69,299.94,271.11,409.32,221.09,272.86,718.38,833.85,925.28,109.18,"Oty Bubeníčka, Prague - Uhříněves",50.0295321,14.5967405,"CZK 25,000",Brick,Up to 10 years,New-build,Personal,,Central,,,,1.0,,,,,,,,,,,,,,,,,,,,,,,,,,,,,,,,,,,,,,,,,,1.0,,,,,,,,,,,,,,,,,,,,,,,,,,,,,,,,,,,,,,,,,,,,,,,,,,,,,,,,,,,,,,,,,,,,,,,,,,,,,,,,,,,,
"CZK 16,000","CZK 3,250",750833,2 bedroom,11/13/2022,55 m²,Partly,2,1.0,163.23,506.07,495.79,490.53,385.82,502.02,800.05,811.79,537.41,280.46,"Práčská, Prague - Záběhlice",50.05405,14.5116,"CZK 32,000",Prefab concrete,,Good,,G,Central,,,,1.0,,Standard,,,,,,,,,,,,,,1.0,,,,,,,,,,,,,,,,,,,,,,,,,,1.0,,,,,,,,,,,,,,,,,,,,,,,,,,,,,,,,,,,,,,,,,,,,,,,,,,,,,,,,,,,,,,,,,,,,,,,,,,,,,,,,,,,,
"CZK 20,625","CZK 6,875",731156,2+kk,1/1/2023,49 m²,Fully furnished,2,1.0,84.02,732.97,86.86,659.07,276.51,744.0,408.19,306.62,634.43,198.98,"Na Míčánkách, Prague - Vršovice",50.0713305,14.4638794,,,,,,,,,,,,,,,,,,,,,,,,,,,,,,,,,,,,,,,,,,,,,,,,,,,,,,,,,,,,,,,,,,,,,,,,,,,,,,,,,,,,,,,,,,,,,,,,,,,,,,,,,,,,,,,,,,,,,,,,,,,,,,,,,,,,,,,,,
"CZK 25,425","CZK 8,475",750832,1 bedroom,11/16/2022,34 m²,Fully furnished,5,1.0,36.05,792.81,20.0,597.08,172.08,638.36,366.32,329.81,486.26,346.96,"Dvacátého osmého pluku, Prague - Vršovice",50.0707338,14.4627954,,,,,,,,,,,,,,,,,,,,,,,,,,,,,,,,,,,,,,,,,,,,,,,,,,,,,,,,,,,,,,,,,,,,,,,,,,,,,,,,,,,,,,,,,,,,,,,,,,,,,,,,,,,,,,,,,,,,,,,,,,,,,,,,,,,,,,,,,
"CZK 35,000","CZK 4,000",744981,6+1,11/30/2022,160 m²,Fully furnished,3,,243.72,504.53,239.16,560.9,372.26,450.14,300.84,472.43,630.78,356.18,"Bieblova, Prague - Smíchov",50.06594,14.40218,"CZK 30,000",Brick,,Very good,Personal,B,,,,,,,,,,,,,,,,,,,,,,,,,,,,,,,,,,,,,,,,,,,,,,,,1.0,,,,,,,,,,,,,,,,,,,,,,,,,,,,,,,,,,,,,,,,,,,,,,,,,,,,,,,,,,,,,,,,,,,,,,,,,,,,,,,,,,,
"CZK 15,000","CZK 3,000",750828,1 bedroom,11/13/2022,47 m²,Partly,1,,172.15,762.3,372.21,847.78,443.19,250.19,505.44,982.12,817.29,646.4,"U První baterie, Prague - Břevnov",50.08893,14.36492,"CZK 30,000",Brick,,Very good,,G,,,,,1.0,,,,,,,,,,,,,,,,,,,,,,,,,,,,,,,,,,,,,,,,,,,,,,,,,,,,,,,,,,,,,,,,,,,,,,,,,,,,,,,,,,,,,,,,,,,,,,,,,,,,,,,,,,,,,,,,,,,,,,,,,,,,,,
"CZK 9,500","CZK 4,948",444265,Studio,1/1/2023,30 m²,Fully furnished,5,1.0,261.56,577.78,195.0,481.98,266.28,249.27,236.79,336.08,1044.15,214.58,"Varnsdorfská, Prague - Střížkov",50.1265674,14.4956943,"CZK 20,000",Prefab concrete,,Very good,Cooperative,,Distance,,,,,,,,,,,,,,,,,,,,,,,,,,,,,,,,,,,,,,,,,,,,,,,,1.0,,,,,,,,,,,,,,,,,,,,,,,,,,,,,,,,,,,,,,,,,,,,,,,,,,,,,,,,,,,,,,,,,,,,,,,,,,,,,,,,,,
"CZK 51,656","CZK 17,219",728895,2 bedroom,1/1/2023,60 m²,Fully furnished,4,1.0,110.1,392.87,177.02,129.22,79.72,168.29,299.92,497.22,273.67,349.66,"Dlážděná, Prague - Nové Město",50.0865843,14.4323212,,,,,,,,,,,,,,,,,,,,,,,,,,,,,,,,,,,,,,,,,,,,,,,,,,,,,,,,,,,,,,,,,,,,,,,,,,,,,,,,,,,,,,,,,,,,,,,,,,,,,,,,,,,,,,,,,,,,,,,,,,,,,,,,,,,,,,,,,
"CZK 19,000","CZK 4,300",750814,2+kk,11/13/2022,45 m²,Fully furnished,2,1.0,241.15,615.08,637.46,712.11,241.49,775.36,216.7,341.4,424.19,184.03,"Ravennská, Prague - Horní Měcholupy",50.04562,14.55999,"CZK 40,000",Other,,Very good,,G,,,,1.0,1.0,,Luxurious,,,,,1.0,,Complete,,,,,,,,,,,,,,,,,,,,,,,,,,,,,,,,,,,,,,,,,,,,,,,,,,,,,,,,,,,,,,,,,,,,,,,,,,,,,,,,,,,,,,,,,,,,,,,,,,,,,,,,,,,,,,,,,,,,,
"CZK 11,500",CZK 0,750811,2 bedroom,11/13/2022,100 m²,Partly,5,,169.21,750.83,126.87,154.7,90.66,210.12,348.15,483.41,249.18,593.13,"Veverkova, Prague - Holešovice",50.10018,14.43198,"CZK 10,000",Brick,,Very good,,G,,,,,,,,,,,,,,,,,,,,,,,,,1.0,,,,,,,,,,,,,,,,,,,,,,,,,,,,,,,,,,,,,,,,,,,,,,,,,,,,,,,,,,,,,,,,,,,,,,,,,,,,,,,,,,,,,,,,,,,,,,,,,,,,,,,,,,
"CZK 23,500","CZK 2,800",750691,2 bedroom,12/1/2022,85 m²,Unfurnished,4,,120.62,273.48,56.54,137.04,85.49,159.0,357.82,437.75,744.16,234.53,"Václavská, Prague - Nové Město",50.07405,14.41736,"CZK 23,500",Brick,,Good,,G,,,,,1.0,,,,,,,,,,,,,,,,,,,,1.0,,,,,,,,,,,,,,,,,,,,,,,,,1.0,,,,,,,,,,,,,,,,,,,,,,,,,,,,,,,,,,,,,,,,,,,,,,,,,,,,,,,,,,,,,,,,,,,,,,,,,,,,,,,,,
"CZK 14,000","CZK 3,500",749435,1 bedroom,11/7/2022,38 m²,Fully furnished,2,,100.81,1274.09,174.31,1198.39,120.05,564.28,425.69,503.13,526.15,356.21,Prague - Libeň,50.11487,14.47308,"CZK 30,000",Brick,,Very good,Personal,G,,,,,1.0,,Standard,,,,,,,Complete,,,,,,,,,,,,,,,,,,,,,,,,,,,,,,,,,,,,,,,,,,,,,,,,,,,,,,,,,,,,,,,,,,,,,,,,,,,,,,,,,,,,,,,,,,,,,,,,,,,,,,,,,,,,,,,,,,,,,
"CZK 15,000","CZK 2,500",750807,Small studio,3/15/2023,40 m²,Fully furnished,,,177.27,250.75,782.15,5427.47,374.11,763.94,661.14,682.4,326.48,108.53,"Velkoosecká, Prague - Vinoř",50.14384,14.57559,CZK 0,Prefab concrete,,Very good,,G,,,,,1.0,,,,,,,,,,,,,,,,,,,,,,,,,,,,,,,,,,,,,,,,,,,,,,,,,,,,,,,,,,,,,,,,,,,,,,,,,,,,,,,,,,,,,,,,,,,,,,,,,,,,,,,,,,,,,,,,,,,,,,,,,,,,,,
"CZK 15,000","CZK 5,000",673036,2+kk,1/1/2023,49 m²,Fully furnished,3,1.0,125.77,514.46,201.96,208.44,91.64,6.76,356.2,144.48,152.56,91.84,"Anny Drabíkové, Prague - Háje",50.0331,14.52829,"CZK 45,000",Prefab concrete,,Very good,Personal,C,Distance,,,,1.0,,Luxurious,,,,,,,Interior,,,,,,,,,,,,,,1.0,,,,,,,,1.0,,,,,,,,,,,,,,,1.0,,,,,,,,,,,,,,,,,,,,,,,,,,,,,,,,,,,,,,,,,,,,,,,,,,,,,,,,,,,,,,,,,,,,,,,,,,,,,,,,
"CZK 74,813","CZK 24,937",740299,4+1,12/23/2022,136 m²,Fully furnished,3,1.0,305.35,603.07,123.44,366.02,52.59,406.0,368.79,628.46,396.1,92.23,"Betlémská, Prague - Staré Město",50.0837893,14.416317,,,,,,,,,,,,,,,,,,,,,,,,,,,,,,,,,,,,,,,,,,,,,,,,,,,,,,,,,,,,,,,,,,,,,,,,,,,,,,,,,,,,,,,,,,,,,,,,,,,,,,,,,,,,,,,,,,,,,,,,,,,,,,,,,,,,,,,,,
"CZK 30,000","CZK 10,000",748922,Studio,12/12/2022,45 m²,Fully furnished,5,1.0,239.73,541.75,45.52,270.79,35.61,285.18,465.63,625.46,639.52,581.38,"Mečislavova, Prague - Nusle",50.0633237,14.4440058,,,,,,,,,,,,,,,,,,,,,,,,,,,,,,,,,,,,,,,,,,,,,,,,,,,,,,,,,,,,,,,,,,,,,,,,,,,,,,,,,,,,,,,,,,,,,,,,,,,,,,,,,,,,,,,,,,,,,,,,,,,,,,,,,,,,,,,,,
"CZK 30,000","CZK 10,000",734260,2+kk,12/12/2022,41 m²,Fully furnished,5,,394.46,497.82,253.13,432.3,279.54,389.35,316.56,724.72,695.79,345.02,"Krchlebská, Prague - Krč",50.0471114,14.4429584,,,,,,,,,,,,,,,,,,,,,,,,,,,,,,,,,,,,,,,,,,,,,,,,,,,,,,,,,,,,,,,,,,,,,,,,,,,,,,,,,,,,,,,,,,,,,,,,,,,,,,,,,,,,,,,,,,,,,,,,,,,,,,,,,,,,,,,,,
"CZK 10,000","CZK 2,800",750032,Studio,11/8/2022,32 m²,Partly,1,,175.98,597.57,15.67,693.6,78.39,671.53,304.7,328.21,286.52,185.7,"Na Úlehli, Prague - Michle",50.04637,14.46102,"CZK 10,000",Brick,,Very good,,G,,,,,,,,,,,,,,,,,,,,,,,,,,,,,,,,,,,,,,,,,,,,,,,,,,,,,,,,,,,,,,,,,,,,,,,,,,,,,,,,,,,,,,,,,,,,,,,,,,,,,,,,,,,,,,,,,,,,,,,,,,,,,,,,,,,
"CZK 24,500","CZK 3,000",745209,3+kk,1/1/2023,58 m²,Fully furnished,3,1.0,123.93,1019.24,125.91,504.12,326.9,146.6,363.86,919.31,224.05,242.87,Prague - Libeň,50.11009,14.47243,"CZK 45,000",Brick,,Very good,,G,,,,,,,,,,,,1.0,,,,,,,,,,,,,1.0,,,,,,,,,,,,,,,,,,,,,,,,,,,,,,,,,,,,,,,,,,,,,,,,,,,,,,,,,,,,,,,,,,,,,,,,,,,,,,,,,,,,,,,,,,,,,,,,,,,,,,,,,,
"CZK 15,000","CZK 6,000",750786,2 bedroom,11/13/2022,67 m²,Unfurnished,1,,317.87,1080.38,927.35,1443.42,209.34,1070.03,896.49,809.73,1467.94,379.18,"Na Zemance, Prague - Braník",50.03732,14.42349,"CZK 15,000",Other,,Good,,G,,,,,,,,,,,,,,,,,,,,,,,,,,,,,,,,,,,,,,,,,,,,,,,,,,,,1.0,,,,,,,,,,,,,,,,,,,,,,,,,,,,,,,,,,,,,,,,,,,,,,,,,,,,,,,,,,,,,,,,,,,,,,,,,,,,,,,
"CZK 23,588","CZK 7,862",750787,1 bedroom,1/2/2023,35 m²,Fully furnished,3,1.0,97.26,259.91,105.72,291.36,79.07,194.41,340.41,525.24,106.28,298.87,"Koněvova, Prague - Žižkov",50.088447,14.458108,,,,,,,,,,,,1.0,,,,,,,,,,,,,,,,,,,,,,,,,,,,,,,,,,,,,,,,,,,,,,,,,,,,,,,,,,,,,,,,,,,,,,,,,,,,,,,,,,,,,,,,,,,,,,,,,,,,,,,,,,,,,,,,,,,,,,,,,,,,,
"CZK 12,500","CZK 3,000",750785,Studio,1/1/2023,62 m²,Partly,5,,90.39,986.32,37.73,195.72,102.08,320.77,205.81,679.69,484.68,789.42,Prague - Holešovice,50.10043,14.43552,"CZK 25,000",Brick,,Very good,,G,,,,,,,,,,,,,,,,,,,,,,,,,1.0,,,,,,,,,,,,,,,,,,,,,,,,,,,,,,,,,,,,,,,,,,,,,,,,,,,,,,,,,,,,,,,,,,,,,,,,,,,,,,,,,,,,,,,,,,,,,,,,,,,,,,,,,,
"CZK 15,000","CZK 3,000",420904,Studio,11/1/2022,42 m²,Partly,2,,123.04,314.64,219.05,471.24,160.51,285.46,340.01,527.98,388.09,96.28,"Ostromečská, Prague - Žižkov",50.0876986,14.4600549,"CZK 36,000",Prefab concrete,10 to 30 years,Very good,Personal,B,Distance,,1.0,,,,Standard,,,,,,,Complete,,,,,,,,1.0,,,,,,,,,,,,,,,,,,,,,,,,,,,,,,,,,,,,,,,,,,,,,,,,,,,,,,,,,,,,,,,,,,,,,,,,,,,,,,,,,,,,,,,,,,,,,,,,,,,,,,,,,,,,,
"CZK 21,900","CZK 4,000",750218,2+kk,11/9/2022,60 m²,Fully furnished,4,1.0,217.68,150.37,238.25,1550.83,184.39,982.21,1093.25,684.8,865.08,172.36,Prague - Stodůlky,50.04557,14.30395,"CZK 43,800",Low-energy,,New-build,,B,,,,1.0,1.0,1.0,,,,,,1.0,,,,,,,,1.0,,,,,,,,,,,,,,,,,,,,,,,,,,,,,,,,,,,,,,,,,,,,,,,,,,,,,,,,,,,,,,,,,,,,,,,,,,,,,,,,,,,,,,,,,,,,,,,,,,,,,,,,,,,,,,,
"CZK 14,800",CZK 0,188353,2 bedroom,11/13/2022,67 m²,Partly,1,,162.98,1224.44,215.34,848.63,307.57,1255.41,108.86,193.39,630.88,239.71,"Prokopka, Prague - Vysočany",50.1011439,14.4909093,"CZK 15,000",Brick,,Good,Personal,G,Gas boiler,,,,,,Standard,,,,,,,Complete,,,,,,,,,,,,,,,,,,,,,,,,,,,,,,,,,,,,,,,,,,,,,,,,,,,,,,,,,,,,,,,,,,,,,,,,,,,,,,,,,,,,,,,,,,,,,,,,,,,,,,,,,,,,,,,,,,,,,
"CZK 13,500","CZK 3,000",750773,1 bedroom,1/1/2023,35 m²,Partly,4,1.0,103.84,358.41,156.9,150.56,197.95,174.83,214.23,586.87,179.54,370.33,"Mrštíkova, Prague - Strašnice",50.07344,14.49226,"CZK 16,500",Brick,,Very good,,G,,,,,,,,1.0,,,,,,,,,,,,,,,,,,,,,,,,,,,,,,,,,,,,,,,,,,,,,,,,,,,,,,,,,,,,,,,,,,,,,,,,,,,,,,,,,,,,,,,,,,,,,,,,,,,,,,,,,,,,,,,,,,,,,,,,,,,
"CZK 25,000","CZK 7,500",745187,3+kk,11/14/2022,84 m²,Partly,7,1.0,358.11,1274.59,648.44,1061.38,636.12,1151.2,941.1,351.64,1295.74,639.6,"Černochova, Prague - Košíře",50.063,14.37985,"CZK 40,000",Other,,New-build,,G,,,,,,1.0,,,,,,,,,,,,,,,1.0,,,,,,,,,,,,,,,,,,,,,,,,,,,,,,,,1.0,,,,,,,,,,,,,,,,,,,,,,,,,,,,,,,,,,,,,,,,,,,,,,,,,,,,,,,,,,,,,,,,,,,,,,,,,,,,,,
"CZK 16,000","CZK 2,600",750778,Studio,11/13/2022,37 m²,Partly,4,1.0,217.68,150.37,238.25,1550.83,184.39,982.21,1093.25,684.8,865.08,172.36,Prague - Stodůlky,50.04557,14.30395,"CZK 37,200",Low-energy,,New-build,,B,,,,1.0,,1.0,,,,,,,,,,,,,,1.0,,,,,,,,,,,,,,,,,,,,,,,,,,,,,,,,,,,,,,,,,,,,,,,,,,,,,,,,,,,,,,,,,,,,,,,,,,,,,,,,,,,,,,,,,,,,,,,,,,,,,,,,,,,,,,,
"CZK 21,500","CZK 3,500",743440,Studio,10/17/2022,49 m²,Fully furnished,4,1.0,195.61,841.27,448.29,653.26,572.89,356.2,495.04,512.37,1181.95,404.73,"Modenská, Prague - Horní Měcholupy",50.04046,14.56818,"CZK 40,000",Low-energy,Up to 10 years,New-build,,,Central,,1.0,1.0,1.0,1.0,Luxurious,,,,,,,,,,,,,,,1.0,,,,,,,,,,,,,,,,,,,,,,,,,,,,,,,,,,,,,,,,,,,,,,,,,,,,,,,,,,,,,,,,,,,,,,,,,,,,,,,,,,,,,,,,,,,,,,,,,,,,,,,,,,,,,
"CZK 22,000","CZK 1,500",750731,2+kk,11/13/2022,55 m²,Partly,5,,303.26,668.45,70.84,445.1,16.49,443.44,232.89,214.86,519.4,183.99,Prague - Vršovice,50.07198,14.45516,"CZK 44,000",Brick,,Very good,,G,,,,,,,,,,,,,,,,,,,,,,,,,1.0,,,,,,,,,,,,,,,,,,,,,,,,,,,,,,,,,,,,,,,,,,,,,,,,,,,,,,,,,,,,,,,,,,,,,,,,,,,,,,,,,,,,,,,,,,,,,,,,,,,,,,,,,,
"CZK 17,000","CZK 3,000",680619,2+kk,9/10/2022,42 m²,Fully furnished,4,1.0,366.0,749.46,232.71,850.17,282.07,440.67,709.99,695.67,470.69,307.11,"U Hranic, Prague - Strašnice",50.06921075,14.484043897371,"CZK 20,000",Brick,Up to 10 years,New-build,Personal,G,Central,,,,,,,,,,,,,,,,,,,,,,,,,,,,,,,,,,,1.0,,,,,,,,,,,,,,,1.0,,,,,,,,,,,,,,,,,,,,,,,,,,,,,,,,,,,,,,,,,,,,,,,,,,,,,,,,,,,,,,,,,,,,,,,,,,,,,,,,
"CZK 25,000","CZK 4,000",735551,3+kk,10/1/2022,83 m²,Unfurnished,3,,149.2,1278.61,579.68,1498.92,671.57,884.65,577.38,531.29,725.03,679.79,Prague - Smíchov,50.05493,14.40442,"CZK 43,000",Brick,,Very good,,G,,,,,1.0,1.0,,,,,,,,,,,,,,,,,,,,,,,,,,1.0,,,,,,,,,,,,,,,,,,,,,,,,,,,,,,,,,,,,,,,,,,,,,,,,,,,,,,,,,,,,,,,,,,,,,,,,,,,,,,,,,,,,,,,,,,,,,,,,,,,
"CZK 18,000","CZK 4,000",749098,2 bedroom,12/1/2022,50 m²,Fully furnished,2,,258.54,207.35,173.31,274.42,148.49,185.17,137.32,274.66,379.88,185.46,"K Lučinám, Prague - Žižkov",50.09329,14.49,"CZK 36,000",Prefab concrete,,Good,Personal,,Central,,,,,,Standard,,,,,,,Complete,,,,,,,,,,,,,,,,,,,,,,,,,,,,,,,,,,,1.0,,,,,,,,,,,,,,,,,,,,,,,,,,,,,,,,,,,,,,,,,,,,,,,,,,,,,,,,,,,,,,,,,,,,,,,,,,,,,,,,,,
"CZK 20,500","CZK 1,787",747458,2 bedroom,10/25/2022,51 m²,Fully furnished,4,1.0,257.65,999.84,76.83,327.05,63.37,149.96,322.0,276.46,425.93,352.0,"Buchovcova, Prague - Žižkov",50.09032,14.47262,"CZK 40,000",Brick,,Very good,,G,,,,,,,,1.0,,,,,,Complete,,,,,,,,,1.0,,,,,,,,,,,,,,,,,,,,,,,,,,,,,,,,,,,,,,,,,,,,,,,,,,,,,,,,,,,,,,,,,,,,,,,,,,,,,,,,,,,,,,,,,,,,,,,,,,,,,,,,,,,,
"CZK 17,000","CZK 2,000",525017,2+kk,11/1/2022,38 m²,Partly,3,,483.75,1103.55,494.41,737.27,348.93,513.91,727.52,346.53,642.68,319.58,Prague - Libeň,50.120086582637,14.446705930164,"CZK 20,000",Prefab concrete,30 - 50 years,Very good,Personal,C,,,,,,,Standard,,,,,,,,,,,,,,,,,,,,,,,,,,,,,,,,,,,,,,,,,,,,,,,1.0,,,,,,,,,,,,,,,,,,,,,,,,,,,,,,,,,,,,,,,,,,,,,,,,,,,,,,,,,,,,,,,,,,,,,,,,,,,,,
"CZK 20,000","CZK 5,000",750635,3+1,11/12/2022,75 m²,Partly,11,1.0,195.77,1243.67,541.71,1294.73,165.49,1245.45,599.6,196.66,482.95,134.44,"Mladenovova, Prague - Modřany",50.00667,14.43276,"CZK 40,000",Prefab concrete,,Very good,Personal,G,,,1.0,,,,,,,,,,,,,,,,,,,,,,,,,,,,,,,,,,,,,,,,,,1.0,,,,,,,,,,,,,,,,,,,,,,,,,,,,,,,,,,,,,,,,,,,,,,,,,,,,,,,,,,,,,,,,,,,,,,,,,,,,,,,,,,,,,,
"CZK 18,000","CZK 3,000",511446,2+kk,1/1/2023,50 m²,Fully furnished,1,,47.28,923.77,97.78,962.74,19.68,189.5,494.88,486.07,1125.86,234.17,"Mahenova, Prague - Košíře",50.0711277,14.3871309,"CZK 25,000",Brick,,Very good,Personal,C,,,,,,,Standard,1.0,,,,,,,,,,,,,,,,,,,,,,,,,,,,,,,,,,,,,,,,,,,,,,,,,,,,,,,,,,,,,,,,,,,,,,,,,,,,,,,,,,,,,,,,,,,,,,,,,,,,,,,,,,,,,,,,,,,,,,,,,,,
"CZK 22,500","CZK 4,400",750760,2+kk,11/13/2022,61 m²,Partly,6,1.0,242.34,1352.77,303.49,1027.31,364.56,863.04,303.66,1008.3,1292.55,839.42,"Čerpadlová, Prague - Vysočany",50.10109,14.5057,"CZK 40,000",Low-energy,,New-build,,B,,,,1.0,,1.0,,,,,,,1.0,,,,,,,,,,,,,,,,,,,,,,,,,,,,,,,,,,,,,,,,,,,,,,,,,,,,,,,,,,,,,,,,,,,,,,,,,,,,,,,,,,,,,,,,,,,,,,,,,,,,,,,,,,,,,,,,,,,,,,
"CZK 13,000","CZK 6,000",623924,2 bedroom,1/1/2023,54 m²,Partly,1,,189.99,200.23,211.04,218.66,436.42,273.5,539.75,449.81,386.93,199.43,"Klánovická, Prague - Hloubětín",50.105205,14.540247,"CZK 20,000",Brick,10 to 30 years,Good,Personal,D,Central,,,,1.0,,Standard,,,,,1.0,,Interior,,,,,,,,,,,,,,,,,,,,,,,,,,,,,,,,,,,,,,,,,,,,,,,,,,,,,,,,,,,,,,,,,,,,,,,,,,,,,,,,,,,,,,,,,,,,,,,,,,,,,,,,,,,,,,,,,,,,,
"CZK 6,000","CZK 1,000",750755,2+kk,11/18/2022,80 m²,Fully furnished,1,,454.51,715.18,512.74,505.45,489.56,595.84,1125.59,434.77,1122.01,482.61,"Zakouřilova, Prague - Chodov",50.03331,14.49334,"CZK 7,000",Brick,,Good,,A,,,,,1.0,,,,,,,,,,,,,,,,,,,,,,,,,,,,,,,,,,,,,,,,,,,,,,,,,,,,,,,,,,,,,,,,,,,,,,,,,,,,,,,,,,,,,,,,,,,,,,,,,,,,,,,,,,,,,,,,,,,,,,,,,,,,,,
"CZK 25,000",CZK 999,749945,2+kk,11/8/2022,83 m²,Partly,5,1.0,178.07,872.29,721.69,3482.18,395.11,634.02,1141.8,2904.83,836.51,72.11,"Františka Jansy, Prague - Dolní Měcholupy",50.06505,14.55267,"CZK 25,000",Brick,Up to 10 years,New-build,,C,Central,,,1.0,,1.0,Standard,,,,,,,,,,,,,,1.0,,,,1.0,,,,,,,,,,,,,,,,,,,,,,,,,,,,,1.0,,,,,,,,,,,,,,,,,,,,,,,,,,,,,,,,,,,,,,,,,,,,,,,,,,,,,,,,,,,,,,,,,,,,,,,,,,,,,
"CZK 25,000","CZK 5,000",598349,3+kk,1/2/2023,76 m²,Partly,3,1.0,77.49,173.13,54.89,68.12,7.88,37.86,557.91,820.85,743.54,64.09,"Československého Exilu, Prague - Modřany",50.005986,14.416039,"CZK 40,000",Brick,Up to 10 years,New-build,Personal,B,Central,,,,1.0,1.0,Luxurious,,,,,,,,,,,,,,,1.0,,,,,,,,,,,,1.0,,,,,,,,,,,,,,,,,,,,,,,,,,,,,,,,,,,,,,,,,,,,,,,,,,,,,,,,,,,,,,,,,,,,,,,,,,,,,,,,,,,,,,,,,,,,,,,,,
"CZK 22,500","CZK 7,500",750753,2+kk,1/1/2023,47 m²,Fully furnished,4,1.0,133.24,792.15,331.59,665.81,185.39,534.06,926.72,304.34,569.85,332.88,"Na Valentince, Prague - Smíchov",50.0674974,14.4079133,,,,,,,,,,,,,,,,,,,,,,,,,,,,,,,,,,,,,,,,,,,,,,,,,,,,,,,,,,,,,,,,,,,,,,,,,,,,,,,,,,,,,,,,,,,,,,,,,,,,,,,,,,,,,,,,,,,,,,,,,,,,,,,,,,,,,,,,,
"CZK 19,800","CZK 6,600",744347,3+1,12/13/2022,90 m²,Fully furnished,5,1.0,82.8,397.93,96.94,404.98,135.48,353.78,131.46,217.55,654.74,661.34,"Blanická, Prague - Vinohrady",50.0746503,14.439294,,,,,,,,,,,,,,,,,,,,,,,,,,,,,,,,,,,,,,,,,,,,,,,,,,,,,,,,,,,,,,,,,,,,,,,,,,,,,,,,,,,,,,,,,,,,,,,,,,,,,,,,,,,,,,,,,,,,,,,,,,,,,,,,,,,,,,,,,
"CZK 16,800","CZK 4,000",307392,2 bedroom,11/8/2022,50 m²,Partly,5,1.0,344.77,1315.89,373.98,800.78,368.95,369.2,403.64,900.77,446.65,320.44,"Kandertova, Prague - Libeň",50.1117034,14.4708055,CZK 0,Brick,,Very good,Personal,,Central,,,,,,,,,,,,,Interior,,,,,,,,,,,,,,,,,,,,1.0,,,,,,,,,,,,,,,,,,,,,,,,,,,,,,,,,,,,,,,,,,,,,,,,,,,,,,,,,,,,,,,,,,,,,,,,,,,,,,,,,,,,,,,,,,,,,,,,,
"CZK 19,900","CZK 5,300",750750,2+kk,11/13/2022,56 m²,Fully furnished,1,1.0,352.82,973.34,70.81,1002.69,348.33,1095.8,132.0,498.82,1391.93,180.28,"Kytlická, Prague - Prosek",50.1264,14.50574,"CZK 50,400",Other,,Very good,,C,,,,1.0,1.0,1.0,,,,,,,,,,,,,,,,,,,,,,,,,,,,,,,,,,,,,,,,,,,,,,,,,1.0,,,,,,,,,,,,,,,,,,,,,,,,,,,,,,,,,,,,,,,,,,,,,,,,,,,,,,,,,,,,,,,,,,,,,,,,,,,,
"CZK 17,900","CZK 3,000",302655,Studio,3/1/2021,30 m²,Fully furnished,4,1.0,190.83,323.45,97.6,509.09,134.86,230.18,223.55,372.28,661.27,119.4,Prague - Holešovice,50.1019491,14.4444775,"CZK 20,000",Brick,,,Personal,,Electric boiler,,,,,,,,,,,,,Complete,,,,,,,,,,,,,,,,,,,,,,,,,,,,,,,,,,,,,,,,,,,,,,,,,,,,,,,,,,,,,,,,,,,,,,,,,,,,,,,,,,,,,,,,,,,,,,,,,,,,,,,,,,,,,,,,,,,,,
"CZK 19,500","CZK 5,000",750746,2 bedroom,11/13/2022,53 m²,Unfurnished,4,1.0,146.44,593.99,126.93,814.03,162.68,475.4,313.87,242.18,716.59,285.19,"Osiková, Prague - Žižkov",50.09081,14.49798,"CZK 25,000",Prefab concrete,,New-build,Personal,G,Central,,1.0,1.0,1.0,,,,,,,,,Complete,,,,,,,,,,,1.0,,,,,,,,,,,,,,,,,,,,,,,,,,,,,,,,,,,,,,,,,,,,,,,,,,,,,,,,,,,,,,,,,,,,,,,,,,,,,,,,,,,,,,,,,,,,,,,,,,,,,,,,,,
"CZK 16,000","CZK 5,000",750747,2+kk,12/1/2022,53 m²,Unfurnished,6,1.0,334.33,1181.02,625.56,3790.9,315.19,602.28,959.79,3213.56,1129.37,334.32,"Honzíkova, Prague - Dolní Měcholupy",50.06703,14.55347,"CZK 22,000",Other,,New-build,,G,,,,1.0,,1.0,,,,,,,,,,,,,,,,1.0,,,,,,,,,,,,,,,,,,,,,,,,,,,,,,,,,,,,,,,,,,,,,,,,,,,,,,,,,,,,,,,,,,,,,,,,,,,,,,,,,,,,,,,,,,,,,,,,,,,,,,,,,,,,,
"CZK 14,500","CZK 6,500",455170,2+kk,11/20/2022,48 m²,Fully furnished,1,,71.5,898.38,291.78,831.18,444.97,533.0,270.89,1255.38,663.36,192.7,"U Pergamenky, Prague - Holešovice",50.1108959,14.4470802,"CZK 30,000",Brick,,Very good,Cooperative,G,,,,,1.0,,,,,,,,,Complete,,,,,,,,,,,,,,,,,,1.0,,,,,,,,,,,,,,,,,,,,,,,,,,,,,,,,,,,,,,,,,,,,,,,,,,,,,,,,,,,,,,,,,,,,,,,,,,,,,,,,,,,,,,,,,,,,,,,,,,,
"CZK 18,000","CZK 1,500",402991,2 bedroom,11/13/2022,74 m²,Fully furnished,2,,86.53,181.19,62.48,524.41,85.79,332.92,191.47,178.73,454.8,478.25,"Korunní, Prague - Vinohrady",50.0751791,14.4427641,"CZK 18,000",Brick,,,Personal,,,,,,,,,,,,,,,,,,,,,,,,,,,,,,,,,,,,,,,,,,,,,,,,,,,,,,,,,,,,,,,,,,,,,,,,,,,,,,,,,,,,,,,,,,,,,,,,,,,,,,,,,,,,,,,,,,,,,,,,,,,,,,,,,,,,
"CZK 20,000","CZK 3,037",750740,2+kk,12/1/2022,55 m²,Fully furnished,3,1.0,396.71,879.05,358.97,858.42,573.91,883.09,1045.67,669.86,616.37,486.84,"Rychtáře Petříka, Prague - Hostivař",50.05548,14.52608,"CZK 40,000",Other,,Very good,,B,,,,,1.0,,,,,,,,,,,,,,,,,,,,,,,,,,,,,,,,,,,,,,,,1.0,,,,,,,,,,,,,,,,,,,,,,,,,,,,,,,,,,,,,,,,,,,,,,,,,,,,,,,,,,,,,,,,,,,,,,,,,,,,,,,,,,,,,,
"CZK 22,500","CZK 3,000",750730,2+kk,1/1/2023,50 m²,Partly,3,,275.68,616.36,105.07,428.85,61.94,380.99,408.26,876.49,203.49,152.05,"U Uranie, Prague - Holešovice",50.10631,14.45302,"CZK 45,000",Brick,,Very good,,G,,,,,,,,,,,,,,,,,,,,,,1.0,,,,,,,,,,,,,,,,,,,,,,,,,,,,,,,,,,1.0,,,,,,,,,,,,,,,,,,,,,,,,,,,,,,,,,,,,,,,,,,,,,,,,,,,,,,,,,,,,,,,,,,,,,,,,,,,
"CZK 35,000",CZK 0,749498,4+kk,11/8/2022,138 m²,Partly,2,,308.92,1277.86,491.58,1214.86,372.03,981.02,506.73,931.74,440.2,390.3,"Na Dračkách, Prague - Střešovice",50.09384,14.37482,"CZK 35,000",Brick,,Very good,,A,,,,,,,,,,,,,1.0,,,,,,,,,,,,,,,,,,,,,,,,,,,,,,,,,,,,,,,,,,,,,,,,,,,,,,,,,,,,,,,,,,,,,,,,,,,,,,,,,,,,,,,,,,,,,,,,,,,,,,,,,,,,,,,,,,,,,,
"CZK 15,000","CZK 4,000",634083,1 bedroom,12/1/2022,53 m²,Partly,2,,85.61,218.94,23.75,72.42,79.73,113.55,227.25,279.42,538.77,366.16,Prague - Smíchov,50.076804,14.404503,"CZK 16,000",Brick,Over 50 years,Very good,Personal,G,Electric boiler,,,,,,Standard,,,,,,,,,,,,,,,,,,,,,,,,,,,,,,,,,,,,,,,,,,,,,,,,,,,,,,,,,,,,,,,,,,,,,,,,,,,,,,,,,,,,,,,,,,,,,,,,,,,,,,,,,,,,,,,,,,,,,,,,,,,,
"CZK 25,000","CZK 5,000",33641,3+1,12/1/2022,106 m²,Unfurnished,3,,86.26,218.29,24.39,73.06,80.37,114.2,226.6,280.06,539.42,366.8,"Arbesovo náměstí, Prague - Smíchov",50.0768071,14.4045114,"CZK 31,000",Brick,Over 50 years,,Personal,G,Central,,,,,,,,,,,,,Interior,,,,,1.0,,,,,,,,,,,,,,,,,,,,,,,,,,,,,,,,,,,,,,,,,,,,,,,,,,,,,,,,,,,,,,,,,,,,,,,,,,,,,,,,,,,,,,,,,,,,,,,,,,,,,,,,,,,,,,,,
"CZK 13,500","CZK 4,000",750723,Studio,12/1/2022,41 m²,Partly,2,,140.04,1033.38,152.56,912.96,108.52,129.51,138.17,177.25,787.26,73.07,Prague - Modřany,50.0039,14.40567,"CZK 27,000",Brick,,Very good,,G,,,,,,,,,,,,,,,,,,,,,,,,,,,,,,,,,,,,,,,,,,,,,,,,,,,,,,,,,1.0,1.0,,,,,,,,,,,,,,,,,,,,,,,,,,,,,,,,,,,,,,,,,,,,,,,,,,,,,,,,,,,,,,,,,,,,,,,,,
"CZK 16,000","CZK 4,000",748855,1 bedroom,11/30/2022,50 m²,Partly,1,,46.69,979.62,671.75,1186.39,628.1,696.27,692.31,464.66,548.72,171.24,"Nad Popelkou, Prague - Smíchov",50.06849725,14.3879003,"CZK 32,000",Brick,,Very good,,G,,,,,,,,,,,,,,,,,,,,,,,,,,,,,,,,,,,,,,,,,,,,,,,,,,,,,,,,,,,1.0,,,,,,,,,,,,,,,,,,,,,,,,,,,,,,,,,,,,,,,,,,,,,,,,,,,,,,,,,,,,,,,,,,,,,,,,
"CZK 22,000","CZK 4,000",606181,Studio,11/12/2022,43 m²,Fully furnished,3,,101.09,713.03,74.36,486.25,4.38,464.58,456.13,629.86,529.07,123.93,"Náprstkova, Prague - Staré Město",50.08443,14.414562,"CZK 22,000",Brick,,Very good,Personal,G,,,,,,,,,,,,,,Interior,,,,,,,,,,,1.0,,,,,,,,,,,,,,,,,,,,,,,,,,,,,,,,,,,,,,,,,,,,,,,,,,,,,,,,,,,,,,,,,,,,,,,,,,,,,,,,,,,,,,,,,,,,,,,,,,,,,,,,,,
"CZK 14,000","CZK 3,500",540739,Studio,2/1/2023,30 m²,Fully furnished,-1,,105.18,761.09,91.01,591.21,68.62,519.86,235.81,584.84,333.98,260.81,"Petra Rezka, Prague - Nusle",50.0613091,14.4360147,"CZK 20,000",Brick,,Good,Personal,,Central,,,,,,Standard,,,,,,,,,,,,,,,,,,,,,,,,,,,,,,,,,,,,,,,,,,,,,,,,,,,,,,,,,,,,,,,,,,,,,,,,,,,,,,,,,,,,,,,,,,,,,,,,,,,,,,,,,,,,,,,,,,,,,,,,,,,,
"CZK 19,000","CZK 5,000",750721,3+kk,11/13/2022,64 m²,Partly,1,,384.77,897.55,683.29,655.23,543.03,576.07,1094.65,405.81,4490.67,107.15,"Romana Blahníka, Prague - Zbraslav",49.97313,14.38515,"CZK 38,000",Wooden,,New-build,,B,,,,,,1.0,,,,,,,,,,,,,,,,,,,,,,,,,,,,,,,,,,,,,,,,,,,,,,,,,,,,,,,,,,,,,,,,,,,,,,,,,,,,,,,,,,,,,,,,,,,,,,,,,,,,,,,,,,,,,,,,,,,,,,,,,,,,,
"CZK 29,000",CZK 0,237071,3+1,2/1/2023,140 m²,Fully furnished,1,,342.69,944.82,1567.51,4193.75,382.23,1274.28,1539.25,1674.65,1746.52,806.03,"Holekova, Prague - Klánovice",50.1008217,14.6871026,"CZK 37,000",Brick,Up to 10 years,Very good,Personal,,Gas boiler,,,1.0,1.0,,Standard,,,,,,,,,,,,,,,,,,,,,,,,,,,,,,1.0,,,,,,,,,,,,,,,,,,,,,,,1.0,1.0,,,,,,,,,,,,,,,,,,,,,,,,,,,,,,,,,,,,,,,,,,,,,,,,,,,,,,,,,,,,,,,,,,,,,,
"CZK 13,000","CZK 3,000",749478,Studio,12/31/2022,33 m²,Partly,1,,98.62,679.61,375.78,607.84,500.38,199.52,300.55,439.86,1127.82,210.24,"Hornoměcholupská, Prague - Horní Měcholupy",50.0399,14.56649,"CZK 16,000",Brick,,New-build,,C,,,,1.0,1.0,,,,,,,,,,,,,,,,,,,,1.0,,,,,,,,,,,,,,,,,,,,,,,,,,,,,,,,,,,,,1.0,1.0,,,,,,,,,,,,,,,,,,,,,,,,,,,,,,,,,,,,,,,,,,,,,,,,,,,,,,,,,,,,,,,,,,,,
"CZK 20,000","CZK 5,650",750715,2+kk,11/13/2022,69 m²,Partly,3,,347.29,1880.65,471.01,1555.19,1209.1,676.82,1009.04,1289.95,993.46,118.33,"Jana Přibíka, Prague - Vysočany",50.10465,14.51453,"CZK 40,000",Other,,New-build,,G,,,,,,,,,,,,,,,,,,,,,,,,,1.0,,,,,,,,,,,,,,,,,,,,,,,,,,,,,,,,,,,,,,,,,,,,,,,,,,,,,,,,,,,,,,,,,,,,,,,,,,,,,,,,,,,,,,,,,,,,,,,,,,,,,,,,,,
"CZK 17,000","CZK 6,700",196137,2+kk,12/1/2022,60 m²,Fully furnished,1,,471.71,945.0,794.68,1036.78,863.74,897.07,1025.98,798.84,1570.34,850.56,"Františka Diviše, Prague - Uhříněves",50.0341608,14.5875267,"CZK 15,000",Brick,,,Personal,,,,,,,,,,1.0,,,,,,,,,,,,,,,,,,,,,,,,,,,,,,,,,,,,,,,,,,,,,,,,,,,,,,,,,,,,,,,,,,,,,,,,,,,,,,,,,,,,,,,,,,,,,,,,,,,,,,,,,,,,,,,,,,,,,,,,,,
"CZK 59,000","CZK 9,500",432912,5+kk,11/14/2022,240 m²,Fully furnished,6,1.0,174.74,280.54,98.82,188.39,115.11,446.45,286.03,336.05,977.41,264.84,Prague - Vinohrady,50.078327416966,14.455739663754,"CZK 118,000",Brick,,,Personal,,,,,,,,Luxurious,,,,,,,,,,,,,,,,,,,,,,,,,,,,,,,,,,,,,,,,,,,,,,,,,,,,,,,,,1.0,1.0,,,,,,,,,,,,,,,,,,,,,,,,,,,,,,,,,,,,,,,,,,,,,,,,,,,,,,,,,,,,,,,,,,
"CZK 20,000","CZK 5,000",706453,2+kk,12/1/2022,55 m²,Partly,1,1.0,247.64,1134.25,797.93,954.31,604.14,1009.82,681.55,1051.65,671.69,96.45,"Kakosova, Prague - Řeporyje",50.03934,14.32273,"CZK 35,000",Brick,Up to 10 years,New-build,Personal,C,,,1.0,1.0,,,,,,,,,1.0,,,,,,,,,,,,,,,,,,,,,,,,,,,,,,,,,,,,,,,,,,,,,,,,,,,,,,,,,,,,,,,,,,,,,,,,,,,,,,,,,,,,,,,,,,,,,,,,,,,,,,,,,,,,,,,,,,,,,,
"CZK 22,500","CZK 4,500",749466,3+kk,12/2/2022,83 m²,Unfurnished,3,1.0,185.28,426.55,118.36,434.9,128.21,379.38,297.95,205.13,477.8,409.3,"U starého mlýna, Prague - Uhříněves",50.02873,14.60192,"CZK 40,000",Other,,New-build,,G,,,1.0,1.0,,,,,,,,,,,,,,,,,,,,,,,,,,,,,,,,,,,,,,,,,,,,,,,,,,,,,,,,,,,,,,1.0,,,,,,,,,,,,,,,,,,,,,,,,,,,,,,,,,,,,,,,,,,,,,,,,,,,,,,,,,,,,,,,,,
"CZK 37,500","CZK 12,500",747210,2+kk,12/23/2022,60 m²,Fully furnished,3,1.0,239.73,541.75,45.52,270.79,35.61,285.18,465.63,625.46,639.52,581.38,"Mečislavova, Prague - Nusle",50.0633237,14.4440058,,,,,,,,,,,,,,,,,,,,,,,,,,,,,,,,,,,,,,,,,,,,,,,,,,,,,,,,,,,,,,,,,,,,,,,,,,,,,,,,,,,,,,,,,,,,,,,,,,,,,,,,,,,,,,,,,,,,,,,,,,,,,,,,,,,,,,,,,
"CZK 34,898","CZK 11,632",744188,2 bedroom,12/5/2022,90 m²,Fully furnished,4,1.0,82.8,397.93,96.94,404.98,135.48,353.78,131.46,217.55,654.74,661.34,"Blanická, Prague - Vinohrady",50.0746503,14.439294,,,,,,,,,,,,,,,,,,,,,,,,,,,,,,,,,,,,,,,,,,,,,,,,,,,,,,,,,,,,,,,,,,,,,,,,,,,,,,,,,,,,,,,,,,,,,,,,,,,,,,,,,,,,,,,,,,,,,,,,,,,,,,,,,,,,,,,,,
"CZK 41,438","CZK 13,812",748841,Studio,1/2/2023,26 m²,Fully furnished,2,,229.1,530.05,122.61,223.26,36.43,222.12,280.75,471.08,466.92,408.11,"Příčná, Prague - Nové Město",50.077834,14.422878,,,,,,,,,,,,,,,,,,,,,,,,,,,,,,,,,,,,,,,,,,,,,,,,,,,,,,,,,,,,,,,,,,,,,,,,,,,,,,,,,,,,,,,,,,,,,,,,,,,,,,,,,,,,,,,,,,,,,,,,,,,,,,,,,,,,,,,,,
"CZK 29,228","CZK 9,742",748683,Studio,1/1/2023,32 m²,Fully furnished,4,1.0,151.35,453.73,35.53,193.5,82.13,267.14,487.42,885.3,353.4,500.35,"Sokolovská a, Prague - Karlín",50.0940007,14.4535929,,,,,,,,,,,,1.0,,,,,,,,,,,,,,,,,,,,,,,,,,,,,,,,,,,,,,,,,,,,,,,,,,,,,,,,,,,,,,,,,,,,,,,,,,,,,,,,,,,,,,,,,,,,,,,,,,,,,,,,,,,,,,,,,,,,,,,,,,,,,
"CZK 33,750","CZK 11,250",748839,1 bedroom,1/2/2023,43 m²,Fully furnished,4,1.0,276.64,299.92,82.85,597.17,63.3,447.09,45.77,62.13,794.8,565.99,"Americká, Prague - Vinohrady",50.0718291,14.4385892,,,,,,,,,,,,,,,,,,,,,,,,,,,,,,,,,,,,,,,,,,,,,,,,,,,,,,,,,,,,,,,,,,,,,,,,,,,,,,,,,,,,,,,,,,,,,,,,,,,,,,,,,,,,,,,,,,,,,,,,,,,,,,,,,,,,,,,,,
"CZK 48,000","CZK 16,000",748831,3+1,1/2/2023,72 m²,Fully furnished,5,1.0,276.64,299.92,82.85,597.17,63.3,447.09,45.77,62.13,794.8,565.99,"Americká, Prague - Vinohrady",50.0718291,14.4385892,,,,,,,,,,,,,,,,,,,,,,,,,,,,,,,,,,,,,,,,,,,,,,,,,,,,,,,,,,,,,,,,,,,,,,,,,,,,,,,,,,,,,,,,,,,,,,,,,,,,,,,,,,,,,,,,,,,,,,,,,,,,,,,,,,,,,,,,,
"CZK 25,028","CZK 8,342",747209,1 bedroom,12/23/2022,34 m²,Fully furnished,5,,192.54,684.55,33.13,461.2,44.3,459.54,274.15,304.32,543.36,239.67,"Bulharská, Prague - Vršovice",50.0717467,14.4598954,,,,,,,,,,,,,,,,,,,,,,,,,,,,,,,,,,,,,,,,,,,,,,,,,,,,,,,,,,,,,,,,,,,,,,,,,,,,,,,,,,,,,,,,,,,,,,,,,,,,,,,,,,,,,,,,,,,,,,,,,,,,,,,,,,,,,,,,,
"CZK 56,250","CZK 18,750",748834,2+kk,1/2/2023,70 m²,Fully furnished,2,,247.92,224.09,200.71,292.38,166.7,314.17,1.13,897.75,245.42,410.76,"U Půjčovny, Prague - Nové Město",50.0839268,14.4308523,,,,,,,,,,,,,,,,,,,,,,,,,,,,,,,,,,,,,,,,,,,,,,,,,,,,,,,,,,,,,,,,,,,,,,,,,,,,,,,,,,,,,,,,,,,,,,,,,,,,,,,,,,,,,,,,,,,,,,,,,,,,,,,,,,,,,,,,,
"CZK 19,425","CZK 6,475",748832,Studio,1/2/2023,24 m²,Fully furnished,5,1.0,204.75,529.92,107.76,271.28,117.3,198.17,381.93,473.46,640.15,688.11,"Tyršova, Prague - Nové Město",50.073014,14.4308483,,,,,,,,,,,,,,,,,,,,,,,,,,,,,,,,,,,,,,,,,,,,,,,,,,,,,,,,,,,,,,,,,,,,,,,,,,,,,,,,,,,,,,,,,,,,,,,,,,,,,,,,,,,,,,,,,,,,,,,,,,,,,,,,,,,,,,,,,
"CZK 19,425","CZK 6,475",748670,Studio,1/1/2023,26 m²,Fully furnished,3,1.0,205.16,530.34,108.17,270.87,117.71,197.76,382.34,473.87,640.56,688.52,"Tyršova, Prague - Nové Město",50.0730191,14.4308529,,,,,,,,,,,,,,,,,,,,,,,,,,,,,,,,,,,,,,,,,,,,,,,,,,,,,,,,,,,,,,,,,,,,,,,,,,,,,,,,,,,,,,,,,,,,,,,,,,,,,,,,,,,,,,,,,,,,,,,,,,,,,,,,,,,,,,,,,
"CZK 35,625","CZK 11,875",747095,2+kk,12/22/2022,76 m²,Fully furnished,3,,174.67,442.95,142.17,234.72,17.52,252.04,261.1,243.44,108.85,249.32,"Týnská ulička, Prague - Staré Město",50.0879034,14.4227015,,,,,,,,,,,,,,,,,,,,,,,,,,,,,,,,,,,,,,,,,,,,,,,,,,,,,,,,,,,,,,,,,,,,,,,,,,,,,,,,,,,,,,,,,,,,,,,,,,,,,,,,,,,,,,,,,,,,,,,,,,,,,,,,,,,,,,,,,
"CZK 26,078","CZK 8,693",748682,Studio,1/1/2023,34 m²,Fully furnished,6,1.0,151.35,453.73,35.53,193.5,82.13,267.14,487.42,885.3,353.4,500.35,"Sokolovská a, Prague - Karlín",50.0940007,14.4535929,,,,,,,,,,,,1.0,,,,,,,,,,,,,,,,,,,,,,,,,,,,,,,,,,,,,,,,,,,,,,,,,,,,,,,,,,,,,,,,,,,,,,,,,,,,,,,,,,,,,,,,,,,,,,,,,,,,,,,,,,,,,,,,,,,,,,,,,,,,,
"CZK 15,375","CZK 5,125",749464,1 bedroom,1/7/2023,35 m²,Fully furnished,4,,235.79,53.4,67.7,80.34,73.8,74.19,272.83,262.3,310.3,607.81,"Vlkova, Prague - Žižkov",50.0842462,14.4496504,,,,,,,,,,,,,,,,,,,,,,,,,,,,,,,,,,,,,,,,,,,,,,,,,,,,,,,,,,,,,,,,,,,,,,,,,,,,,,,,,,,,,,,,,,,,,,,,,,,,,,,,,,,,,,,,,,,,,,,,,,,,,,,,,,,,,,,,,
"CZK 16,125","CZK 5,375",750279,Studio,1/9/2023,30 m²,Fully furnished,6,,62.55,211.53,81.32,128.57,14.62,208.26,157.68,356.92,390.85,451.63,"Heydukova, Prague - Libeň",50.1035007,14.4751127,,,,,,,,,,,,,,,,,,,,,,,,,,,,,,,,,,,,,,,,,,,,,,,,,,,,,,,,,,,,,,,,,,,,,,,,,,,,,,,,,,,,,,,,,,,,,,,,,,,,,,,,,,,,,,,,,,,,,,,,,,,,,,,,,,,,,,,,,
"CZK 11,400","CZK 3,800",750439,3+1,1/10/2023,,Fully furnished,3,,167.6,1136.36,471.96,1225.73,639.79,604.4,380.84,967.44,280.7,269.46,"náměstí Před Bateriemi, Prague - Střešovice",50.0904295,14.3730244,,,,,,,,,,,,,,,,,,,,,,,,,,,,,,,,,,,,,,,,,,,,,,,,,,,,,,,,,,,,,,,,,,,,,,,,,,,,,,,,,,,,,,,,,,,,,,,,,,,,,,,,,,,,,,,,,,,,,,,,,,,,,,,,,,,,,,,,,
"CZK 23,588","CZK 7,862",750084,Studio,1/8/2023,35 m²,Fully furnished,4,1.0,177.65,485.08,74.09,786.82,224.24,616.73,227.88,306.34,1123.88,456.13,"Hlaváčkova, Prague - Košíře",50.0700112,14.3815356,,,,,,,,,,,,,,,,,,,,,,,,,,,,,,,,,,,,,,,,,,,,,,,,,,,,,,,,,,,,,,,,,,,,,,,,,,,,,,,,,,,,,,,,,,,,,,,,,,,,,,,,,,,,,,,,,,,,,,,,,,,,,,,,,,,,,,,,,
"CZK 40,000","CZK 10,000",749462,2 bedroom,11/7/2022,92 m²,Fully furnished,2,1.0,127.17,370.22,16.48,136.71,48.31,154.04,195.17,236.1,247.42,324.47,Prague - Staré Město,50.08883,14.42155,"CZK 50,000",Brick,,Very good,,G,,,,,,,,,,,,,,,,,,,,,,,,,,,,,,,,,,,,,,,,,,,,,,,,,,,,,,,,,,,,,,,,,,,,,,,,,,,,,,,,,,,,,,,,,,,,,,,,,,,,,,,,,,,,,,,,,,,,,,,,,,,,,,,,,,,
"CZK 40,000",CZK 1,749458,4+kk,11/7/2022,135 m²,Partly,1,,308.92,1277.86,491.58,1214.86,372.03,981.02,506.73,931.74,440.2,390.3,"Na Dračkách, Prague - Střešovice",50.09384,14.37482,"CZK 40,000",Brick,,Very good,,A,,,,,,,Standard,,,,,,1.0,Complete,,,,,,,,,,,,,,,,,,,,,,,,,,,,,,,,,,,,,,,,,1.0,,,,,,,,,,,,,,,,,,,,,,,,,,,,,,,,,,,,,,,,,,,,,,,,,,,,,,,,,,,,,,,,,,,,,,,,,,,,
"CZK 19,900","CZK 3,700",750699,2+kk,12/1/2022,50 m²,Fully furnished,3,1.0,185.06,450.92,296.4,463.61,325.89,318.68,623.31,800.41,297.09,345.29,Prague - Holešovice,50.10527,14.44355,"CZK 23,600",Low-energy,Up to 10 years,New-build,,B,,,,1.0,,,,,,,,,,,,,,,,,,,,,,,,,,,,,,,,,,1.0,,,,,,,,,,,,,,,,,,,,,,,,,,,,,,,,,,,,,,,,,,,,,,,,,,,,,,,,,,,,,,,,,,,,,,,,,,,,,,,,,,,,,,,,,,,,,
"CZK 17,500","CZK 5,250",750698,2 bedroom,11/12/2022,52 m²,Partly,3,,179.09,376.96,54.36,246.52,217.24,175.67,232.84,109.02,304.12,78.5,"Na Vrcholu, Prague - Žižkov",50.09343,14.48839,"CZK 22,000",Brick,,Very good,,G,,,,,1.0,,,,,,,,,,,,,,,,,,,,1.0,,,,,,,,,,,,,,,,,,,,,,,,,,,,,,,,,,,,,,,,,,,,,,,,,,,,,,,,,,,,,,,,,,,,,,,,,,,,,,,,,,,,,,,,,,,,,,,,,,,,,,,,,,
"CZK 37,125","CZK 12,375",733049,3+kk,12/11/2022,78 m²,Fully furnished,5,1.0,122.69,292.83,150.02,222.27,31.53,246.25,406.08,512.95,283.22,254.06,"Křižíkova a, Prague - Karlín",50.0928722,14.4500782,,,,,,,,,,,,1.0,,,,,,,,,,,,,,,,,,,,,,,,,,,,1.0,,1.0,,,,,,,,,,,,,,,,,,,,,,,,,,,,,,,,,,,,,,,,,,,,,,,,,,,,,,,,,,,,,,,,,,,,,,,,,,,,,,,,,,,,,,,,,,,,,,,
"CZK 22,425","CZK 7,475",750068,Studio,11/20/2022,30 m²,Fully furnished,3,1.0,258.66,685.78,233.92,407.82,154.16,415.37,547.3,506.41,132.73,464.34,"V Háji, Prague - Holešovice",50.1013638,14.4546402,,,,,,,,,,,,1.0,,,,,,,,,,,,,,,,,,,,,,,,,,,,,,,,,,,,,,,,,,,,,,,,,,,,,,,,,,,,,,,,,,,,,,,,,,,,,,,,,,,,,,,,,,,,,,,,,,,,,,,,,,,,,,,,,,,,,,,,,,,,,
"CZK 13,500","CZK 3,500",749238,Studio,1/1/2023,41 m²,Partly,2,1.0,197.27,1936.49,1099.17,1695.35,327.63,1343.01,790.81,1404.15,1193.87,712.94,"Pískařská, Prague - Modřany",50.01338,14.40075,"CZK 20,000",Brick,10 to 30 years,Very good,Personal,C,,,,,,1.0,Standard,,,,,,,,,,,,,,,,,,,,,,,,,1.0,,,,,,,,,,,,,,,,,1.0,,,,,,,,,,,,,,,,,,,,,,,,,,,,,,,,,,,,,,,,,,,,,,,,,,,,,,,,,,,,,,,,,,,,,,,,,,,,,,,,,,
"CZK 11,961","CZK 2,500",593210,1 bedroom,12/1/2022,34 m²,Partly,2,,363.96,782.54,243.38,804.46,411.51,682.51,186.28,346.22,1501.75,98.3,"Jelínkova, Prague - Kobylisy",50.1337744,14.4661001,"CZK 10,000",Prefab concrete,,Very good,Personal,D,Distance,,,,,,Standard,,,,,,,,,,,,,,,,,,,,,,,,,,,,,,,,,,,,,,,,,,,,,,,,,,,,,,,,,,,,,,,,,,,,,,,,,,,,,,,,,,,,,,,,,,,,,,,,,,,,,,,,,,,,,,,,,,,,,,,,,,,,
"CZK 59,250","CZK 19,750",717599,4+kk,11/16/2022,90 m²,Fully furnished,2,1.0,140.09,527.92,223.64,125.85,37.89,66.77,510.79,1001.31,1180.94,559.23,"Stroupežnického, Prague - Smíchov",50.0710929,14.4032595,,,,,,,,,,,,,,,,,,,,,,,,,,,,,,,,,,,,,,,,,,,,,,,,,,,,,,,,,,,,,,,,,,,,,,,,,,,,,,,,,,,,,,,,,,,,,,,,,,,,,,,,,,,,,,,,,,,,,,,,,,,,,,,,,,,,,,,,,
"CZK 26,500","CZK 3,500",749436,3+1,11/7/2022,69 m²,Fully furnished,4,1.0,246.03,951.99,348.55,359.89,312.02,454.72,162.95,156.77,309.5,96.78,Prague - Nusle,50.05313,14.43359,"CZK 60,000",Prefab concrete,,Very good,,E,,,,,,,,,,,,,,,,,,,,,,,,,,,,,,,,,,,,,,,,,,,,,,,,,,,,,,,,,,,,,,,,,,,,,,,,,,,,,,,,,,,,,,,,,,,,,,,,,,,,,,,,,,,,,,,,,,,,,,,,,,,,,,,,,,,
"CZK 14,500","CZK 3,000",419547,Studio,11/21/2022,39 m²,Fully furnished,3,,607.12,1062.46,733.68,1066.7,201.13,983.6,721.7,1304.09,1325.07,594.19,"Pod rybníčkem, Prague - Suchdol",50.1401595,14.3738555,"CZK 17,500",Brick,10 to 30 years,Very good,Personal,C,Gas boiler,,,,1.0,,Standard,,,,,,,Interior,,,,,,,,,,,,,,,,,,,,,,,,,,,,,,,,,,,,,,,,,,,,,,,,,,,,,1.0,,,,,,,,,,,,,,,,,,,,,,,,,,,,,,,,,,,,,,,,,,,,,,,,,,,,,,,,,,,,,,,,
"CZK 41,625","CZK 13,875",720848,4+kk,11/16/2022,112 m²,Fully furnished,4,1.0,168.35,737.87,30.76,217.13,7.9,216.51,106.1,336.15,114.49,565.37,"Ostrovní, Prague - Nové Město",50.0806286,14.4175374,,,,,,,,,,,,,,,,,,,,,,,,,,,,,,,,,,,,,,,,1.0,,1.0,,,,,,,,,,,,,,,,,,,,,,,,,,,,,,,,,,,,,,,,,,,,,,,,,,,,,,,,,,,,,,,,,,,,,,,,,,,,,,,,,,,,,,,,,,,,,,,
"CZK 55,399","CZK 18,466",717682,2+kk,11/16/2022,69 m²,Fully furnished,6,1.0,104.56,349.59,143.75,145.93,108.83,150.53,431.56,393.96,289.53,329.01,"Na Maninách, Prague - Holešovice",50.1025661,14.4522431,,,,,,,,,,,,,,,,,,,,,,,,,,,,,,,,,,,,,,,,1.0,,1.0,,,,,,,,,,,,,,,,,,,,,,,,,,,,,,,,,,,,,,,,,,,,,,,,,,,,,,,,,,,,,,,,,,,,,,,,,,,,,,,,,,,,,,,,,,,,,,,
"CZK 27,203","CZK 9,067",730431,3+1,11/16/2022,111 m²,Fully furnished,1,,208.61,131.46,936.81,2564.81,336.74,613.32,243.84,2102.93,1889.94,338.05,"K Zámku, Prague - Dolní Počernice",50.0890765,14.5799076,,,,,,,,,,,,,,,,,,,,,,,,,,,,,,,,,,,,,,,,1.0,,1.0,,,,,,,,,,,,,,,,,,,,,,,,,,,,,,,,,,,,,,,,,,,,,,,,,,,,,,,,,,,,,,,,,,,,,,,,,,,,,,,,,,,,,,,,,,,,,,,
"CZK 20,000","CZK 5,000",750687,2+kk,11/12/2022,66 m²,Partly,1,1.0,249.54,1327.22,521.77,918.71,501.81,680.48,486.97,656.82,1691.62,316.8,"Ocelkova, Prague - Černý Most",50.1026,14.57299,"CZK 40,000",Brick,10 to 30 years,New-build,,G,Central,,,1.0,,,Standard,,,,,,,,,,,,,,,,1.0,,,,,,,,,,,,,,,,,,,,,,,,,,,,,,,,,,,,,,,,,,,,,,,,,,,,,,,,,,,,,,,,,,,,,,,,,,,,,,,,,,,,,,,,,,,,,,,,,,,,,,,,,,,,
"CZK 25,000","CZK 3,000",749420,2+kk,11/7/2022,48 m²,Partly,4,,180.7,972.84,122.71,351.25,23.7,396.36,682.88,702.43,520.3,193.82,"Oldřichova, Prague - Nusle",50.06576,14.42648,"CZK 25,000",Brick,,New-build,,G,,,,,,,,,,,,,,,,,,,,,,,,,,,,,,,,,,,,,,,,,,,,,,,,,,,,,,,,,,,,,,,,,,,,1.0,,,,,,,,,,,,,,,,,,,,,,,,,,,,,,,,,,,,,,,,,,,,,,,,,,,,,,,,,,,,,,,
"CZK 23,000","CZK 2,000",750614,2+kk,11/11/2022,67 m²,Fully furnished,1,1.0,157.36,927.29,86.78,739.19,36.72,254.8,567.56,287.14,694.0,393.52,"Čumpelíkova, Prague - Kobylisy",50.12763,14.45974,"CZK 46,000",Other,Up to 10 years,New-build,Personal,B,Distance,,,1.0,,1.0,Luxurious,,,,,,,,,,,,,,,,,,,,1.0,,,,,,,,,,,,,,,,,,,,,,,,,,,,,,,,,,,,,,,,,,,,,,,,,,,,,,,,,,,,,,,,,,,,,,,,,,,,,,,,,,,,,,,,,,,,,,,,,,,,,,,,
"CZK 48,645","CZK 16,215",732720,3+1,12/20/2022,55 m²,Fully furnished,2,,158.42,248.82,154.82,246.13,112.68,264.3,390.21,408.3,154.53,114.55,"Řásnovka, Prague - Staré Město",50.0918754,14.4250902,,,,,,,,,,,,,,,,,,,,,,,,,,,,,,,,,,,,,,,,,,,,,,,,,,,,,,,,,,,,,,,,,,,,,,,,,,,,,,,,,,,,,,,,,,,,,,,,,,,,,,,,,,,,,,,,,,,,,,,,,,,,,,,,,,,,,,,,,
"CZK 16,000","CZK 4,000",227683,Studio,1/1/2023,30 m²,Fully furnished,3,1.0,84.99,71.65,46.69,409.73,81.2,42.46,137.8,322.41,117.47,187.7,"Lukášova, Prague - Žižkov",50.0873552,14.4571023,"CZK 20,000",,,New-build,Personal,,Central,,1.0,,,,,,,,,,,,,,,,,,,,,,1.0,,,,,,,,,,,,,,,,,,,,,,,,,,,,,,,,,,,,,,,,,,,,,,,,,,,,,,,,,,,,,,,,,,,,,,,,,,,,,,,,,,,,,,,,,,,,,,,,,,,,,,,,,,
"CZK 10,000","CZK 1,000",750681,2+kk,12/1/2022,44 m²,Fully furnished,1,1.0,97.44,691.29,268.5,1439.09,396.5,790.93,499.01,341.6,474.24,216.32,"Ženíškova, Prague - Chodov",50.03331,14.511,"CZK 11,000",Prefab concrete,,Good,,G,,,,,1.0,,,,,,,,,,,,,,,,,,,,,,,,,,,,,,,,,,,,,,,,,,,,,,,,,,,,,,,,,,,,,,,,1.0,,,,,,,,,,,,,,,,,,,,,,,,,,,,,,,,,,,,,,,,,,,,,,,,,,,,,,,,,,,,,,
"CZK 11,890",CZK 100,617842,Studio,11/25/2022,45 m²,,3,,49.36,366.19,79.04,475.57,50.16,339.11,784.62,878.86,991.53,168.83,"Ke kříži, Prague - Uhříněves",50.029588,14.595055,"CZK 19,000",Brick,,New-build,Personal,A,,,,1.0,1.0,,,,,,,,,,,,,,,,,,,,,,,,,,,,,,,,,,,,,,,,,,,,,,,,,,,,,,,,,,,,,,,,,,,,,,,,,,,,,,,,,,,,,,,,,,,,,,,,,,,,,,,,,,,,,,,,,,,,,,,,,,,,,,
"CZK 21,000","CZK 5,500",690018,3+kk,12/1/2022,81 m²,Partly,5,1.0,291.65,796.5,495.73,3725.65,636.29,1418.98,891.55,,1980.85,423.03,"Schoellerova, Prague - Čakovice",50.15783,14.5233,"CZK 35,000",Prefab concrete,,Good,Personal,G,Distance,,,,,1.0,Standard,,,,,,,,,,,,,,,,,,,,,,,,,,,,,,,,,,,,,,,,,,,,,,,,,,,,,,,,,,,,,,,1.0,,,,,,,,,,,,,,,,,,,,,,,,,,,,,,,,,,,,,,,,,,,,,,,,,,,,,,,,,,,,,
"CZK 20,250","CZK 6,750",749068,1 bedroom,12/31/2022,30 m²,Fully furnished,3,1.0,169.94,657.22,187.03,47.07,30.44,118.16,20.05,94.58,357.1,201.44,"Ječná, Prague - Nové Město",50.0756771,14.4268037,,,,,,,,,,,,,,,,,,,,,,,,,,,,,,,,,,,,,,,,,,,,,,,,,,,,,,,,,,,,,,,,,,,,,,,,,,,,,,,,,,,,,,,,,,,,,,,,,,,,,,,,,,,,,,,,,,,,,,,,,,,,,,,,,,,,,,,,,
"CZK 25,448","CZK 8,482",748610,3+kk,11/16/2022,80 m²,Fully furnished,2,,156.94,402.05,153.34,284.97,151.52,248.16,393.35,447.14,193.37,153.39,"Anežská, Prague - Staré Město",50.0920126,14.4239059,,,,,,,,,,,,,,,,,,,,,,,,,,,,,,,,,,,,,,,,,,,,,,,,,,,,,,,,,,,,,,,,,,,,,,,,,,,,,,,,,,,,,,,,,,,,,,,,,,,,,,,,,,,,,,,,,,,,,,,,,,,,,,,,,,,,,,,,,
"CZK 32,925","CZK 10,975",747955,1 bedroom,11/16/2022,30 m²,Fully furnished,3,1.0,22.29,481.37,107.82,95.32,6.34,158.39,351.4,425.94,380.79,468.94,"Legerova, Prague - Vinohrady",50.0749602,14.4305105,,,,,,,,,,,,,,,,,,,,,,,,,,,,,,,,,,,,,,,,,,,,,,,,,,,,,,,,,,,,,,,,,,,,,,,,,,,,,,,,,,,,,,,,,,,,,,,,,,,,,,,,,,,,,,,,,,,,,,,,,,,,,,,,,,,,,,,,,
"CZK 30,000","CZK 3,467",614554,3+kk,11/7/2022,89 m²,Fully furnished,5,1.0,127.78,181.14,95.72,515.3,104.73,246.75,331.75,278.56,233.67,361.28,"Roháčova, Prague - Žižkov",50.08678,14.454071,"CZK 60,000",Prefab concrete,,Very good,Personal,E,Electric boiler,,,,,,,,,,,,,,,,,,,,,,,,,,,,,,,,,,,,,,,,,,,,,,,,,,,,,,,,,,,,,,,,,,,,,,,,,,,,,,,,,,,,,,,,,,,,,,,,,,,,,,,,,,,,,,,,,,,,,,,,,,,,,,,,,,
"CZK 20,000","CZK 4,000",749476,Studio,11/8/2022,31 m²,Fully furnished,4,1.0,539.16,652.28,431.01,800.54,458.65,779.36,488.58,438.61,675.98,738.19,"Perucká, Prague - Vinohrady",50.06881,14.43794,"CZK 24,000",Brick,,New-build,,C,,,,1.0,,,,,,1.0,,,,,,,,,,,,,,,,,,,,,,,,,,,,,,,,,,,,,,,,,,,,,,,,,,,,,,,,,,,,,1.0,,,,,,,,,,,,,,,,,,,,,,,,,,,,,,,,,,,,,,,,,,,,,,,,,,,,,,,,,,,,
"CZK 12,500","CZK 2,500",647218,Small studio,11/1/2022,22 m²,Unfurnished,,,122.86,1701.81,147.16,6189.81,915.66,1242.1,1201.09,1141.22,1530.79,1213.24,"Mladoboleslavská, Prague - Vinoř",50.15178,14.58998,"CZK 15,000",Brick,,New-build,Personal,A,Electric boiler,,,,1.0,,,,,,,,,,,,,,,,,,,,,,,,,,,,,,,,,,,,,,,,,,,,,,,,,,,,,,,,,,,,,,,,,,,,,,,,,,,,,,,,,,,,,,,,,,,,,,,,,,,,,,,,,,,,,,,,,,,,,,,,,,,,,,
"CZK 18,700","CZK 4,840",230074,Studio,12/1/2022,32 m²,Fully furnished,3,,126.3,186.87,252.87,152.98,7.2,256.44,155.22,452.12,828.99,597.98,"Tomášská, Prague - Malá Strana",50.0890425,14.4049134,"CZK 37,400",Brick,Over 50 years,Good,Personal,,Electric boiler,,,,,,,,,,,,,Complete,,,,,,,,,1.0,,,,,,,,,,,,,,,,,,,,,,,,,,,,,,,,,,,,,,,,,,,,,,,,,,,,,,,,,,,,,,,,,,,,,,,,,,,,,,,,,,,,,,,,,,,,,,,,,,,,,,,,,,,,
"CZK 16,500","CZK 4,000",748109,Studio,10/28/2022,30 m²,Fully furnished,5,,309.37,414.48,191.04,591.27,152.6,184.84,168.71,282.46,690.32,306.48,"Peckova, Prague - Karlín",50.0903,14.4475,"CZK 33,000",Brick,,Very good,,G,,,,,,,,,,,,,,,,,,,,,,,,,,,,,,,,,,,,,,,,,,,,,,,,,,,,,,,,,,,,,,,,,,,,,,,,,,,,,,,,,,,,,,,,,,,,,,,,,,,,,,,,,,,,,,,,,,,,,,,,,,,,,,,,,,,
"CZK 14,000","CZK 1,000",750668,Studio,11/30/2022,34 m²,Fully furnished,5,1.0,162.8,635.94,272.8,333.8,69.04,444.98,370.51,360.28,186.14,232.56,"Altajská, Prague - Vršovice",50.06835,14.46163,"CZK 29,000",Other,,New-build,,G,,,,1.0,,,,,,,,,,,,,,1.0,,,,,,,,,,,,,,,,,,,,,,,,,,,,,,,,,,,,,,,,,,,,,,,,,,,,,,,,,,,,,,,,,,,,,,,,,,,,,,,,,,,,,,,,,,,,,,,,,,,,,,,,,,,,,,,,,
"CZK 28,000","CZK 3,000",748636,3+kk,12/1/2022,73 m²,Fully furnished,1,,277.08,786.82,248.92,496.44,271.74,327.01,327.14,612.29,280.72,228.81,"U Libeňského pivovaru, Prague - Libeň",50.10861,14.47539,"CZK 30,000",Brick,,Very good,,G,Electric boiler,,,,1.0,,,,,,,,,,,,,1.0,,,,,,,,,,,,,,,,,,,,,,,,,,,,,,,,,,,,,,,,,,,,,,,,,,,,,,,,,,,,,,,,,,,,,,,,,,,,,,,,,,,,,,,,,,,,,,,,,,,,,,,,,,,,,,,,,
"CZK 17,650",CZK 590,749381,2 bedroom,12/1/2022,76 m²,Unfurnished,1,,304.32,217.74,135.96,88.6,144.84,231.72,275.38,620.68,498.0,217.49,"Kafkova, Prague - Dejvice",50.09811,14.39877,"CZK 18,000",Brick,,Very good,,A,,,,,,,,,,,,,,,,,,,,,,,,,,,,,,,,,,,,,,,,,,,,,,,,,,,,,,,,,,,,,,,,,,,,,,,,,,,,,,,,,,,,,,,,,,,,,,,,,,,,,,,,,,,,,,,,,,,,,,,,,,,,,,,,,,,
"CZK 20,000","CZK 4,000",743496,2+kk,1/1/2023,63 m²,Fully furnished,2,1.0,398.4,1416.97,693.92,1232.92,635.76,870.83,1111.69,712.35,619.3,290.61,"Zvěřinova, Prague - Strašnice",50.08508,14.48646,"CZK 25,000",Low-energy,Up to 10 years,New-build,,G,Central,,,1.0,1.0,1.0,Luxurious,,,,,,,,,,,,,,,1.0,,,,,,,,,,,,,,,,,,,,,,,,,,,,,,,,,,,,,,,,,,,,,,,,,,,,,,,,,,,,,,,,,,,,,,,,,,,,,,,,,,,,,,,,,,,,,,,,,,,,,,,,,,,,,
"CZK 35,250","CZK 11,750",748395,Studio,11/16/2022,56 m²,Fully furnished,1,,96.44,280.97,14.82,508.63,72.69,336.4,388.51,158.74,542.27,280.28,"Korunní, Prague - Vinohrady",50.075535,14.4452886,,,,,,,,,,,,,,,,,,,,,,,,,,,,,,,,,,,,,,,,,,,,,,,,,,,,,,,,,,,,,,,,,,,,,,,,,,,,,,,,,,,,,,,,,,,,,,,,,,,,,,,,,,,,,,,,,,,,,,,,,,,,,,,,,,,,,,,,,
"CZK 45,750","CZK 15,250",744738,3+1,11/16/2022,72 m²,Fully furnished,1,,259.15,217.0,193.62,285.29,113.57,307.09,74.34,930.42,156.52,482.04,"Růžová, Prague - Nové Město",50.0835446,14.4307958,,,,,,,,,,,,,,,,,,,,,,,,,,,,,,,,,,,,,,,,,,,,,,,,,,,,,,,,,,,,,,,,,,,,,,,,,,,,,,,,,,,,,,,,,,,,,,,,,,,,,,,,,,,,,,,,,,,,,,,,,,,,,,,,,,,,,,,,,
"CZK 33,900",CZK 0,308726,4+kk,12/1/2022,97 m²,Fully furnished,1,1.0,152.26,686.8,155.68,121.41,164.36,275.07,367.71,377,322.46,365.47,"Zelenky-Hajského, Prague - Žižkov",50.0884267,14.467243,"CZK 35,000",Brick,Up to 10 years,Very good,Personal,,Gas boiler,,,,,,,,,,,,,,,,,,,,,,,,,,,,,,,,,,,,,,,,,,,,,,,,,1.0,,,,,,,,,,,,,,,,,,,,,,,,,,,,,,,,,,,,,,,,,,,,,,,,,,,,,,,,,,,,,,,,,,,,,,,,,,,,,,,,,
"CZK 19,000","CZK 2,000",750664,Studio,12/11/2022,44 m²,Fully furnished,2,1.0,119.95,343.54,183.33,188.06,141.11,388.69,348.04,554.55,625.39,310.87,"V Lesíčku, Prague - Smíchov",50.07822,14.40596,"CZK 35,000",Brick,,Very good,,,,,,,,,,,,,,,,,,,,,,,,,,,,,,,,,,,,,,,,,,,,,,,,,,,,,,,,,,,,,,,,,,,,,,,,,,,,,,,,,,,,,,,,,,,,,,,,,,,,,,,,,,,,,,,,,,,,,,,,,,,,,,,,,,,,,
"CZK 17,900",CZK 600,247836,2+kk,9/1/2022,54 m²,Fully furnished,2,,75.43,451.43,311.62,104.38,127.38,1147.33,212.99,644,475.35,292.96,"Nuselská, Prague - Michle",50.0572447,14.4503987,"CZK 36,000",Brick,,,Personal,,Gas boiler,,,,,,Standard,,,,,,,Interior,,,,,,,,,,,,,,,,,,,,,,,,,,,,,,,,,,,,,,,,,,,,,,,,,,,,,,,,,,,,,,,,,,,,,,,,,,,,,,,,,,,,,,,,,,,,,,,,,,,,,,,,,,,,,,,,,,,,,
"CZK 12,500",CZK 500,749207,1 bedroom,11/6/2022,25 m²,Fully furnished,1,,197.65,543.84,1444.02,2611.34,612.99,1120.54,520.09,2149.46,2397.16,739.64,Prague - Dolní Počernice,50.09157,14.58187,"CZK 13,000",Brick,,Very good,,D,,,,,,,,,,,,,,,,,,,,,,,,,,,,,,,,,,,,,,,,,,,,,,,,,,,,,,,,,,,,,,,,,,,,,,,,,,,,,,,,,,,,,,,,,,,,,,,,,,,,,,,,,,,,,,,,,,,,,,,,,,,,,,,,,,,
"CZK 19,500","CZK 7,700",578135,3+1,12/1/2022,76 m²,Partly,,,159.03,303.99,240.05,3221.35,229.15,1917.46,452.68,348.09,826.36,718.62,"Drahelická, Prague - Satalice",50.1271411,14.5708558,"CZK 19,500",Brick,,Very good,Personal,G,Gas boiler,,,,,,Standard,,,,,,,Complete,,,,,,,,,,,,,,,,,,,,1.0,,,,,,,,,,,,,,,,,,,,,,,,,,,,,,,,,,,,,,100 m²,,,,,,,,,,,,,,,,,,,,,,,,,,,,,,,,,,,,,,,,,,,,,,,,,,,,,,,,,,,
"CZK 16,900","CZK 4,600",750661,1 bedroom,11/12/2022,35 m²,Fully furnished,1,,75.69,451.17,311.88,104.64,127.64,1147.59,213.25,644.26,475.61,293.22,"Nuselská, Prague - Michle",50.05724,14.45039,"CZK 33,998",Brick,,New-build,,G,,,,,,,,,,,,,,,,,,,,,,,,,,,,,,,,,,,,,,,,,,,,,,,,,,,,,,,,,,,,,,,,,,,,,,,,,,,,,,,,,,,,,,,,,,,,,,,,,,,,,,,,,,,,,,,,,,,,,,,,,,,,,,,,,,,
"CZK 22,500","CZK 3,000",714037,2+kk,11/7/2022,44 m²,Partly,3,,279.14,1071.26,242.03,723.84,92.14,855.65,298.12,402.35,813.11,277.38,Prague - Podolí,50.04714,14.42878,"CZK 30,000",Brick,,Very good,Personal,D,,,,,,,Luxurious,,,,,,,Complete,,,,,,,,,,,,,,,,,,,,,,,,,,,,,,,,,,,,,,,,,,,,,,,,,,,,,,,,,,,,,,,,,,,,,,,,,,,,,,,,,,,,,,,,,,,,,,,,,,,,,,,,,,,,,,,,,,,,,
"CZK 17,925","CZK 5,975",748711,Studio,12/1/2022,32 m²,Fully furnished,3,1.0,139.49,792.63,156.92,306.05,50.15,84.99,429.59,902.4,481.21,801.27,"Šimáčkova, Prague - Holešovice",50.1030733,14.4335679,,,,,,,,,,,,,,,,,,,,,,,,,,,,,,,,,,,,,,,,,,,,,,,,,,,,,,,,,,,,,,,,,,,,,,,,,,,,,,,,,,,,,,,,,,,,,,,,,,,,,,,,,,,,,,,,,,,,,,,,,,,,,,,,,,,,,,,,,
"CZK 59,408","CZK 19,802",742058,4+1,11/16/2022,219 m²,Fully furnished,6,1.0,122.69,292.83,150.02,222.27,31.53,246.25,406.08,512.95,283.22,254.06,"Křižíkova a, Prague - Karlín",50.0928722,14.4500782,,,,,,,,,,,,1.0,,,,,,,,,,,,,,,,,,,,,,,,,,,,1.0,,1.0,,,,,,,,,,,,,,,,,,,,,,,,,,,,,,,,,,,,,,,,,,,,,,,,,,,,,,,,,,,,,,,,,,,,,,,,,,,,,,,,,,,,,,,,,,,,,,,
"CZK 21,000","CZK 5,000",674098,2+kk,11/1/2022,71 m²,Fully furnished,4,1.0,65.31,1635.91,540.07,1226.65,350.06,818.78,363.1,665,524.63,328.78,Prague - Vokovice,50.1006682,14.3438755,"CZK 52,000",Low-energy,10 to 30 years,New-build,Personal,B,Central,,,1.0,1.0,,Luxurious,,,,,,,,,,,,,,1.0,,,,,,,,,,,,,,,,,,,,,,,,,,,,,,,,,,,,,,,,,,,,,,,,,,,,,,,,,,,,,,,,,,,,,,,,,,,,,,,,,,,,,,,,,,,,,,,,,,,,,,,,,,,,,,
"CZK 19,500","CZK 4,300",730680,2+kk,11/15/2022,51 m²,Fully furnished,3,1.0,77.89,806.6,238.19,510.21,346.43,332.17,116.14,372.1,179.0,189.14,Prague - Letňany,50.13414,14.50913,"CZK 45,000",Prefab concrete,,Very good,Personal,D,,,,,,,,,,,,,,,,,,,1.0,,,,,,,,,,,,,,,,,,,,,,,,,,,,,,,,1.0,,,,,,,,,,,,,,,,,,,,,,,,,,,,,,,,,,,,,,,,,,,,,,,,,,,,,,,,,,,,,,,,,,,,,,,,,,,,,,,,
"CZK 33,375","CZK 11,125",748396,Studio,11/16/2022,58 m²,Fully furnished,1,,96.44,280.97,14.82,508.63,72.69,336.4,388.51,158.74,542.27,280.28,"Korunní, Prague - Vinohrady",50.075535,14.4452886,,,,,,,,,,,,,,,,,,,,,,,,,,,,,,,,,,,,,,,,,,,,,,,,,,,,,,,,,,,,,,,,,,,,,,,,,,,,,,,,,,,,,,,,,,,,,,,,,,,,,,,,,,,,,,,,,,,,,,,,,,,,,,,,,,,,,,,,,
"CZK 37,425","CZK 12,475",750648,2+kk,12/16/2022,61 m²,Fully furnished,2,1.0,170.48,421.6,257.32,426.75,52.86,339.7,54.65,63.39,473.33,754.41,"Balbínova, Prague - Vinohrady",50.0795659,14.4357789,,,,,,,,,,,,,,,,,,,,,,,,,,,,,,,,,,,,,,,,,,,,,,,,,,,,,,,,,,,,,,,,,,,,,,,,,,,,,,,,,,,,,,,,,,,,,,,,,,,,,,,,,,,,,,,,,,,,,,,,,,,,,,,,,,,,,,,,,
"CZK 26,175","CZK 8,725",750647,Studio,12/24/2022,29 m²,Fully furnished,5,1.0,199.29,530.26,41.72,442.51,28.42,296.91,250.49,239.04,477.71,395.44,"Slavíkova, Prague - Žižkov",50.0799163,14.4476377,,,,,,,,,,,,,,,,,,,,,,,,,,,,,,,,,,,,,,,,1.0,,1.0,,,,,,,,,,,,,,,,,,,,,,,,,,,,,,,,,,,,,,,,,,,,,,,,,,,,,,,,,,,,,,,,,,,,,,,,,,,,,,,,,,,,,,,,,,,,,,,
"CZK 37,425","CZK 12,475",750646,2+kk,12/24/2022,60 m²,Fully furnished,3,1.0,170.48,421.6,257.32,426.75,52.86,339.7,54.65,63.39,473.33,754.41,"Balbínova, Prague - Vinohrady",50.0795659,14.4357789,,,,,,,,,,,,,,,,,,,,,,,,,,,,,,,,,,,,,,,,,,,,,,,,,,,,,,,,,,,,,,,,,,,,,,,,,,,,,,,,,,,,,,,,,,,,,,,,,,,,,,,,,,,,,,,,,,,,,,,,,,,,,,,,,,,,,,,,,
"CZK 17,000","CZK 2,419",750645,2+kk,12/1/2022,41 m²,Fully furnished,7,1.0,136.8,1077.23,126.59,1050.88,249.02,238.27,623.96,381.09,1394.81,157.24,Prague - Smíchov,50.07237,14.38782,"CZK 29,997",Low-energy,,New-build,,B,,,,1.0,,,,,,,,,,,,,,,,,,,,,,,,,,,,,,,,,,,,,,,,,,,,,,,,,,,,,,,,,,,,,,,,,,,,,,,,,,,,,,,,,,,,,,,,,,,,,,,,,,,,,,,,,,,,,,,,,,,,,,,,,,,,,,,
"CZK 14,700","CZK 4,300",671786,Studio,11/14/2022,38 m²,Fully furnished,3,1.0,420.15,832.38,514.64,1110.27,287.94,792.11,526.89,682.73,610.75,64.31,"Karla Kryla, Prague - Stodůlky",50.03627,14.33095,"CZK 29,400",Brick,Up to 10 years,New-build,Personal,C,Central,,,,,1.0,Luxurious,,,,,,,,,,,1.0,,,,,,,,,,,,,,,,,,,,,,,,,,,,,,,,,,,,,,,,,,,,,,,,,,,,,,,,,,,,,,,,,,,,,,,,,,,,,,,,,,,,,,,,,,,,,,,,,,,,,,,,,,,,,,,,,
"CZK 18,500","CZK 1,500",750643,Studio,11/15/2022,26 m²,Fully furnished,1,1.0,94.6,720.43,71.85,473.52,480.0,299.37,620.93,407.98,367.97,370.97,"Na Palouku, Prague - Strašnice",50.08065,14.48774,"CZK 37,000",Low-energy,,New-build,,B,,,1.0,1.0,,1.0,,,,,,,,,,,,,,,,,,,,,,,,,,,,,,,,,,,,,,,,,,,,,,,,,,,,,,,,,,,,,,,,,,,1.0,,,,,,,,,,,,,,,,,,,,,,,,,,,,,,,,,,,,,,,,,,,,,,,,,,,,,,,,,,
"CZK 24,000","CZK 3,000",749322,2 bedroom,11/7/2022,73 m²,Fully furnished,2,1.0,159.22,990.1,240.56,244.09,208.51,328.63,194.5,162.34,306.22,395.3,Prague - Žižkov,50.09175,14.47789,"CZK 48,000",Brick,,Very good,,G,,,,,,,,,,,,,,,,,,,,,1.0,,1.0,,,,,,,,,,,,,,,,,,,,,,,,,,,,,,,,,,,,,,,,,,,,,,,,,,,,,,,,,,,,,,,,,,,,,,,,,,,,,,,,,,,,,,,,,,,,,,,,,,,,,,,,,,,,
"CZK 15,500","CZK 4,500",750641,2+kk,11/15/2022,49 m²,Fully furnished,1,,173.22,328.12,683.96,1309.12,869.91,1433.76,806.34,1879.74,1320.69,478.35,Prague - Zličín,50.06264,14.28249,"CZK 20,000",Brick,10 to 30 years,Very good,Personal,B,,,,,1.0,,Luxurious,,,,,,,,,,,,,,1.0,,,,,,,,,,,,,,,,,,,,,,,,,,,,,,,,,,,,,,,,,,,,,,,,,,,,,,,,,,,,,,,,,,,,,,,,,,,,,,,,,,,,,,,,,,,,,,,,,,,,,,,,,,,,,,
"CZK 23,588","CZK 7,862",748696,2 bedroom,12/23/2022,35 m²,Fully furnished,4,1.0,97.26,259.91,105.72,291.36,79.07,194.41,340.41,525.24,106.28,298.87,"Koněvova, Prague - Žižkov",50.088447,14.458108,,,,,,,,,,,,,,,,,,,,,,,,,,,,,,,,,,,,,,,,,,,,,,,,,,,,,,,,,,,,,,,,,,,,,,,,,,,,,,,,,,,,,,,,,,,,,,,,,,,,,,,,,,,,,,,,,,,,,,,,,,,,,,,,,,,,,,,,,
"CZK 30,000","CZK 7,500",559382,3+kk,11/1/2022,83 m²,Partly,4,1.0,200.02,246.05,124.47,175.55,111.44,130.0,359.81,782.3,221.45,359.13,"Sochařská, Prague - Bubeneč",50.1012073,14.4243983,"CZK 60,000",Brick,,,Personal,F,,,,,,,Standard,,,,,1.0,,Complete,,,,,,,,,,,,,,,,,,,,,,,,,,,,,,,,,,,,,,,,,,,,,,,,,,,,,,,,,,,,,,,,,,,,,,,,,,,,,,,,,,,,,,,,,,,,,,,,,,,,,,,,,,,,,,,,,,,,,
"CZK 23,000","CZK 7,000",749313,3+kk,11/7/2022,72 m²,Partly,4,,323.57,962.34,242.42,636.89,346.36,660.48,373.36,617.87,946.73,449.0,Prague - Vysočany,50.10394,14.50117,"CZK 30,000",Other,,New-build,Personal,G,,,1.0,1.0,1.0,1.0,,,,,,,,,,,,,,,,1.0,,,,,,,,,,,,,,,,,,,,,,,,,,,,,,,,,,,,,,,,,,,,,,,,,,,,,,,,,,,,,,,,,,,,,,,,,,,,,,,,,,,,,,,,,,,,,,,,,,,,,,,,,,,,,
"CZK 13,200","CZK 3,000",750638,Small studio,11/20/2022,30 m²,Fully furnished,2,,151.21,801.18,479.06,455.18,153.91,213.28,257.92,625.33,711.32,133.42,"Počátecká, Prague - Michle",50.04329,14.45545,"CZK 26,400",Brick,,Very good,,G,,,,,,,,,,,,,,,,,,,,,,,,,,,,,,,,,,,,,,,,,,,,,,,,,,,,,,,,,,,,,,,,,,,,,,,,,,,,,,,,,,,,,,,,,,,,,,,,,,,,,,,,,,,,,,,,,,,,,,,,,,,,,,,,,,,
"CZK 6,300","CZK 2,700",750637,2 bedroom,1/1/2023,56 m²,Partly,2,,291.21,870.31,230.1,799.26,765.4,311.22,589.81,145.46,324.65,178.54,"U Krbu, Prague - Strašnice",50.08208,14.48945,"CZK 9,000",Prefab concrete,,Very good,,G,Distance,,,,,,,,,,,,,Interior,,,,,,,1.0,,,,,,,,,,,,,,,,,,,,,,,,,,,,1.0,,,,,,,,,,,,,,,,,,,,,,,,,,,,,,,,,,,,,,,,,,,,,,,,,,,,,,,,,,,,,,,,,,,,,,,,,,,,,,,,,,
"CZK 29,000","CZK 5,570",630551,2+kk,12/1/2022,60 m²,Fully furnished,5,1.0,137.6,217.89,44.58,167.44,31.93,10.26,149.68,370.04,729.85,770.33,"Rumunská, Prague - Vinohrady",50.074343,14.435223,"CZK 40,000",Brick,Up to 10 years,Very good,Personal,,Gas boiler,,,,,,,,,,,,,Complete,,,,,,,,,,,,,,,,,,,,,,,,,,,,,,,,,,,,,,,,,,,,,,,,,,,,,,,,,,,,1.0,,,,,,,,,,,,,,,,,,,,,,,,,,,,,,,,,,,,,,,,,,,,,,,,,,,,,,,,,
"CZK 18,000","CZK 3,600",750135,2+kk,11/9/2022,54 m²,Fully furnished,9,1.0,128.8,645.93,158.41,731.42,229.39,207.95,291.64,865.76,700.92,531.95,"Talichova, Prague - Břevnov",50.08813,14.36482,"CZK 18,000",Brick,30 - 50 years,Good,Personal,G,Central,,,,1.0,,Standard,,,,,,,,,,,,,,1.0,,,,,,1.0,,,,,,,,,,,,,,,,,,,,,,,,,,,,,,,,,,,,,,,,,,,,,,,,,,,,,,,,,,,,,,,,,,,,,,,,,,,,,,,,,,,,,,,,,,,,,,,,,,,,,,,,
"CZK 16,500","CZK 2,000",750636,Studio,11/12/2022,48 m²,Fully furnished,4,1.0,446.14,1345.85,841.27,4094.25,530.9,817.98,1162.53,3378.39,1310.06,488.52,"Honzíkova, Prague - Dolní Měcholupy",50.06785,14.55596,"CZK 33,000",Low-energy,,New-build,,B,,,,1.0,1.0,,,,,,,,,,,,,,,1.0,,,1.0,,,,,,,,,,,,,,,,,,,,,,,,,,,,,,,,,,,,,,,,,,,,,,,,,,,,,,,,,,,,,,,,,,,,,,,,,,,,,,,,,,,,,,,,,,,,,,,,,,,,,,,,,,,,
"CZK 24,938","CZK 8,312",745022,Studio,12/12/2022,35 m²,Fully furnished,1,1.0,237.21,722.71,270.23,1114.48,162.06,485.4,549.42,612.82,571.2,287.12,"U Nikolajky, Prague - Smíchov",50.0656652,14.3917771,,,,,,,,,,,,1.0,,,,,,,,,,,,,,,,,,,,,,,,,,,,1.0,,1.0,,,,,,,,,,,,,,,,,,,,,,,,,,,,,,,,,,,,,,,,,,,,,,,,,,,,,,,,,,,,,,,,,,,,,,,,,,,,,,,,,,,,,,,,,,,,,,,
"CZK 33,750","CZK 11,250",746225,2+kk,12/17/2022,75 m²,Fully furnished,6,1.0,163.79,319.88,110.55,226.38,103.86,407.78,227.16,243.22,785.75,360.1,"Na Zbořenci, Prague - Nové Město",50.0769346,14.4169603,,,,,,,,,,,,,,,,,,,,,,,,,,,,,,,,,,,,,,,,1.0,,1.0,,,,,,,,,,,,,,,,,,,,,,,,,,,,,,,,,,,,,,,,,,,,,,,,,,,,,,,,,,,,,,,,,,,,,,,,,,,,,,,,,,,,,,,,,,,,,,,
"CZK 24,581","CZK 8,194",743331,Studio,12/1/2022,28 m²,Fully furnished,1,,194.2,798.76,138.2,283.7,89.62,474.09,247.17,335.61,500.98,81.99,"U Zeměpisného ústavu, Prague - Bubeneč",50.1033901,14.4020568,,,,,,,,,,,,,,,,,,,,,,,,,,,,,,,,,,,,,,,,,,,,,,,,,,,,,,,,,,,,,,,,,,,,,,,,,,,,,,,,,,,,,,,,,,,,,,,,,,,,,,,,,,,,,,,,,,,,,,,,,,,,,,,,,,,,,,,,,
"CZK 13,000","CZK 3,350",533025,Studio,12/1/2022,34 m²,Fully furnished,3,,496.75,876.54,126.45,3157.03,110.54,1202.73,893.79,91.35,2060.89,125.33,Prague - Čakovice,50.1561965,14.5162757,"CZK 20,000",Brick,Up to 10 years,New-build,Personal,,Central,,,,,,Standard,,,,,,,,,,,1.0,,,,,,,,,,,,,,,,,,,,,,,,,,,,,,,,,,,,,,,,,,,,,,,,,,,,,,,,,,,,,,,,,,,,,,,,,,,,,,,,,,,,,,,,,,,,,,,,,,,,,,,,,,,,,,,,,
"CZK 22,900","CZK 3,900",530409,2+kk,12/1/2022,65 m²,Partly,5,1.0,383.56,1616.86,451.61,1388.28,530.82,1552.86,1294.85,1501.75,623.02,111.79,"Kolbenova, Prague - Vysočany",50.1128249,14.5149772,CZK 0,Brick,Up to 10 years,New-build,Personal,B,Distance,,1.0,1.0,1.0,1.0,,,,,,,,,,,,,,,,,,,,,,1.0,,,,,,,,,,,,,,,,,,,,,,,,,,,,,,,,,,,,,,,,,,,,,,,,,,,,,,,,,,,,,,,,,,,,,,,,,,,,,,,,,,,,,,,,,,,,,,,,,,,,,,,
"CZK 11,500","CZK 4,500",308727,Studio,8/15/2022,26 m²,Partly,1,,321.61,1313.49,216.96,1113.77,394.42,254.78,164.22,156.5,890.05,246.07,"Na výhledech, Prague - Strašnice",50.0684525,14.5009037,"CZK 16,000",Brick,Over 50 years,Very good,Personal,,Electric boiler,,,,,,Standard,,,,,,,,,,,,,,,,,,,,,,,,,,,,,,,,,,,,,,,,,,,,,,,,,,,,,,,,,,,,,,,,,,,,,,,,,,,,,,,,,,,,,,,,,,,,,,,,,,,,,,,,,,,,,,,,,,,,,,,,,,,,
"CZK 15,500","CZK 3,500",155181,Studio,12/1/2022,40 m²,Partly,3,1.0,189.48,731.78,261.97,788.78,286.19,815.68,498.05,306.85,231.05,420.8,"Jeremenkova, Prague - Podolí",50.0440309,14.4329228,"CZK 20,000",Other,,Very good,Personal,,Central,,1.0,1.0,,1.0,,,,,,,1.0,,,,,,,,,,,,,,,,,,,,,,,,,,,,,,,,,,,,,,,,,,,,,,,,,,,,,,,,,,,,,,,,,,,,,,,,,,,,,,,,,,,,,,,,,,,,,,,,,,,,,,,,,,,,,,,,,,,,,,
"CZK 15,000","CZK 3,500",749364,2 bedroom,1/1/2023,52 m²,Fully furnished,3,,335.02,414.88,193.82,445.36,167.41,386.08,241.36,360.95,701.29,238.6,"Herálecká Ⅱ, Prague - Krč",50.04501,14.44388,"CZK 40,000",Prefab concrete,,Very good,,D,,,,,1.0,,,,,,,,,,,,,,,,,,,,,,,,,,,,,,,,,,,,,,,,,,,,,,,,,,,,,,,,,,,,,,,,,,,,,,,,,,,,,,,,,,,,,,,,,,,,,,,,,,,,,,,,,,,,,,,,,,,,,,,,,,,,,,
