Price,Fees,Listing ID,Layout,Avaliable from,Floor space,Fully furnished,Floor,Lift,public_transport,post,shop,bank,restaurant,pharmacy,school,kindergarten,sports_field,playground,District,Latitude,Longitude,Balcony,Terrace,Refundable security deposit,Building type,Condition,EPC,Terasa 25 m²,Sklep 8 m²,New-build,Parking,Garage,Age,Balkón 4 m²,Sklep 15 m²,Designe,Balkón 18 m²,Sklep 5 m²,Ownership,Heating,Sklep 17 m²,Reconstruction,Sklep 1 m²,Administrative fee,Cellar,Sklep 3 m²,Lodžie 5.1 m²,Balkón 7 m²,Lodžie 4 m²,Lodžie 3 m²,Terasa 70 m²,Terasa 21 m²,Balkón 28 m²,Sklep 2 m²,Balkón 5 m²,Sklep 6 m²,Domácí mazlíčci vítáni,Lodžie 6 m²,Balkón 10 m²,Balkón 1.5 m²,Terasa 11 m²,Sklep 10 m²,Terasa 6 m²,Balkón 3 m²,Terasa 32 m²,Balkón 2 m²,Terasa 9 m²,Balkón 6 m²,Lodžie 3.2 m²,Terasa 17 m²,Sklep 4 m²,Balkón 14 m²,Enclosed balcony,Terasa 20 m²,Balkón 8 m²,Sklep 58 m²,Lodžie 7 m²,Balkón 1 m²,Balkón 6.1 m²,Sklep 2.4 m²,Terasa 8 m²,Balkón 12 m²,Sklep 3.2 m²,Terasa 12 m²,Terasa 5 m²,Terasa 200 m²,Terasa 78 m²,Terasa 18 m²,Balkón 40 m²,Terasa 50 m²,Terasa 4 m²,Lodžie 9 m²,Sklep 8.1 m²,Sklep 3.1 m²,Lodžie 1 m²,Lodžie 10 m²,Balkón 9 m²,Lodžie 5 m²,Balkón 15 m²,Lodžie 14.6 m²,Terasa 10 m²,Terasa 24 m²,Sklep 12 m²,Lodžie 8 m²,Sklep 7 m²,Lodžie 2 m²,Terasa 1 m²,Terasa 37 m²,Terasa 15 m²,Terasa 13 m²,Balkón 8.73 m²,Terasa 2.67 m²,Sklep 28 m²,Lodžie 15 m²,Terasa 350 m²,Balkón 11 m²,Balkón 2.29 m²,Terasa 16.1 m²,Terasa 14 m²,Balkón 13 m²,Balkón 33 m²,Terasa 29 m²,Terasa 100 m²,Terasa 30 m²,Terasa 7 m²,Terasa 45 m²,Sklep 4.1 m²,Terasa 10.1 m²,Terasa 83 m²,Sklep 6.4 m²,Balkón 96 m²,Terasa 27.6 m²,Sklep 1.2 m²,Lodžie 2.7 m²,Lodžie 13 m²,Terasa 19 m²,Sklep 20 m²,Terasa 14.1 m²,Terasa 40 m²,Balkón 70 m²,Plot space,Lodžie 12 m²,Terasa 300 m²
"CZK 15,915","CZK 5,305",746449,Studio,12/18/2022,20 m²,Fully furnished,5,1.0,86.47,662.34,358.81,554.53,76.78,567.42,340.69,376.18,415.89,386.16,"Orebitská, Prague - Žižkov",50.0864225,14.4459574,,,,,,,,,,,,,,,,,,,,,,,,,,,,,,,,,,,,,,,,,,,,,,,,,,,,,,,,,,,,,,,,,,,,,,,,,,,,,,,,,,,,,,,,,,,,,,,,,,,,,,,,,,,,,,,,,,,,,,,,,,
"CZK 37,425","CZK 12,475",745389,2+kk,12/16/2022,61 m²,Fully furnished,2,1.0,170.48,421.6,257.32,426.75,52.86,339.7,54.65,63.39,473.33,754.41,"Balbínova, Prague - Vinohrady",50.0795659,14.4357789,,,,,,,,,,,,,,,,,,,,,,,,,,,,,,,,,,,,,,,,,,,,,,,,,,,,,,,,,,,,,,,,,,,,,,,,,,,,,,,,,,,,,,,,,,,,,,,,,,,,,,,,,,,,,,,,,,,,,,,,,,
"CZK 37,500","CZK 12,500",748040,2+kk,12/27/2022,60 m²,Fully furnished,3,1.0,239.73,541.75,45.52,270.79,35.61,285.18,465.63,625.46,639.52,581.38,"Mečislavova, Prague - Nusle",50.0633237,14.4440058,1.0,1.0,,,,,,,,,,,,,,,,,,,,,,,,,,,,,,,,,,,,,,,,,,,,,,,,,,,,,,,,,,,,,,,,,,,,,,,,,,,,,,,,,,,,,,,,,,,,,,,,,,,,,,,,,,,,,,,,,,,,,,,,
"CZK 26,000","CZK 7,500",748013,2+kk,12/1/2022,78 m²,Partly,,1.0,443.02,1116.09,565.92,1097.64,108.72,1042.93,933.47,1166.3,967.84,697.43,"Nademlejnská, Prague - Hloubětín",50.101,14.52862,,,"CZK 30,000",Brick,New-build,C,1.0,1.0,1.0,1.0,1.0,,,,,,,,,,,,,,,,,,,,,,,,,,,,,,,,,,,,,,,,,,,,,,,,,,,,,,,,,,,,,,,,,,,,,,,,,,,,,,,,,,,,,,,,,,,,,,,,,,,,,,,,,,,,,,,
"CZK 28,493","CZK 9,497",742401,2+kk,12/1/2022,53 m²,Fully furnished,3,1.0,202.93,1083.69,84.41,522.08,140.61,459.37,143.09,392.14,304.14,134.72,"Drahobejlova, Prague - Libeň",50.1057951,14.4902938,,,,,,,,,,,1.0,,,,,,,,,,,,,,,,,,,,,,,,,,,,,,,,,,,,,,,,,,,,,,,,,,,,,,,,,,,,,,,,,,,,,,,,,,,,,,,,,,,,,,,,,,,,,,,,,,,,,,,,,,,,,,,
"CZK 13,500","CZK 3,000",747198,Studio,11/7/2022,30 m²,Partly,3,1.0,763.71,1654.66,1437.38,2104.36,287.51,1550.48,1507.19,2195.18,487.86,291.95,Prague - Letňany,50.14248,14.52408,,,"CZK 27,000",Brick,New-build,B,,,1.0,,,Up to 10 years,1.0,1.0,,,,,,,,,,,,,,,,,,,,,,,,,,,,,,,,,,,,,,,,,,,,,,,,,,,,,,,,,,,,,,,,,,,,,,,,,,,,,,,,,,,,,,,,,,,,,,,,,,,,,,,,,,,,
"CZK 21,000","CZK 5,800",748021,2+kk,12/1/2022,46 m²,Partly,,1.0,443.02,1116.09,565.92,1097.64,108.72,1042.93,933.47,1166.3,967.84,697.43,"Nademlejnská, Prague - Hloubětín",50.101,14.52862,,,"CZK 21,000",Brick,New-build,C,,,1.0,,1.0,Up to 10 years,,,Luxurious,1.0,1.0,,,,,,,,,,,,,,,,,,,,,,,,,,,,,,,,,,,,,,,,,,,,,,,,,,,,,,,,,,,,,,,,,,,,,,,,,,,,,,,,,,,,,,,,,,,,,,,,,,,,,,,,,
"CZK 12,500","CZK 3,000",75142,Studio,11/1/2022,39 m²,Fully furnished,1,,386.11,337.87,327.6,420.89,126.16,333.83,1007.3,712.74,535.42,295.41,"Mattioliho, Prague - Záběhlice",50.0527787,14.5150765,,,"CZK 15,000",Brick,,C,,,,,,,,,,,,Personal,Distance,,,,,,,,,,,,,,,,,,,,,,,,,,,,,,,,,,,,,,,,,,,,,,,,,,,,,,,,,,,,,,,,,,,,,,,,,,,,,,,,,,,,,,,,,,,,,,,,,,,,,,,
"CZK 47,000","CZK 10,000",748018,5+1,11/1/2022,220 m²,Partly,2,1.0,181.77,836.05,177.05,232.05,126.91,511.38,440.05,285.41,538.27,134.66,"Verdunská, Prague - Bubeneč",50.10302,14.40106,,,"CZK 100,000",Brick,Very good,G,,,,,1.0,,1.0,,,,,,,1.0,,,,,,,,,,,,,,,,,,,,,,,,,,,,,,,,,,,,,,,,,,,,,,,,,,,,,,,,,,,,,,,,,,,,,,,,,,,,,,,,,,,,,,,,,,,,,,,,,,,,,,
"CZK 19,000","CZK 6,000",747617,3+kk,10/25/2022,80 m²,Partly,1,,126.28,2300.22,399.97,347.12,935.48,1732.34,1114.44,1950.02,1361.64,359.5,Prague - Kyje,50.09122,14.54083,,,"CZK 30,000",Brick,Good,G,,,,,,,,,,,,,,,,,,,,,,,,,,,,,,,,,,,,,,,,,,,,,,,,,,,,,,,,,,,,,,,,,,,,,,,,,,,,,,,,,,,,,,,,,,,,,,,,,,,,,,,,,,,,,,,,,,,,
"CZK 23,978","CZK 7,992",748009,Studio,12/1/2022,30 m²,Fully furnished,3,1.0,99.26,361.63,490.78,556.87,427.65,345.52,452.0,519.02,404.9,293.38,"Olšanská, Prague - Žižkov",50.0830187,14.4654473,,,,,,,,,,,1.0,,,,,,,,,,,,,,,,,,,,,,,,,,,,,,,,,,,,,,,,,,,,,,,,,,,,,,,,,,,,,,,,,,,,,,,,,,,,,,,,,,,,,,,,,,,,,,,,,,,,,,,,,,,,,,,
"CZK 15,000","CZK 4,500",747071,2 bedroom,10/22/2022,47 m²,Unfurnished,1,,319.7,661.72,196.57,456.8,233.29,651.71,426.77,945.47,182.73,272.12,"Nad Ostrovem, Prague - Podolí",50.05418,14.42091,,,"CZK 19,500",Brick,Good,F,,,,1.0,,,,,,,,,,,,,,,,,,,,,,,,,,,,,,,,,,,,,,,,,,,,,,,,,,,,,,,,,,,,,,,,,,,,,,,,,,,,,,,,,,,,,,,,,,,,,,,,,,,,,,,,,,,,,,,,
"CZK 9,000","CZK 2,800",698697,Small studio,2/1/2022,26 m²,Partly,2,1.0,114.04,504.38,207.1,368.15,167.38,951.53,180.99,200.13,198.72,103.85,"Jahodová, Prague - Záběhlice",50.05784,14.50738,,,"CZK 18,000",Prefab concrete,Very good,G,,,,,,,,,Standard,,,Cooperative,Distance,,Interior,1.0,,,,,,,,,,,,,,,,,,,,,,,,,,,,,,,,,,,,,,,,,,,,,,,,,,,,,,,,,,,,,,,,,,,,,,,,,,,,,,,,,,,,,,,,,,,,,,,,,,,,
"CZK 14,490","CZK 1,798",748006,Studio,10/28/2022,34 m²,Unfurnished,6,1.0,196.34,253.41,75.7,608.16,224.96,225.75,94.65,223.58,328.81,203.85,"Jeseniova, Prague - Žižkov",50.08625583333,14.45855972222,1.0,,"CZK 16,288",Prefab concrete,Very good,B,,,,,,,,,,,,Personal,,,,,"CZK 16,288",1.0,,,,,,,,,,,,,,,,,,,,,,,,,,,,,,,,,,,,,,,,,,,,,,,,,,,,,,,,,,,,,,,,,,,,,,,,,,,,,,,,,,,,,,,,,,,,,,,,,,
"CZK 24,000","CZK 5,387",569398,2 bedroom,7/15/2022,55 m²,Fully furnished,4,1.0,236.07,50.81,24.88,346.34,68.6,215.44,75.18,146.89,742.92,767.55,"Bruselská, Prague - Vinohrady",50.0725767,14.4357303,,,"CZK 25,000",Brick,,,,,,,,,,,,,,Personal,,,Complete,,,1.0,,,,,,,,,,,,,,,,,,,,,,,,,,,,,,,,,,,,,,,,,,,,,,,,,,,,,,,,,,,,,,,,,,,,,,,,,,,,,,,,,,,,,,,,,,,,,,,,,,
"CZK 16,500","CZK 5,100",747068,2+kk,11/15/2022,50 m²,Partly,3,,253.08,172.63,144.96,1116.35,125.03,951.29,353.84,563.95,635.33,189.76,"Voskovcova, Prague - Hlubočepy",50.02952,14.36494,,,"CZK 30,000",Brick,Very good,G,,,,,,,,,,,,,,,,,,,1.0,1.0,,,,,,,,,,,,,,,,,,,,,,,,,,,,,,,,,,,,,,,,,,,,,,,,,,,,,,,,,,,,,,,,,,,,,,,,,,,,,,,,,,,,,,,,,,,,,,,,
"CZK 16,000","CZK 4,000",747063,1 bedroom,11/15/2022,35 m²,Fully furnished,3,,125.5,973.64,139.16,1383.75,13.22,194.19,120.0,433.81,408.52,257.2,"Bulovka, Prague - Libeň",50.11529,14.46651,,,"CZK 30,000",Brick,Very good,G,,,,,,,,,Standard,,,,,,Interior,,,,,,,,,,,,,,,,,,,,,,,,,,,,,,,,,,,,,,,,,,,,,,,,,,,,,,,,,,,,,,,,,,,,,,,,,,,,,,,,,,,,,,,,,,,,,,,,,,,,,
"CZK 16,500",CZK 700,747992,3+kk,10/27/2022,72 m²,Partly,1,,163.96,817.18,33.85,446.28,133.92,263.57,527.22,624.56,538.64,305.26,"Jaromírova, Prague - Nusle",50.06492,14.42755,,,"CZK 16,500",Brick,Good,G,,,,,,,,,,,,,,,,,,,,,,,,,,,,,,,,,,,,,,,,,,,,,,,,,,,,,,,,,,,,,,,,,,,,,,,,,,,,,,,,,,,,,,,,,,,,,,,,,,,,,,,,,,,,,,,,,,,,
"CZK 23,000","CZK 5,000",673219,3+kk,10/24/2022,83 m²,Partly,3,1.0,242.69,921.0,457.78,584.04,419.53,476.82,319.93,560.32,596.0,564.93,Prague - Košíře,50.0682889,14.3700378,,,"CZK 28,000",Brick,New-build,E,,,1.0,1.0,1.0,Up to 10 years,,,Luxurious,,,Personal,Central,,Complete,,,,,,1.0,1.0,,,,,,,,,,,,,,,,,,,,,,,,,,,,,,,,,,,,,,,,,,,,,,,,,,,,,,,,,,,,,,,,,,,,,,,,,,,,,,,,,,,,,,,,,,,,,,
"CZK 19,000","CZK 5,500",747991,2+kk,10/31/2022,50 m²,Fully furnished,1,1.0,189.6,915.34,160.82,364.73,32.11,331.34,218.17,258.11,271.54,85.81,"Na Výtoni, Prague - Nové Město",50.06859,14.41669,,,"CZK 24,500",Brick,Very good,G,,,,,,,,,,,,,,,,,,,,,,,,,,,,,,,,,,,,,,,,,,,,,,,,,,,,,,,,,,,,,,,,,,,,,,,,,,,,,,,,,,,,,,,,,,,,,,,,,,,,,,,,,,,,,,,,,,,,
"CZK 22,000","CZK 4,159",747168,2+kk,12/1/2022,50 m²,Fully furnished,3,1.0,106.39,1031.64,62.02,489.56,102.35,469.58,272.31,414.34,298.59,124.25,"U Svobodárny, Prague - Libeň",50.10581,14.48876,,,"CZK 40,000",Brick,New-build,C,,,1.0,,,Up to 10 years,,,,,,Personal,Central,,,,,,,,,,1.0,,,,,,,,,,,,,,,,,,,,,,,,,,,,,,,,,,,,,,,,,,,,,,,,,,,,,,,,,,,,,,,,,,,,,,,,,,,,,,,,,,,,,,,,,,,,,
"CZK 16,500",CZK 700,747990,3+1,10/27/2022,72 m²,Partly,2,,163.96,817.18,33.85,446.28,133.92,263.57,527.22,624.56,538.64,305.26,"Jaromírova, Prague - Nusle",50.06492,14.42755,,,"CZK 16,500",Brick,Very good,G,,,,,,,,,,,,,,,,,,,,,,,,,,,,,,,,,,,,,,,,,,,,,,,,,,,,,,,,,,,,,,,,,,,,,,,,,,,,,,,,,,,,,,,,,,,,,,,,,,,,,,,,,,,,,,,,,,,,
"CZK 14,500","CZK 4,000",268682,2+kk,10/2/2022,43 m²,Unfurnished,2,1.0,271.31,1126.68,355.65,1119.33,551.74,197.24,233.66,665.19,567.45,137.82,"Snopkova, Prague - Kamýk",50.0162578,14.433737,1.0,,"CZK 30,000",Prefab concrete,Good,,,,,,,30 - 50 years,,,,,,Cooperative,Distance,,,,,,,,,1.0,,,,,,,,,,,,,,,,,,,,,,,,,,,,,,,,,,,,,,,,,,,,,,,,,,,,,,,,,,,,,,,,,,,,,,,,,,,,,,,,,,,,,,,,,,,,,,
"CZK 13,500","CZK 3,400",747981,2+kk,10/27/2022,41 m²,Fully furnished,3,1.0,184.33,611.76,188.97,1359.56,470.3,711.39,419.48,262.07,475.66,201.48,"Machkova, Prague - Chodov",50.03347,14.51228,,,"CZK 30,000",Prefab concrete,Very good,G,,,,,,,,,,,,,,,,,,,,,,,,,,,,,,,,,,,,,,,,,,,,,,,,,,,,,,,,,,,,,,,,,,,,,,,,,,,,,,,,,,,,,,,,,,,,,,,,,,,,,,,,,,,,,,,,,,,,
"CZK 63,000","CZK 21,000",735517,3+kk,11/7/2022,110 m²,Fully furnished,6,1.0,30.08,409.78,41.21,139.22,4.79,323.92,155.78,264.84,623.64,381.72,"Myslíkova, Prague - Nové Město",50.0781479,14.4179311,,,,,,,,,,,,,,,,,,,,,,,,,,,,,,,,,,,,,,,,,,,,,,,,,,,,,,,,,,,,,,,,,,,,,,,,,,,,,,,,,,,,,,,,,,,,,,,,,,,,,,,,,,,,,,,,,,,,,,,,,,
"CZK 16,500","CZK 3,500",747975,2 bedroom,11/1/2022,52 m²,Fully furnished,3,1.0,320.03,1208.11,261.22,1028.81,562.95,725.99,414.43,243.97,901.0,140.39,"Sečská, Prague - Strašnice",50.07138,14.50266,,,"CZK 20,000",Prefab concrete,Very good,G,,,,1.0,,,1.0,,,,,,,,,,,,1.0,,,,,,,,,,,,,,,,,,,,,,,,,,,,,,,,,,,,,,,,,,,,,,,,,,,,,,,,,,,,,,,,,,,,,,,,,,,,,,,,,,,,,,,,,,,,,,,,,
"CZK 16,500","CZK 5,000",747973,3+kk,10/27/2022,65 m²,Partly,3,,477.19,2102.49,510.04,1605.59,587.7,1875.54,1845.58,2953.97,621.52,132.45,"Travná, Prague - Kyje",50.08337,14.55513,,,"CZK 21,500",Prefab concrete,Very good,G,,,,,,,,,,,,Personal,,,,,,,,,,,,,,,,,,,,,,,,,,,,,,,,,,,,,,,,,,,,,,,,,,,,,,,,,,,,,,,,,,,,,,,,,,,,,,,,,,,,,,,,,,,,,,,,,,,,,,,,
"CZK 21,000",CZK 0,747961,2+kk,11/21/2022,65 m²,Fully furnished,1,1.0,229.33,754.56,219.82,107.36,124.2,432.16,763.39,759.64,514.68,140.69,"Kališnická, Prague - Žižkov",50.09001,14.46409,,,"CZK 30,000",Brick,New-build,B,,,1.0,,1.0,,,,,,,,,,,,,,,,,,,,,,,,,,,,,,,,,,,,,,,,,,,,,,,,,,,,,,,,,,,,,,,,,,,,,,,,,,,,,,,,,,,,,,,,,,,,,,,,,,,,,,,,,,,,,,,
"CZK 24,990","CZK 2,784",747960,2 bedroom,10/28/2022,70 m²,Unfurnished,3,1.0,338.98,901.45,135.2,411.92,102.21,184.54,539.34,1011.43,374.86,875.19,"U smaltovny, Prague - Holešovice",50.10317805555,14.43564805555,,,"CZK 27,774",Brick,Very good,D,,,,,,,,,,,,Personal,,,,,"CZK 27,774",1.0,,,,,,,,,,,,,,,,,,,,,,,,,,,,,,,,,,,,,,,,,,,,,,,,,,,,,,,,,,,,,,,,,,,,,,,,,,,,,,,,,,,,,,,,,,,,,,,,,,
"CZK 22,000","CZK 5,000",746305,2 bedroom,10/18/2022,66 m²,Partly,5,,262.7,628.25,58.99,421.72,12.88,330.45,318.9,79.21,309.5,342.61,"U Kanálky, Prague - Vinohrady",50.07829,14.44611,,,"CZK 22,000",Brick,Very good,G,,,,,,,,,,,,,,,,,,,,,,,,,,,,,,,,,,,,,,,,,,,,,,,,,,,,,,,,,,,,,,,,,,,,,,,,,,,,,,,,,,,,,,,,,,,,,,,,,,,,,,,,,,,,,,,,,,,,
"CZK 25,000","CZK 5,500",650333,2+kk,7/1/2021,51 m²,Fully furnished,2,1.0,58.07,769.47,56.05,25.72,36.16,16.83,227.97,425.27,134.88,432.73,Prague - Nové Město,50.081847,14.419109,,,"CZK 32,500",Brick,Very good,G,,,,,,,,,Luxurious,,,Personal,Central,,Interior,,,,,,,,,1.0,,,,,,,,,,,,,,,,,,,,,,,,,,,,,,,,,,,,,,,,,,,,,,,,,,,,,,,,,,,,,,,,,,,,,,,,,,,,,,,,,,,,,,,,,,,,
"CZK 27,900","CZK 2,900",747668,2+kk,10/26/2022,70 m²,Partly,6,1.0,53.62,491.12,49.94,757.1,100.21,674.56,103.85,182.31,999.85,332.1,"Prachnerova, Prague - Košíře",50.07038,14.38045,,,"CZK 50,000",Brick,Very good,G,,,,1.0,,,,,,,,,,,Interior,,,,,,,,,,1.0,,,,,,,,,,,,,,,,,,,,,,,,,,,,,,,,,,,,,,,,,,,,,,,,,,,,,,,,,,,,,,,,,,,,,,,,,,,,,,,,,,,,,,,,,,,
"CZK 32,175","CZK 10,725",747955,1 bedroom,11/1/2022,30 m²,Fully furnished,3,1.0,22.29,481.37,107.82,95.32,6.34,158.39,351.4,425.94,380.79,468.94,"Legerova, Prague - Vinohrady",50.0749602,14.4305105,,,,,,,,,,,,,,,,,,,,,,,,,,,,,,,,,,,,,,,,,,,,,,,,,,,,,,,,,,,,,,,,,,,,,,,,,,,,,,,,,,,,,,,,,,,,,,,,,,,,,,,,,,,,,,,,,,,,,,,,,,
"CZK 27,675","CZK 9,225",742158,Studio,11/1/2022,30 m²,Fully furnished,2,1.0,210.86,390.29,319.5,985.86,301.65,338.01,858.33,290.45,385.77,539.9,"Strakonická, Prague - Smíchov",50.0643299,14.4102127,,,,,,,,,,,,,,,,,,,,,,,,,,,,,,,,,,,,,,,,,,,,,,,,,,,,,,,,,,,,,,,,,,,,,,,,,,,,,,,,,,,,,,,,,,,,,,,,,,,,,,,,,,,,,,,,,,,,,,,,,,
"CZK 31,500",CZK 133,745175,3+kk,12/16/2022,69 m²,Fully furnished,12,1.0,,,,,,,,,,,"Mukařovského, Prague - Stodůlky",50.04595,14.32223,,,"CZK 63,000",Other,Very good,A,,,1.0,,1.0,,,,,,,,,,,,,,,,,,,,,1.0,1.0,,,,,,,,,,,,,,,,,,,,,,,,,,,,,,,,,,,,,,,,,,,,,,,,,,,,,,,,,,,,,,,,,,,,,,,,,,,,,,,,,,,,,,,,,
"CZK 55,000","CZK 8,000",747943,3+kk,1/1/2023,128 m²,Fully furnished,5,1.0,135.64,501.69,49.29,172.04,34.03,364.04,529.27,334.51,319.97,688.92,Prague - Smíchov,50.07162,14.40618,,,"CZK 110,000",Brick,New-build,A,,,1.0,1.0,1.0,Up to 10 years,,,Luxurious,,,,,,Complete,,,,,,,,,,,,,,,,,,,,,,,,,,,,,,,,,,,,,,,,,,,,,,,,,,,,,,,,,,,,,,,,,,,,,,,,,,,,,,,,,,,,,,,,,,,,,,,,,,,,,
"CZK 28,000","CZK 6,558",744686,4+kk,10/10/2022,86 m²,Partly,4,1.0,115.09,232.26,104.19,202.12,115.51,115.98,298.16,247.74,996.48,121.69,"Petržílkova, Prague - Stodůlky",50.05055,14.34251,,,"CZK 37,000",Brick,New-build,C,,,,1.0,1.0,,,,,,,,,,,,,,,,,,,,,,,,,,,,,,,,,,,,,,,,,,,,,,,,,,,,,,,,,,,,,,,,,,,,,,,,,,,,,,,,,,,,,,,,,,,,,,,,,,,,,,,,,,,,,,,
"CZK 25,000","CZK 5,500",747942,2+kk,11/7/2022,58 m²,Partly,6,1.0,221.98,825.8,326.23,649.18,122.85,552.1,440.05,595.8,919.83,277.86,"Grafická, Prague - Smíchov",50.07341,14.39632,,,"CZK 50,000",Brick,New-build,B,,,1.0,,,,,,,,,,,,,,,,,,,,,,,,,1.0,1.0,,,,,,,,,,,,,,,,,,,,,,,,,,,,,,,,,,,,,,,,,,,,,,,,,,,,,,,,,,,,,,,,,,,,,,,,,,,,,,,,,,,,,,,
"CZK 21,000","CZK 2,000",160519,2+kk,11/1/2022,35 m²,Fully furnished,1,,253.24,462.44,117.75,423.46,28.88,461.36,418.69,721.83,453.54,86.54,"Liliová, Prague - Staré Město",50.0848487,14.4165826,,,"CZK 25,000",Brick,Very good,,,,,,,,,,,,,Personal,,,,,,,,,,,,,,,,,,,,,,,,,,,,,,,,,,,,,,,,,,,,,,,,,,,,,,,,,,,,,,,,,,,,,,,,,,,,,,,,,,,,,,,,,,,,,,,,,,,,,,,,
"CZK 8,000","CZK 2,000",729860,Small studio,11/21/2022,13 m²,Fully furnished,3,,63.56,2382.3,502.13,2085.54,453.16,1020.53,1623.0,348.67,951.91,676.91,Prague - Břevnov,50.07573,14.33054,,,CZK 0,Brick,New-build,G,,,,1.0,,Up to 10 years,,,Standard,,,,,,,,,,,,,,,,,,,,,1.0,,,,,,,,,,,,,,,,,,,,,,,,,,,,,,,,,,,,,,,,,,,,,,,,,,,,,,,,,,,,,,,,,,,,,,,,,,,,,,,,,,,,,,
"CZK 16,000","CZK 5,500",747928,2+kk,10/27/2022,49 m²,Fully furnished,1,1.0,221.63,1067.53,189.91,1164.56,528.9,1100.2,735.32,587.2,842.06,517.89,"Boloňská, Prague - Horní Měcholupy",50.04838,14.55874,,,"CZK 20,000",Brick,Very good,C,,,,,1.0,,,,,,,,,,,,,,,,,,,,,,,,,1.0,,,,,,,,,,,,,,,,,,,,,,,,,,,,,,,,,,,,,,,,,,,,,,,,,,,,,,,,,,,,,,,,,,,,,,,,,,,,,,,,,,,,,,
"CZK 13,240","CZK 3,760",644354,Studio,12/1/2022,26 m²,Fully furnished,2,1.0,354.23,663.43,231.82,786.8,331.69,757.64,1187.56,618.11,1123.94,121.38,"Peroutkova, Prague - Radlice",50.058484,14.378329,,,"CZK 17,000",Other,Very good,G,,,,,,Up to 10 years,,,Standard,,,Personal,Central,,Complete,,,,,,,,,,,,,,,,,,,,,,,,,,,,,,,,,,,,,,,,,,,,,,,,,,,,,,,,,,,,,,,,,,,,,,,,,,,,,,,,,,,,,,,,,,,,,,,,,,,,,
"CZK 13,500","CZK 3,000",745463,Studio,10/30/2022,46 m²,Partly,5,,213.99,1986.46,1149.13,1745.32,274.72,1392.97,840.78,1454.11,1140.96,762.91,"Mezi Vodami, Prague - Modřany",50.01425,14.40083,,,"CZK 27,000",Brick,New-build,G,,,,,,,,,,,,,,,,,,,,,,,,,,,,,,,1.0,,,,,,,,,,,,,,,,,,,,,,,,,,,,,,,,,,,,,,,,,,,,,,,,,,,,,,,,,,,,,,,,,,,,,,,,,,,,,,,,,,,,,
"CZK 11,000","CZK 1,000",95371,Small studio,11/1/2022,27 m²,Partly,3,,248.41,441.52,190.69,211.34,158.92,211.11,511.18,738.99,710.62,589.76,"Vlastislavova, Prague - Nusle",50.0651978,14.4429669,,,"CZK 15,000",Brick,,,,,,,,Over 50 years,,,Standard,,,,Electric boiler,,Complete,,,,,,,,,,,,,,,,,,,,,,,,,,,,,,,,,,,,,,,,,,,,,,,,,,,,,,,,,,,,,,,,,,,,,,,,,,,,,,,,,,,,,,,,,,,,,,,,,,,,,
"CZK 18,000","CZK 3,200",744884,2+kk,11/1/2022,52 m²,Partly,4,1.0,195.52,1608.98,133.82,1648.95,200.33,189.4,777.29,212.32,1184.04,156.46,"Bratislavská, Prague - Hostivař",50.04402,14.51721,,,"CZK 42,400",Other,Very good,B,,,,1.0,,,,,,,,,Central,,,,,,,,,,,,,,,,,,,1.0,,,,,,,,,,,,,,,,,,,,,,,,,,,,,,,,,,,,,,,,,,,,,,,,,,,,,,,,,,,,,,,,,,,,,,,,,,,,,,,,,,,,
"CZK 49,000","CZK 11,000",747924,4+kk,11/1/2022,131 m²,Unfurnished,7,,233.16,527.52,235.21,339.98,11.77,220.36,346.97,141.66,460.06,232.51,"U Kanálky, Prague - Vinohrady",50.07744,14.44624,,,"CZK 98,000",Brick,Very good,G,,,,,1.0,,,,,,,,,,,,,,,,,,,,,,,,,1.0,,,1.0,1.0,,,,,,,,,,,,,,,,,,,,,,,,,,,,,,,,,,,,,,,,,,,,,,,,,,,,,,,,,,,,,,,,,,,,,,,,,,,,,,,,,,
"CZK 13,000","CZK 3,500",604244,Studio,11/1/2022,42 m²,,3,1.0,121.73,523.09,216.71,467.89,51.45,428.17,201.44,318.89,276.38,563.51,"Jeronýmova, Prague - Žižkov",50.086888,14.4482,,,"CZK 13,000",Brick,Very good,D,,,,,,,,,,,,Personal,,,,,,,,,,,,,,,,,,,,,,,1.0,,,,,,,,,,,,,,,,,,,,,,,,,,,,,,,,,,,,,,,,,,,,,,,,,,,,,,,,,,,,,,,,,,,,,,,,,,,,,,,,,
"CZK 21,000","CZK 4,000",747905,2+kk,10/27/2022,60 m²,Unfurnished,1,,211.28,398.21,166.08,419.89,134.74,368.07,258.12,121.18,496.54,164.66,"Korunní, Prague - Vinohrady",50.07525,14.44719,,,"CZK 21,000",Brick,Very good,G,,,,,,,,,Standard,,,Personal,Electric boiler,,Complete,,,,,,,,,,,,1.0,,,,,,,,,,,,,,,,,,,,,,,,,,,,,,,,,,,,,,,,,,,,,,,,,,,,,,,,,,,,,,,,,,,,,,,,,,,,,,,,,,,,,,,,,
"CZK 14,000","CZK 1,000",174298,2+kk,11/1/2022,45 m²,Partly,2,,248.41,441.52,190.69,211.34,158.92,211.11,511.18,738.99,710.62,589.76,"Vlastislavova, Prague - Nusle",50.0651978,14.4429669,,,"CZK 15,000",Brick,,,,,,,,Over 50 years,,,Standard,,,Personal,,,Complete,,,,,,,,,,,,,,,,,,,,,,,,,,,,,,,,,,,,,,,,,,,,,,,,,,,,,,,,,,,,,,,,,,,,,,,,,,,,,,,,,,,,,,,,,,,,,,,,,,,,,
"CZK 14,000","CZK 3,000",414616,Studio,11/1/2022,26 m²,Unfurnished,2,1.0,172.33,747.36,133.31,383.32,149.39,316.43,545.4,247.0,139.57,286.64,"Biskupcova, Prague - Žižkov",50.0917339,14.4822434,,,"CZK 169,978",Brick,Very good,B,,,,,,,,,Standard,,,Personal,Central,,Exterior,,,,,,,,,,,,,,,,,,,,,,,,,,,,,,,,,,,,,,,,,,,,,,,,,,,,,,,,,,,,,,,,,,,,,,,,,,,,,,,,,,,,,,,,,,,,,,,,,,,,,
"CZK 26,138","CZK 8,712",747904,1 bedroom,10/29/2022,30 m²,Fully furnished,3,1.0,390.19,1780.37,1158.49,1539.06,629.04,878.87,461.79,942.36,478.01,426.3,"Jeřabinová, Prague - Smíchov",50.0749239,14.359682,1.0,1.0,,,,,,,,,1.0,,,,,,,,,,,,,,,,,,,,,,,,,,,,,,,,,,,,,,,,,,,,,,,,,,,,,,,,,,,,,,,,,,,,,,,,,,,,,,,,,,,,,,,,,,,,,,,,,,,,,,,,,,,,,,,
"CZK 20,500","CZK 5,000",740636,Studio,11/15/2022,58 m²,Fully furnished,3,1.0,233.47,437.35,169.28,279.19,158.02,212.34,325.01,370.86,210.14,428.9,Prague - Vršovice,50.0674,14.4519,,,"CZK 30,000",Brick,Very good,C,,,,1.0,1.0,,,,,,,,,,,,,,,,,,,,,,,,,,,,,,,,,,,,,,,,,,,,,,,,,,,,,,,,,,,,,,,,,,,,,,,,,,,,,,,,,,,,,,,,,,,,,,,,,,,,,,,,,,,,,,,
"CZK 10,500","CZK 1,200",580360,Studio,10/27/2022,25 m²,Fully furnished,1,,180.22,317.05,268.97,2315.69,112.12,245.98,764.74,1001.42,2528.61,330.27,Prague - Dolní Chabry,50.145084,14.450038,,1.0,"CZK 13,000",Brick,Good,C,,,,,,Up to 10 years,,,Standard,,,Personal,Central,,,,,,,,,,,,,,,,,,,,,,,,,,,,,,,,,,,,,,,,,,,,,,,,,,,,,,,,,,,,,,,,,,,,,,,,,,,,,,,,,,,,,,,,,,,,,,,,,,,,,,,
"CZK 15,000","CZK 4,000",747899,2+kk,12/1/2022,41 m²,Partly,6,,133.49,780.61,451.33,820.58,128.84,849.93,550.91,355.81,231.72,235.06,"Hostivařská, Prague - Hostivař",50.05105,14.52633,,,"CZK 15,000",Prefab concrete,Very good,G,,,,1.0,,,,,,,,,,,,,,,,,,,,,,,1.0,,,1.0,,,,,,,,,,,,,,,,,,,,,,,,,,,,,,,,,,,,,,,,,,,,,,,,,,,,,,,,,,,,,,,,,,,,,,,,,,,,,,,,,,,,,,
"CZK 11,900","CZK 2,500",652598,Small studio,11/4/2022,25 m²,Fully furnished,1,,287.5,584.79,320.16,2168.1,319.66,602.45,386.95,404.66,1181.19,334.82,"Ke Hřišti, Prague - Čimice",50.138321,14.432798,,,"CZK 12,900",Brick,Very good,B,,,,,,Up to 10 years,,,Luxurious,,,Personal,Other,,Complete,,,,,,,,,,,,,,,,,,,,,1.0,,,,,,,,,,,,,,,,,,,,,,,,,,,,,,,,,,,,,,,,,,,,,,,,,,,,,,,,,,,,,,,,,,,,,,,,,,,,,,,,
"CZK 48,938","CZK 16,312",744437,4+1,12/1/2022,118 m²,Fully furnished,5,1.0,10.09,941.97,67.62,646.62,248.31,375.19,227.43,495.09,1021.07,415.81,"Grafická, Prague - Smíchov",50.0722637,14.3926388,,,,,,,,,,,,,,,,,,,,,,,,,,,,,,,,,,,,,,,,,,,,,,,,,,,,,,,,,,,,,,,,,,,,,,,,,,,,,,,,,,,,,,,,,,,,,,,,,,,,,,,,,,,,,,,,,,,,,,,,,,
"CZK 14,400","CZK 3,600",747887,Studio,11/1/2022,40 m²,Partly,5,1.0,42.16,980.71,35.65,801.41,416.27,652.58,375.7,164.32,685.98,129.58,"Štěchovická, Prague - Strašnice",50.07176,14.49995,,,"CZK 36,000",Other,New-build,B,,,1.0,,,,,,,,,,,,,,,,,,,,,,,,,,,,,,,,,,1.0,,,,,,,,,,,,,,,,,,,,,,,,,,,,,,,,,,,,,,,,,,,,,,,,,,,,,,,,,,,,,,,,,,,,,,,,,,,,,,,
"CZK 15,500","CZK 5,000",731640,2 bedroom,10/28/2022,57 m²,Partly,1,,42.28,1333.45,38.11,1050.56,53.56,352.31,487.68,225.33,739.54,307.67,Prague - Strašnice,50.06666,14.49611,,,"CZK 20,000",Brick,Very good,B,,,,1.0,,,,,,,,Personal,Central,,,,,,,,,,,,,,,,,,,,,,,,,,,,,,,,,,,,,,,,,,,,,,,,,,,,,,,,,,,,,,,,,,,,,,,,,,,,,,,,,,,,,,,,,,,,,,,,,,,,,,,
"CZK 29,000","CZK 7,500",746504,2+kk,10/20/2022,50 m²,Fully furnished,3,1.0,413.54,744.02,401.31,592.5,438.03,733.32,542.0,902.11,1.99,407.83,"Pod Klaudiánkou, Prague - Podolí",50.05435,14.42251,,,"CZK 56,000",Other,New-build,G,,,1.0,1.0,,,,,Luxurious,,,,Central,,Complete,,,,,,,,,,,,,,,,,,,,,,,1.0,,,,,,,,,,,,,,,,,,,,,,,,,,,,,,,,,,,,,,,,,,,,,,,,,,,,,,,,,,,,,,,,,,,,,,,,,,,,,,
"CZK 20,000","CZK 6,000",746533,Studio,10/20/2022,40 m²,Fully furnished,3,,413.54,744.02,401.31,592.5,438.03,733.32,542.0,902.11,1.99,407.83,"Pod Klaudiánkou, Prague - Podolí",50.05435,14.42251,,,"CZK 40,000",Brick,New-build,G,,,,,,Up to 10 years,,,Luxurious,,,,Central,,Complete,,,,,,,,,,,,,,,,,,,,,,,,,,,,,,,,,,,,,,,,,,,,,,,,,,,,,,,,,,,,,,,,,,,,,,,,,,,,,,,,,,,,,,,,,,,,,,,,,,,,,
"CZK 45,000","CZK 8,500",747788,3+kk,10/26/2022,98 m²,Fully furnished,3,1.0,225.61,549.92,121.01,248.92,9.61,235.2,278.79,387.65,180.91,363.2,"Bílkova, Prague - Staré Město",50.09129,14.42169,,,"CZK 90,000",Brick,Very good,G,,,,,,,,,,,,,,,,,,,,,,,,,,,,,,,,,,,,,,,1.0,,,,,,,,,,,,,,,,,,,,,,,,,,,,,,,,,,,,,,,,,,,,,,,,,,,,,,,,,,,,,,,,,,,,,,,,,,,,,
"CZK 14,000","CZK 5,900",569229,3+1,11/1/2022,61 m²,Unfurnished,3,,346.65,385.1,354.41,474.54,224.32,689.06,345.64,208.63,1503.27,188.9,"Novoborská, Prague - Prosek",50.1241793,14.5015127,1.0,,"CZK 16,000",Prefab concrete,Very good,,,,,,,,,,,,,Personal,Central,,Complete,,,,,,,,,,,,,,,,,,,,,,,,,,,,,,,,,,,,,,,,,,,,,,,,,,,,,,,,,,,,,,,,,,,,,,,,,,,,,,,,,,,,,,,,,,,,,,,,,,,,,
"CZK 8,500","CZK 2,500",683367,Small studio,12/1/2022,15 m²,Fully furnished,2,,209.16,839.76,687.0,717.08,200.67,660.61,596.35,348.29,668.79,408.31,Prague - Stodůlky,50.04951,14.32643,,1.0,CZK 0,Brick,Good,G,,,,1.0,,10 to 30 years,,,Standard,,,Personal,Central,,Complete,,,,,,,,,,,,,,,,,,,,,,,,,,,,,,,,,,,,,,,,,,,,,,,,,,,,,,,,,,,,,,,,,,,,,,,,,,,,,,,,,,,,,,,,,,,,,,,,,,,,,
"CZK 24,500","CZK 5,000",380086,2+kk,10/22/2022,76 m²,Fully furnished,2,,147.18,682.76,367.88,685.45,667.12,571.0,773.92,600.1,1295.73,262.67,"Do Klukovic, Prague - Hlubočepy",50.0354278,14.3700267,,,"CZK 24,500",Brick,,C,,,,,,,,,,,,Personal,,,,,,,,,,,,,,,,,,,,,,,,,,,,1.0,,,,,,,,,,,,,,,,,,,,,,,,,,,,,,,,,,,,,,,,,,,,,,,,,,,,,,,,,,,,,,,,,,,,,,,,,,,,
"CZK 14,500","CZK 2,000",451823,1 bedroom,11/6/2022,58 m²,Partly,3,,163.61,219.11,151.65,732.34,99.16,397.7,227.66,237.57,518.13,271.68,"Šumavská, Prague - Vinohrady",50.0740589,14.4437095,,,"CZK 15,000",Brick,Very good,D,,,,,,,,,Standard,,,Personal,Gas boiler,,Complete,,,,,,,,,,,,,,,,,,,,1.0,,,,,,,,,,,,,,,,,,,,,,,,,,,,,,,,,,,,,,,,,,,,,,,,,,,,,,,,,,,,,,,,,,,,,,,,,,,,,,,,,
"CZK 16,000","CZK 4,000",747884,2+kk,11/1/2022,44 m²,Fully furnished,3,,42.16,980.71,35.65,801.41,416.27,652.58,375.7,164.32,685.98,129.58,"Štěchovická, Prague - Strašnice",50.07176,14.49995,,,"CZK 40,000",Other,New-build,B,,,1.0,,,,,,,,,,,,,,,,,,,,,,,,,,,,,,,,,,,,,,1.0,,,,,,,,,,,,,,,,,,,,,,,,,,,,,,,,,,,,,,,,,,,,,,,,,,,,,,,,,,,,,,,,,,,,,,,,,,,
"CZK 9,000","CZK 2,500",747673,Studio,10/31/2022,25 m²,Fully furnished,1,,122.4,4811.45,2085.62,6040.49,2487.87,5476.74,2299.39,2291.49,3298.55,2369.51,"Na Cikánce, Prague - Radotín",49.99684,14.3205,,,"CZK 25,000",Other,Very good,G,,,,,,,,,,,,,,,,,,,,,,,,,,,,,,,,,,,,,,,,,,,,,,,,,,,,,,,,,,,,,,,,,,,,,,,,,,,,,,,,,,,,,,,,,,,,,,,,,,,,,,,,,,,,,,,,,,,,
"CZK 15,000","CZK 3,500",747039,Small studio,10/22/2022,35 m²,Fully furnished,3,1.0,188.38,298.81,282.93,303.83,237.42,182.23,701.51,348.52,349.72,113.85,"Jemnická, Prague - Michle",50.04898,14.45703,,,"CZK 25,000",Brick,Very good,A,,,1.0,,1.0,Up to 10 years,,,,,,,Central,,,,,,,,,,,,,,,,,,,,,,,,,,,,,,,,,,,,,,,,,,,,,,,,,,,,,,,,,,,,,,,,,,,,,,,,,,,,,,,,,,,,,,,,,,,,,,,,,,,,,,,
"CZK 31,000","CZK 5,000",569318,2 bedroom,11/1/2022,61 m²,Fully furnished,2,1.0,252.37,189.31,99.18,212.73,108.58,57.88,308.83,463.59,1208.04,275.91,"Kladenská, Prague - Vokovice",50.0963542,14.3590518,,,"CZK 62,000",Brick,Very good,C,,,,1.0,,,,,Luxurious,,,Personal,Distance,,Complete,,,1.0,,,,,,,,,,,,,,,,,,,,,,,,,,,,,,,,,,,,,,,,,,,,,,,,,,,,,,,,,,,,,,,,,,,,,,,,,,,,,,,,,,,,,,,,,,,,,,,,,,
"CZK 46,530","CZK 15,510",746227,2 bedroom,12/17/2022,48 m²,Fully furnished,2,,158.42,248.82,154.82,246.13,112.68,264.3,390.21,408.3,154.53,114.55,"Řásnovka, Prague - Staré Město",50.0918754,14.4250902,,,,,,,,,,,,,,,,,,,,,,,,,,,,,,,,,,,,,,,,,,,,,,,,,,,,,,,,,,,,,,,,,,,,,,,,,,,,,,,,,,,,,,,,,,,,,,,,,,,,,,,,,,,,,,,,,,,,,,,,,,
"CZK 36,300","CZK 12,100",747870,3+1,12/26/2022,96 m²,Fully furnished,5,1.0,99.53,260.16,62.64,93.65,6.85,222.0,321.74,519.59,396.11,642.83,"Londýnská, Prague - Vinohrady",50.0761895,14.4328649,,,,,,,,,,,,,,,,,,,,,,,,,,,,,,,,,,,,,,,,,,,,,,,,,,,,,,,,,,,,,,,,,,,,,,,,,,,,,,,,,,,,,,,,,,,,,,,,,,,,,,,,,,,,,,,,,,,,,,,,,,
"CZK 26,250","CZK 8,750",747869,1 bedroom,12/26/2022,56 m²,Fully furnished,5,1.0,152.25,672.65,40.42,444.62,81.03,447.64,262.25,308.06,547.1,276.36,"Slovinská, Prague - Vršovice",50.0716124,14.4594622,,,,,,,,,,,,,,,,,,,,,,,,,,,,,,,,,,,,,,,,,,,,,,,,,,,,,,,,,,,,,,,,,,,,,,,,,,,,,,,,,,,,,,,,,,,,,,,,,,,,,,,,,,,,,,,,,,,,,,,,,,
"CZK 37,500","CZK 12,500",747210,2+kk,12/23/2022,60 m²,Fully furnished,3,1.0,239.73,541.75,45.52,270.79,35.61,285.18,465.63,625.46,639.52,581.38,"Mečislavova, Prague - Nusle",50.0633237,14.4440058,,,,,,,,,,,,,,,,,,,,,,,,,,,,,,,,,,,,,,,,,,,,,,,,,,,,,,,,,,,,,,,,,,,,,,,,,,,,,,,,,,,,,,,,,,,,,,,,,,,,,,,,,,,,,,,,,,,,,,,,,,
"CZK 25,500","CZK 8,500",746620,2+kk,11/2/2022,48 m²,Fully furnished,3,1.0,188.32,492.36,64.31,169.76,16.44,202.35,307.51,551.4,544.96,488.43,"Řeznická, Prague - Nové Město",50.0781758,14.4220203,,,,,,,,,,,,,,,,,,,,,,,,,,,,,,,,,,,,,,,,,,,,,,,,,,,,,,,,,,,,,,,,,,,,,,,,,,,,,,,,,,,,,,,,,,,,,,,,,,,,,,,,,,,,,,,,,,,,,,,,,,
"CZK 18,000","CZK 4,900",747850,3+1,12/1/2022,67 m²,Partly,10,1.0,432.24,1429.54,112.12,1514.02,344.59,633.74,356.64,680.87,1240.45,133.59,"Černého, Prague - Střížkov",50.13195,14.48574,,,"CZK 36,000",Prefab concrete,Very good,G,,,,1.0,,,,,,,,,,,,1.0,,,,,,,,,,,,,,,,,,,,,,,,,,1.0,,,,,,,,,,,,,,,,,,,,,,,,,,,,,,,,,,,,,,,,,,,,,,,,,,,,,,,,,,,,,,,,,,,,,,,,,,
"CZK 55,000","CZK 8,000",746979,4+1,11/15/2022,135 m²,Partly,2,,400.01,660.41,116.64,757.12,189.52,720.7,472.58,198.74,575.52,181.44,"U Havlíčkových sadů, Prague - Vinohrady",50.07042,14.4433,,,"CZK 55,000",Brick,Very good,G,,,,1.0,,,,,,,,,,,,,,,,,,,,,,,,1.0,,,,,,,,,,,,,,,,,,,,,,,,,,,,,,,,,,,,,,,,,,,,,,,,,,,,,,,,,,,,,,,,,,,,,,,,,,,,,,,,,,,,,,,,
"CZK 11,453","CZK 3,817",745100,4+kk,11/21/2022,60 m²,Fully furnished,-1,,128.07,590.39,54.39,441.02,27.54,567.88,151.31,255.51,710.79,142.74,"Masarykovo nábřeží, Prague - Nové Město",50.0778219,14.4145055,,,,,,,,,,,,,,,,,,,,,,,,,,,,,,,,,,,,,,,,,,,,,,,,,,,,,,,,,,,,,,,,,,,,,,,,,,,,,,,,,,,,,,,,,,,,,,,,,,,,,,,,,,,,,,,,,,,,,,,,,,
"CZK 26,000","CZK 6,000",673720,3+kk,11/15/2022,76 m²,Fully furnished,3,1.0,327.29,1229.43,243.16,270.0,157.01,286.62,126.2,363.98,375.91,117.22,"Vratislavova, Prague - Vyšehrad",50.0661,14.41981,,,"CZK 48,000",Brick,Very good,D,,,,,,,,,,,,Personal,,,,,,,,,,,,,,,,,,,,,,,,,,,,,,,,,,,,,,,,,,,,,,,,,,,,,,,,,,,,,,,,,,,,,,,,,,,,,,,,,,,,,,,,,,,,,,,,,,,,,,,,
"CZK 18,500","CZK 3,500",747669,2+kk,10/26/2022,50 m²,Fully furnished,1,,126.86,927.75,528.62,1209.72,132.49,569.33,339.56,480.48,640.96,436.23,Prague - Záběhlice,50.05248,14.49585,,,"CZK 37,000",Brick,Very good,B,,,,,,,,,,,,,,,,,,,,,,,,,,,,,,,,,,,,,,,,,,,,,,,,,,,,,,,,,,,,,,,,,,,,,,,,,,,,,,,,,,,,,,,,,,,,,,,,,,,,,,,,,,,,,,,,,,,,
"CZK 26,000","CZK 5,000",657825,3+kk,12/1/2022,75 m²,Fully furnished,4,1.0,196.64,404.82,171.62,356.58,162.27,311.06,385.38,761.82,198.54,312.52,"Poupětova, Prague - Holešovice",50.10655,14.44765,,,"CZK 26,000",Brick,New-build,C,,,1.0,1.0,1.0,,1.0,,,,,Personal,Distance,,,1.0,,,,,,,,,,,,,,,,,,,,,,,,,,,,,,,,,,,,,,,,,,,,,,,,,,,,,,,,,,,,,,,,,,,,,,,,,,,,,,,,,,,,,,,,,,,,,,,,,,,,
"CZK 18,000","CZK 4,000",746967,2+kk,10/21/2022,56 m²,Unfurnished,4,,189.88,754.26,493.13,493.85,115.89,251.95,296.59,578.41,664.4,172.09,"Počátecká, Prague - Michle",50.04359,14.45589,,,"CZK 25,000",Brick,Very good,G,,,,,,,,,,,,,,,,,,,1.0,,,,,,,,,,,1.0,,,,,,,,,,,,,1.0,,,,,,,,,,,,,,,,,,,,,,,,,,,,,,,,,,,,,,,,,,,,,,,,,,,,,,,,,,,,,,,,,,,,,,,,,
"CZK 26,900","CZK 6,700",747834,3+kk,10/26/2022,78 m²,Partly,1,1.0,267.73,726.33,171.87,513.12,269.34,1128.42,822.15,421.92,733.09,445.26,"Na Farkáně Ⅱ, Prague - Radlice",50.05989,14.38326,,,"CZK 30,000",Brick,New-build,A,,,1.0,,1.0,,,,,,,Personal,,,,,,,,,,,,,,,,,1.0,,1.0,,,,,,,,,,,,,,,,,,,,,,,,,,,,,,,,,,,,,,,,,,,,,,,,,,,,,,,,,,,,,,,,,,,,,,,,,,,,,,,,,,,,,
"CZK 15,000","CZK 1,500",747620,1 bedroom,11/1/2022,47 m²,Unfurnished,2,,142.69,833.14,369.92,496.18,331.67,388.96,232.07,472.46,468.74,477.07,"Slávy Horníka, Prague - Košíře",50.06828,14.36827,,,"CZK 16,500",Brick,Very good,G,,,,,,,,,,,,,Electric boiler,,,,,,,,,,,,,,,,,,,,,,,,,,,,,,,,,,,,,,,,,,,,,,,,,,,,,,,,,,,,,,,,,,,,,,,,,,,,,,,,,,,,,,,,,,,,,,,,,,,,,,,
"CZK 22,000","CZK 4,000",744764,2+kk,11/4/2022,51 m²,Fully furnished,2,1.0,419.22,1300.74,1308.62,1345.5,1021.54,1398.09,651.81,482.16,1045.55,376.02,"Naskové, Prague - Košíře",50.06164,14.36178,,,"CZK 28,000",Low-energy,New-build,B,,,1.0,1.0,,Up to 10 years,,,,,,Personal,Distance,,,,,,,,,,,,,,,,,,,,,,,,,,,,1.0,,,1.0,,,,,,,,,,,,,,,,,,,,,,,,,,,,,,,,,,,,,,,,,,,,,,,,,,,,,,,,,,,,,,,,,,,,,,,,
"CZK 13,000","CZK 2,500",747827,Studio,11/1/2022,33 m²,Partly,8,1.0,242.34,1352.77,303.49,1027.31,364.56,863.04,303.66,1008.3,1292.55,839.42,"Čerpadlová, Prague - Vysočany",50.10109,14.5057,,,"CZK 15,500",Brick,New-build,B,,,1.0,,,,,,,,,,,,,,,,,,,,,,,,,,,,,,,,,,,,,,1.0,,,,,,,,,,,,,,,,,,,,,,,,,,,,,,,,,,,,,,,,,,,,,,,,,,,,,,,,,,,,,,,,,,,,,,,,,,,
"CZK 17,250","CZK 5,750",744960,3+1,11/22/2022,90 m²,Fully furnished,5,1.0,82.8,397.93,96.94,404.98,135.48,353.78,131.46,217.55,654.74,661.34,"Blanická, Prague - Vinohrady",50.0746503,14.439294,,,,,,,,,,,,,,,,,,,,,,,,,,,,,,,,,,,,,,,,,,,,,,,,,,,,,,,,,,,,,,,,,,,,,,,,,,,,,,,,,,,,,,,,,,,,,,,,,,,,,,,,,,,,,,,,,,,,,,,,,,
"CZK 15,900","CZK 4,000",746946,2+kk,11/1/2022,40 m²,Fully furnished,2,,365.21,758.94,194.77,606.48,281.27,667.93,340.68,1510.52,492.71,79.12,"Tasovská, Prague - Zličín",50.0585,14.29021,,,"CZK 20,000",Prefab concrete,Very good,G,,,,1.0,,,,,,,,,,,,,,,,,,,,,,,1.0,,,,,,,,,,,,,,,,,,,,,,,,,,,,,,,,,,,,,,,,,,,,,,,,,,,,,,,,,,,,,,,,,,,,,,,,,,,,,,,,,,,,,,,,,
"CZK 55,399","CZK 18,466",717682,2+kk,10/29/2022,69 m²,Fully furnished,6,1.0,104.56,349.59,143.75,145.93,108.83,150.53,431.56,393.96,289.53,329.01,"Na Maninách, Prague - Holešovice",50.1025661,14.4522431,1.0,1.0,,,,,,,,,,,,,,,,,,,,,,,,,,,,,,,,,,,,,,,,,,,,,,,,,,,,,,,,,,,,,,,,,,,,,,,,,,,,,,,,,,,,,,,,,,,,,,,,,,,,,,,,,,,,,,,,,,,,,,,,
"CZK 31,875","CZK 10,625",746367,2 bedroom,11/30/2022,57 m²,Fully furnished,7,1.0,7.74,76.74,105.28,213.89,45.41,117.47,178.45,327.18,381.26,239.99,"Dělnická, Prague - Holešovice",50.1031132,14.4472134,1.0,1.0,,,,,,,,,,,,,,,,,,,,,,,,,,,,,,,,,,,,,,,,,,,,,,,,,,,,,,,,,,,,,,,,,,,,,,,,,,,,,,,,,,,,,,,,,,,,,,,,,,,,,,,,,,,,,,,,,,,,,,,,
"CZK 51,656","CZK 17,219",728895,2 bedroom,11/30/2022,60 m²,Fully furnished,4,1.0,110.1,392.87,177.02,129.22,79.72,168.29,299.92,497.22,273.67,349.66,"Dlážděná, Prague - Nové Město",50.0865843,14.4323212,,,,,,,,,,,,,,,,,,,,,,,,,,,,,,,,,,,,,,,,,,,,,,,,,,,,,,,,,,,,,,,,,,,,,,,,,,,,,,,,,,,,,,,,,,,,,,,,,,,,,,,,,,,,,,,,,,,,,,,,,,
"CZK 20,800","CZK 6,000",396130,2 bedroom,11/1/2022,71 m²,Fully furnished,2,,337.46,434.02,172.22,308.47,45.11,342.61,325.63,359.28,383.78,326.12,"Letohradská, Prague - Holešovice",50.0982538,14.4264717,,,"CZK 26,800",Brick,,,,,,1.0,,,,,,,,Personal,,,,,,,,,,,,,,,,,,,,,,,,,,,,,,,,,1.0,,,,,,,,,,,,,,,,,,,,,,,,,,,,,,,,,,,,,,,,,,,,,,,,,,,,,,,,,,,,,,,,,,,,,,,
"CZK 22,000","CZK 4,000",710615,2 bedroom,10/31/2022,55 m²,Unfurnished,10,1.0,336.84,925.21,402.73,355.13,146.33,290.52,475.35,697.33,1162.31,381.65,"U Krčské vodárny, Prague - Krč",50.04232,14.45218,,,"CZK 10,000",Brick,Good,G,,,,,,,,,,,,Personal,,,,,,1.0,,,,,,,,,,,,,,,,,,,,,,,,,,,,,,,,,,,,,,,,,,,,,,,,,,,,,,,,,,,,,,,,,,,,,,,,,,,,,,,,,,,,,,,,,,,,,,,,,,
"CZK 18,000","CZK 1,000",697622,2+kk,10/21/2022,42 m²,Partly,1,,292.69,656.94,498.74,327.69,154.18,1254.37,385.86,685.76,207.05,339.6,"Pod Stárkou, Prague - Michle",50.0576031,14.4536973,1.0,,"CZK 19,000",Low-energy,New-build,B,,,,1.0,,,,,Luxurious,,,Personal,Central,,,,,,,,,,,,,,,,,,,,,,,,,,,,,,,,,1.0,1.0,,,,,,,,,,,,,,,,,,,,,,,,,,,,,,,,,,,,,,,,,,,,,,,,,,,,,,,,,,,,,,,,,,,,,
"CZK 22,800","CZK 4,000",627606,2+kk,11/1/2022,55 m²,Fully furnished,5,1.0,358.79,487.02,94.8,325.84,122.21,275.37,395.13,536.39,691.62,421.42,"Kubelíkova, Prague - Žižkov",50.082549,14.45155,,,"CZK 26,000",Brick,Very good,B,,,,,,,,,Standard,,,Personal,Gas boiler,,,,,,,,,,,,,,,,,,,,,,,,,,,,,,,,,,,,,,,,,,,,,,,,,,,,,,,,,,,,,,,,,,,,,,,,,,,,,,,,,,,,,,,,,,,,,,,,,,,,,,,
"CZK 22,800","CZK 3,600",614902,2+kk,11/1/2022,56 m²,Fully furnished,5,1.0,159.44,629.52,80.03,406.17,33.78,404.51,219.12,350.66,680.83,382.42,"Mexická, Prague - Vršovice",50.071939,14.457635,,,"CZK 40,000",Brick,Very good,C,,,,,,Up to 10 years,,,Luxurious,,,Personal,Gas boiler,,Complete,,,,,,,,,,,,,,,,,,,,,,,,,,,,,,,,,,,,,,,,,,,,,,,,,,,,,,,,,,,,,,,,,,,,,,,,,,,,,,,,,,,,,,,,,,,,,,,,,,,,,
"CZK 11,500","CZK 4,500",266484,2+kk,11/1/2022,41 m²,Partly,1,,123.46,351.96,108.8,2721.35,899.67,419.41,2020.53,509.12,907.12,369.75,Prague - Ďáblice,50.1453207836,14.4867771564,,,"CZK 23,000",Brick,,C,,,,1.0,,,,,,,,Personal,,,,,,,,,,,,,,,,,,,,,,,,,,,,,,,,,,,,,,,,,,,,,,,,,,,,,,,,,,,,,,,,,,,,,,,,,,,,,,,,,,,,,,,,,,,,,,,,,,,,,,,,
"CZK 17,900","CZK 3,599",377112,2+kk,11/1/2022,53 m²,Partly,3,1.0,440.63,1949.27,114.9,1623.82,1238.3,726.46,1038.23,1358.57,1062.09,87.08,"Pod Harfou, Prague - Vysočany",50.1037352,14.5093144,1.0,,"CZK 35,800",Prefab concrete,Very good,,,,,,1.0,10 to 30 years,,,Standard,,,Personal,Central,,,,,,,,,,,,,,,,,,1.0,,,,,,,,,,,,,,,,,,,,,,,,,,,,,,,,,,,,,,,,,,,,,,,,,,,,,,,,,,,,,,,,,,,,,,,,,,,,,,,,,,,,,
"CZK 42,075","CZK 14,025",746320,2 bedroom,11/18/2022,62 m²,Fully furnished,6,1.0,73.01,281.28,58.33,478.54,20.37,379.07,102.37,138.49,668.56,481.36,"Francouzská, Prague - Vinohrady",50.0739894,14.440101,,,,,,,,,,,,,,,,,,,,,,,,,,,,,,,,,,,,,,,,,,,,,,,,,,,,,,,,,,,,,,,,,,,,,,,,,,,,,,,,,,,,,,,,,,,,,,,,,,,,,,,,,,,,,,,,,,,,,,,,,,
"CZK 28,425","CZK 9,475",745541,Studio,10/31/2022,30 m²,Fully furnished,2,1.0,210.86,390.29,319.5,985.86,301.65,338.01,858.33,290.45,385.77,539.9,"Strakonická, Prague - Smíchov",50.0643299,14.4102127,,,,,,,,,,,,,,,,,,,,,,,,,,,,,,,,,,,,,,,,,,,,,,,,,,,,,,,,,,,,,,,,,,,,,,,,,,,,,,,,,,,,,,,,,,,,,,,,,,,,,,,,,,,,,,,,,,,,,,,,,,
"CZK 74,813","CZK 24,937",740299,4+1,12/17/2022,136 m²,Fully furnished,3,1.0,305.35,603.07,123.44,366.02,52.59,406.0,368.79,628.46,396.1,92.23,"Betlémská, Prague - Staré Město",50.0837893,14.416317,,,,,,,,,,,,,,,,,,,,,,,,,,,,,,,,,,,,,,,,,,,,,,,,,,,,,,,,,,,,,,,,,,,,,,,,,,,,,,,,,,,,,,,,,,,,,,,,,,,,,,,,,,,,,,,,,,,,,,,,,,
"CZK 18,500","CZK 3,553",746682,2+kk,10/28/2022,48 m²,Partly,2,1.0,235.85,1071.54,190.53,1017.72,185.17,827.42,562.06,602.75,795.6,129.13,"Nekvasilova, Prague - Karlín",50.09685,14.46718,,,"CZK 25,000",Prefab concrete,Very good,C,,,,,,,,,,,,Personal,Central,,Complete,,,,,,,,,,,,1.0,,,,1.0,,,,,,,,,,,,,,,,,,,,,,,,,,,,,,,,,,,,,,,,,,,,,,,,,,,,,,,,,,,,,,,,,,,,,,,,,,,,,,,,,,,,,
"CZK 17,000","CZK 6,000",747737,2 bedroom,10/26/2022,50 m²,Fully furnished,2,,274.06,285.42,255.71,512.45,226.93,219.82,720.62,334.35,640.78,406.79,"Ke Stírce, Prague - Kobylisy",50.12095,14.4608,,,"CZK 17,000",Brick,Very good,G,,,,1.0,,,,,,,,,,,,,,,,,,,,,,,,,,,,,,,,,,,,,,,,,,,,,,,,,,,,,,,,,,,,,,,,,,,,,,,,,,,,,,,,,,,,,,,,,,,,,,,,,,,,,,,,,,,,,,,,
"CZK 19,575","CZK 6,525",744346,2 bedroom,12/11/2022,70 m²,Fully furnished,6,1.0,73.01,281.28,58.33,478.54,20.37,379.07,102.37,138.49,668.56,481.36,"Francouzská, Prague - Vinohrady",50.0739894,14.440101,,,,,,,,,,,,,,,,,,,,,,,,,,,,,,,,,,,,,,,,,,,,,,,,,,,,,,,,,,,,,,,,,,,,,,,,,,,,,,,,,,,,,,,,,,,,,,,,,,,,,,,,,,,,,,,,,,,,,,,,,,
"CZK 12,000","CZK 4,290",238596,Studio,10/1/2021,48 m²,Partly,3,,71.91,417.5,39.58,408.74,74.15,415.76,219.8,514.71,222.31,329.65,"Pod Vítkovem, Prague - Žižkov",50.0872487,14.4510246,,,"CZK 16,000",Brick,,,,,,,,,,,,,,Personal,,,,,,,,,,,,,,,,,,,,,,,,,,,,,,,,,,,,,,,,,,,,,,,,,,,,,,,,,,,,,,,,,,,,,,,,,,,,,,,,,,,,,,,,,,,,,,,,,,,,,,,,
"CZK 18,375","CZK 6,125",745155,Studio,12/1/2022,32 m²,Fully furnished,3,1.0,139.49,792.63,156.92,306.05,50.15,84.99,429.59,902.4,481.21,801.27,"Šimáčkova, Prague - Holešovice",50.1030733,14.4335679,,,,,,,,,,,,,,,,,,,,,,,,,,,,,,,,,,,,,,,,,,,,,,,,,,,,,,,,,,,,,,,,,,,,,,,,,,,,,,,,,,,,,,,,,,,,,,,,,,,,,,,,,,,,,,,,,,,,,,,,,,
"CZK 13,900","CZK 3,900",595683,2+kk,11/1/2022,48 m²,Partly,2,,146.46,1623.37,782.64,2757.7,1791.96,2417.39,1395.19,2299.17,361.52,505.79,"Zbraslavská, Prague - Malá Chuchle",50.023614,14.393964,,,"CZK 24,800",Brick,Very good,,,,,,,,,,Standard,,,Personal,,,Interior,,,,,,,,,,,,,,,,,,,,,,,,,,,,,,,,,,,,,,,,,,,,,,,,,,,,,,,,,,,,,,,,,,,,,,,,,,,,,,,,,,,,,,,,,,,,,,,,,,,,,
"CZK 19,000","CZK 2,000",376531,2+kk,11/7/2022,46 m²,Partly,1,,58.09,773.0,64.17,514.7,129.9,77.17,490.51,681.56,411.08,314.58,Prague - Strašnice,50.0713399,14.4867799,,,"CZK 20,000",Brick,Very good,C,,,,,,,,,,,,Personal,Other,,Interior,,,,,,,,,,,,,,,,,,,,,,,,,,,,,,,,,,,,,,,,,,,,,,,,,,,,,,,,,,,,,,,,,,,,,,,,,,,,,,,,,,,,,,,,,,,,,,,,,,,,,
"CZK 14,000","CZK 4,000",746345,2 bedroom,10/18/2022,42 m²,Partly,1,,148.47,1621.35,780.62,2759.71,1793.98,2419.41,1393.18,2301.18,363.53,507.8,Prague - Malá Chuchle,50.02361,14.39405,,,"CZK 28,000",Brick,Good,C,,,,1.0,,,,,,,,,,,,,,,,,,,,,,,,,,,,,,,,,,,,,,,,,,,,,,,,,,,,,,,,,,,,,,,,,,,,,,,,,,,,,,,,,,,,,,,,,,,,,,,,,,,,,,,,,,,,,,,,
"CZK 19,990","CZK 3,101",747738,2+kk,10/27/2022,48 m²,Unfurnished,3,1.0,15.44,301.54,372.97,1389.85,333.26,1224.79,673.39,899.59,942.83,304.0,"náměstí Olgy Scheinpflugové, Prague - Hlubočepy",50.02973333333,14.36168555555,1.0,,"CZK 23,091",Other,New-build,G,,,1.0,,,,,,,,,Personal,,,,,"CZK 23,091",,,,,,,,,,,,,,,,,,,,,,,,,,,,,,,,,,,,,,,,,,,,,,,,,,,,,,,,,,,,,,,,,,,,,,,,,,,,,,,,,,,,,,,,,,,,,,,,,,,
"CZK 22,000","CZK 6,000",747118,2+kk,11/1/2022,63 m²,Fully furnished,2,1.0,243.64,1891.49,1383.28,1884.15,1248.1,1341.77,585.45,1539.34,1461.95,154.44,"U Zátiší, Prague - Hodkovičky",50.02104,14.41368,,,"CZK 44,000",Brick,New-build,B,,,1.0,,1.0,,,,,,,,,,,,,,,,,,,,,,,1.0,,1.0,,,,,,,,,,,,,,,,,,,,,,,,,,,,,,,,,,,,,,,,,,,,,,,,,,,,,,,,,,,,,,,,,,,,,,,,,,,,,,,,,,,,,,
"CZK 8,500","CZK 3,500",747736,Small studio,10/26/2022,24 m²,Partly,2,,119.95,1363.85,423.43,1391.68,523.11,870.28,1006.13,1042.96,473.73,483.37,Prague - Záběhlice,50.0557,14.48176,,,"CZK 17,000",Brick,Good,G,,,,,,,,,,,,,,,,,,,,,,,,,,,,,,,,,,,,,,,,,,,,,,,,,,,,,,,,,,,,,,,,,,,,,,,,,,,,,,,,,,,,,,,,,,,,,,,,,,,,,,,,,,,,,,,,,,,,
"CZK 19,990","CZK 3,101",747735,2+kk,10/27/2022,48 m²,Unfurnished,4,1.0,15.44,301.54,372.97,1389.85,333.26,1224.79,673.39,899.59,942.83,304.0,"náměstí Olgy Scheinpflugové, Prague - Hlubočepy",50.02973333333,14.36168555555,1.0,,"CZK 23,091",Other,New-build,G,,,1.0,,,,,,,,,Personal,,,,,"CZK 23,091",,,,,,,,,,,,,,,,,,,,,,,,,,,,,,,,,,,,,,,,,,,,,,,,,,,,,,,,,,,,,,,,,,,,,,,,,,,,,,,,,,,,,,,,,,,,,,,,,,,
"CZK 21,500","CZK 6,000",692184,2+kk,12/1/2022,66 m²,Partly,6,1.0,367.44,1689.51,618.77,1671.06,1083.25,628.15,1339.2,1360.76,889.22,111.8,"Sousedíkova, Prague - Vysočany",50.10526,14.51782,,,"CZK 30,000",Prefab concrete,New-build,B,,,,1.0,1.0,Up to 10 years,,,Standard,,,Personal,Central,,,,,,,,,,,,,,,,,,,,,,,1.0,,,,,,,,,,,,,,,,,,,,,,,,,,,,,,,,,,,,,,,,,,,,,,,,,,,,,,,,,,,,,,,,,,,,,,,,,,,,,,,,
"CZK 17,000","CZK 2,500",534708,Studio,11/1/2022,32 m²,Fully furnished,6,1.0,81.93,654.6,56.19,181.42,25.98,116.74,485.09,764.37,474.91,794.97,"Dukelských hrdinů, Prague - Holešovice",50.1024478,14.433039,,,"CZK 17,000",Brick,New-build,B,,,,,,Up to 10 years,,,Standard,,,Personal,Central,,,,,,,,,,,,,,,,,,,,,,,,,,,,,,,,,,,,,,,,,,,,,,,,,,,,,,,,,,,,,,,,,,,,,,,,,,,,,,,,,,,,,,,,,,,,,,,,,,,,,,,
"CZK 14,000","CZK 3,000",413673,2+kk,10/26/2022,43 m²,Partly,12,1.0,250.24,578.1,265.37,877.77,217.88,838.69,125.98,145.84,768.0,640.96,"Ohradní, Prague - Michle",50.0516353,14.4518558,,,"CZK 15,000",Prefab concrete,Good,B,,,,,,,,,Standard,,,Cooperative,Distance,,,,,,,,,,,,,,1.0,,,,,,,,,,,,,,,,,,,,,1.0,,,,,,,,,,,,,,,,,,,,,,,,,,,,,,,,,,,,,,,,,,,,,,,,,,,,,,,,,,,,,,,,,,,,
"CZK 27,000","CZK 6,000",727089,3+1,10/3/2022,79 m²,Fully furnished,,,243.61,1348.9,1081.18,1898.71,473.63,915.47,1131.54,1525.33,1429.94,663.83,Prague - Horní Počernice,50.10538,14.60316,,,"CZK 50,000",Brick,New-build,B,,,1.0,1.0,,,,,,,,Personal,,,,,,,,,,,,,,,,,,,,,,,,,,,,,,,,,,,1.0,,,,,,,,,,,,,,,,,,,,,,,,,,,,,,,,,,,,,,,,,,,,,,,,,,,,,,,,,,,,,,,,,,,,,
"CZK 24,900","CZK 2,700",558740,3+kk,11/15/2022,94 m²,Partly,1,,93.85,153.95,23.81,257.54,16.23,257.06,307.72,502.7,285.55,255.73,"Oblouková, Prague - Vršovice",50.0670925,14.4558324,,,"CZK 49,800",Brick,Good,G,,,,,,Over 50 years,,,Luxurious,,,Personal,Gas boiler,,Interior,,,,1.0,,,,,,,,,,,,,,,,,,,,1.0,,,,,,,,,,,,,,,,,,,,,,,,,,,,,,,,,,,,,,,,,,,,,,,,,,,,,,,,,,,,,,,,,,,,,,,,,,,,,
"CZK 19,000","CZK 1,900",713119,2+kk,1/2/2023,58 m²,Partly,1,,62.93,91.41,100.95,111.19,111.49,98.49,117.88,498.31,841.9,219.5,"Karlovo náměstí, Prague - Nové Město",50.0758076,14.419087,,,"CZK 19,000",Brick,New-build,C,,,,,,,,,,,,Personal,,,,,,,,,,,,,,,,,,,,,,,,,,,,,,,,,,,,,,,,,,,,,,,,,,,,,,,,,,,,,,,,,,,,,,,,,,,,,,,,,,,,,,,,,,,,,,,,,,,,,,,,
"CZK 10,000","CZK 3,000",747509,Small studio,10/25/2022,35 m²,Partly,1,,234.82,294.66,209.69,340.53,172.61,173.8,614.74,553.88,860.54,504.26,"Kubišova, Prague - Libeň",50.12001,14.45717,,,"CZK 10,000",Brick,Very good,D,,,,1.0,,,,,,,,,,,,,,,,,,,,,,,,,,1.0,,,,,,,,,,,,,,,,,,,,,,,,,,,,,,,,,,,,,,,,,,,,,,,,,,,,,,,,,,,,,,,,,,,,,,,,,,,,,,,,,,,,,,
"CZK 17,000","CZK 4,500",643141,2+kk,11/1/2022,53 m²,Fully furnished,2,1.0,116.52,585.21,501.72,1126.87,800.07,1251.52,624.1,2136.83,1414.19,98.83,"Lipovská, Prague - Zličín",50.060873,14.281032,1.0,,"CZK 20,000",Brick,Very good,C,,,,1.0,1.0,,,,,,,Personal,,,,,,,1.0,,,,,,,,,,,,,,,1.0,,,,,,,,,,,,,,,,,,,,,,,,,,,,,,,,,,,,,,,,,,,,,,,,,,,,,,,,,,,,,,,,,,,,,,,,,,,,,,,,,,
"CZK 16,700","CZK 3,700",747703,1 bedroom,11/1/2022,36 m²,Fully furnished,3,,354.21,737.34,455.75,355.35,376.01,575.19,1043.45,328.66,1016.27,67.61,"Buštěhradská, Prague - Střešovice",50.09684,14.38976,,,"CZK 10,000",Brick,Good,B,,,,1.0,,,,,,,,,,,,,,,,,,,,,,,,,,,,,,,,,,,,,,,,,,,,,,,,,,,,,,,,,,,,,,,,,,,,,,,,,,,,,,,,,,,,,,,,,,,,,,,,,,,,,,,,,,,,,,,,
"CZK 10,400","CZK 4,100",257311,1 bedroom,12/1/2022,38 m²,Partly,4,1.0,220.01,212.52,333.19,368.42,260.52,216.86,445.01,445.25,492.78,103.57,Prague - Žižkov,50.0911055,14.4905939,,,"CZK 10,000",Brick,Good,,,,,,,,,,,,,Personal,Distance,,Bathroom unit,,,,,,,,,,,,1.0,,,,,,,,,,,,,,,,,,,,,,,,,,,,,,,,,,,,,,,,,,,,,,,,,,,,,,,,,,,,,,,,,,,,,,,,,,,,,,,,,,,,,,,,,
"CZK 13,500","CZK 2,000",747702,Studio,10/26/2022,37 m²,Unfurnished,9,1.0,176.21,1286.64,237.36,961.18,298.44,796.92,237.53,942.17,1226.43,1052.29,"Čerpadlová, Prague - Vysočany",50.10186,14.50525,,,"CZK 27,000",Low-energy,New-build,B,,,1.0,1.0,,Up to 10 years,,,,,,,,,,,,,,,,,,,,,,,,,,,,,,,,,,,1.0,,,,,,,,,,,,,,,,,,,,,,,,,,,,,,,,,,,,,,,,,,,,,,,,,,,,,,,,,,,,,,,,,,,,,,,,,,,
"CZK 20,000","CZK 4,500",567160,2+kk,11/7/2022,57 m²,Partly,2,,779.67,437.78,690.36,1570.22,711.69,478.16,349.07,571.19,843.61,457.32,"Janského, Prague - Stodůlky",50.036940323264,14.343992765082,,,"CZK 20,000",Low-energy,New-build,A,,,1.0,1.0,,Up to 10 years,,,,,,Personal,Distance,,,,,,,,,,,,,,,,,,,,,,,,1.0,,,,,,,1.0,,,,,,,,,,,,,,,,,,,,,,,,,,,,,,,,,,,,,,,,,,,,,,,,,,,,,,,,,,,,,,,,,,,,,,,,
"CZK 11,000","CZK 4,000",747696,Studio,10/26/2022,32 m²,Fully furnished,4,1.0,192.19,617.2,141.94,1239.61,564.7,845.23,542.85,466.33,444.1,457.41,"Vřesová, Prague - Troja",50.12699,14.43325,,,"CZK 11,000",Prefab concrete,Good,D,,,,1.0,,,1.0,,,,,Personal,,,,,,,,,,,,,,,,,,,,,,,,,,,,,,,,,,,,,,,,,,,,,,,,,,,,,,,,,,,,,,,,,,,,,,,,,,,,,,,,,,,,,,,,,,,,,,,,,,,,,,,,
"CZK 29,175","CZK 9,725",746471,Studio,10/31/2022,30 m²,Fully furnished,2,1.0,210.86,390.29,319.5,985.86,301.65,338.01,858.33,290.45,385.77,539.9,"Strakonická, Prague - Smíchov",50.0643299,14.4102127,,,,,,,,,,,,,,,,,,,,,,,,,,,,,,,,,,,,,,,,,,,,,,,,,,,,,,,,,,,,,,,,,,,,,,,,,,,,,,,,,,,,,,,,,,,,,,,,,,,,,,,,,,,,,,,,,,,,,,,,,,
"CZK 18,000","CZK 2,600",588489,2+kk,12/30/2019,55 m²,Partly,5,,327.54,549.05,295.45,867.81,869.8,493.71,769.27,637.97,889.46,646.82,"Toufarova, Prague - Stodůlky",50.042942,14.312294,,,"CZK 36,000",Brick,New-build,B,,,,,1.0,Up to 10 years,1.0,,Luxurious,,,Personal,Distance,,,,,,,,,,,,,,,,1.0,,,,,,,,,,,,,,,,,,,,,,,,,,,,,,,,,,,,,,,,,,,,,,,,,,,,,,,,,,,,,,,,,,,,,,,,,,,,,,,,,,,,,,,
"CZK 18,000","CZK 8,000",747681,2 bedroom,1/1/2023,57 m²,Fully furnished,2,1.0,142.35,408.79,75.61,628.83,22.95,380.9,309.79,125.12,873.11,230.21,Prague - Žižkov,50.09172,14.49689,,,"CZK 20,000",Brick,Very good,D,,,,,,,,,,,,,,,,,,,,,,,,,,,,,,,,,,,,,,,1.0,,,,,,,,,,,,,,,,,,,,,,,,,,,,,,,,,,,,,,,,,,,,,,,,,,,,,,,,,,,,,,,,,,,,,,,,,,,,,
"CZK 14,000","CZK 3,000",747679,2+kk,10/26/2022,46 m²,Fully furnished,1,1.0,218.34,1036.89,914.34,1007.46,308.6,975.42,893.5,1162.06,446.64,257.64,"K Velké ohradě, Prague - Stodůlky",50.03792,14.32607,,,"CZK 14,000",Prefab concrete,Good,C,,,,,1.0,,,,,,,,,,,,,,,,,,,,,,,,,,,,,,,,,,,,,,,,,,,,,,,,,,,,,,,,,,,,,,,,,,,,,,,,,,,,,,,,,,,,,,,,,,,,,,,,,,,,,,,,,,,,,,,
"CZK 14,000","CZK 2,300",745250,Studio,10/27/2022,40 m²,Partly,1,,378.93,951.45,269.95,786.53,428.13,920.27,279.63,122.79,839.47,361.04,"Zdařilá, Prague - Nusle",50.05516,14.44648,,,"CZK 20,000",Brick,Very good,G,,,,,,,,,,,,Personal,,,,,,,,,,,,,,,,,,,,,,,,,,,,,,,,,,,,,,,,,,,,,,,,,,,,,,,,,,,,,,,,,,,,,,,,,,,,,,,,,,,,,,,,,,,,,,,,,,,,,,,,
"CZK 23,000","CZK 3,500",593484,2 bedroom,12/26/2022,55 m²,Fully furnished,1,,136.89,329.15,41.89,105.8,60.17,104.14,190.75,165.34,409.76,236.87,"Žitomírská, Prague - Vršovice",50.069746,14.456748,,,"CZK 23,000",Brick,Very good,E,,,,,,,,,,,,Personal,Gas boiler,,Interior,,,1.0,,,,,,,,,,,,,,,,,,,,,,,,,,,,,,,,,,,,,,,,,,,,,,,,,,,,,,,,,,,,,,,,,,,,,,,,,,,,,,,,,,,,,,,,,,,,,,,,,,
"CZK 36,675","CZK 12,225",742243,2+kk,11/25/2022,48 m²,Fully furnished,2,1.0,170.48,421.6,257.32,426.75,52.86,339.7,54.65,63.39,473.33,754.41,"Balbínova, Prague - Vinohrady",50.0795659,14.4357789,,,,,,,,,,,,,,,,,,,,,,,,,,,,,,,,,,,,,,,,,,,,,,,,,,,,,,,,,,,,,,,,,,,,,,,,,,,,,,,,,,,,,,,,,,,,,,,,,,,,,,,,,,,,,,,,,,,,,,,,,,
"CZK 63,413","CZK 21,137",746226,3+kk,12/17/2022,62 m²,Fully furnished,3,1.0,2.22,191.43,20.53,48.07,1.19,48.35,128.16,305.9,208.92,259.31,"Dlouhá, Prague - Staré Město",50.0907943,14.427063,,,,,,,,,,,,,,,,,,,,,,,,,,,,,,,,,,,,,,,,,,,,,,,,,,,,,,,,,,,,,,,,,,,,,,,,,,,,,,,,,,,,,,,,,,,,,,,,,,,,,,,,,,,,,,,,,,,,,,,,,,
"CZK 33,750","CZK 11,250",746225,2+kk,12/17/2022,75 m²,Fully furnished,6,1.0,163.79,319.88,110.55,226.38,103.86,407.78,227.16,243.22,785.75,360.1,"Na Zbořenci, Prague - Nové Město",50.0769346,14.4169603,1.0,1.0,,,,,,,,,,,,,,,,,,,,,,,,,,,,,,,,,,,,,,,,,,,,,,,,,,,,,,,,,,,,,,,,,,,,,,,,,,,,,,,,,,,,,,,,,,,,,,,,,,,,,,,,,,,,,,,,,,,,,,,,
"CZK 22,500","CZK 7,500",744187,2 bedroom,12/5/2022,42 m²,Fully furnished,3,1.0,152.25,672.65,40.42,444.62,81.03,447.64,262.25,308.06,547.1,276.36,"Slovinská, Prague - Vršovice",50.0716124,14.4594622,,,,,,,,,,,,,,,,,,,,,,,,,,,,,,,,,,,,,,,,,,,,,,,,,,,,,,,,,,,,,,,,,,,,,,,,,,,,,,,,,,,,,,,,,,,,,,,,,,,,,,,,,,,,,,,,,,,,,,,,,,
"CZK 31,500","CZK 10,500",746228,2 bedroom,12/17/2022,75 m²,Fully furnished,3,1.0,286.21,293.35,195.84,193.77,92.11,378.02,243.35,1039.65,522.33,334.73,"Čechova, Prague - Bubeneč",50.1016621,14.4210737,,,,,,,,,,,,,,,,,,,,,,,,,,,,,,,,,,,,,,,,,,,,,,,,,,,,,,,,,,,,,,,,,,,,,,,,,,,,,,,,,,,,,,,,,,,,,,,,,,,,,,,,,,,,,,,,,,,,,,,,,,
"CZK 19,725","CZK 6,575",745390,2 bedroom,12/16/2022,90 m²,Fully furnished,6,1.0,73.01,281.28,58.33,478.54,20.37,379.07,102.37,138.49,668.56,481.36,"Francouzská, Prague - Vinohrady",50.0739894,14.440101,,,,,,,,,,,,,,,,,,,,,,,,,,,,,,,,,,,,,,,,,,,,,,,,,,,,,,,,,,,,,,,,,,,,,,,,,,,,,,,,,,,,,,,,,,,,,,,,,,,,,,,,,,,,,,,,,,,,,,,,,,
"CZK 39,971","CZK 13,324",744560,2 bedroom,12/11/2022,56 m²,Fully furnished,1,,323.47,356.02,19.06,334.55,43.47,635.94,360.96,349.33,865.49,201.5,"U Lužického semináře, Prague - Malá Strana",50.0877117,14.4091678,1.0,1.0,,,,,,,,,,,,,,,,,,,,,,,,,,,,,,,,,,,,,,,,,,,,,,,,,,,,,,,,,,,,,,,,,,,,,,,,,,,,,,,,,,,,,,,,,,,,,,,,,,,,,,,,,,,,,,,,,,,,,,,,
"CZK 32,400","CZK 10,800",746224,2 bedroom,12/17/2022,65 m²,Fully furnished,5,1.0,163.79,319.88,110.55,226.38,103.86,407.78,227.16,243.22,785.75,360.1,"Na Zbořenci, Prague - Nové Město",50.0769346,14.4169603,,,,,,,,,,,,,,,,,,,,,,,,,,,,,,,,,,,,,,,,,,,,,,,,,,,,,,,,,,,,,,,,,,,,,,,,,,,,,,,,,,,,,,,,,,,,,,,,,,,,,,,,,,,,,,,,,,,,,,,,,,
"CZK 13,500","CZK 1,500",667614,2+kk,12/18/2021,35 m²,Fully furnished,2,,131.39,1359.47,805.43,4256.52,473.87,790.03,1539.15,1204.79,1437.22,392.41,"K Vinoři, Prague - Kbely",50.13301,14.56208,,,"CZK 26,000",Wooden,New-build,B,,,1.0,1.0,,Up to 10 years,,,Luxurious,,,Personal,Other,,,,,,,,,,,,,,,,,,,,,,,,,,,,,,,,,,,,,,,,,,,,,,,,,,,,,,,,,,,,,,,,,,,,,,,,,,,,,,,,,,,,,,,,,,,,,,,,,,,,,,,
"CZK 36,375","CZK 12,125",747667,3+kk,12/25/2022,79 m²,Fully furnished,4,,325.99,599.06,10.69,489.3,51.0,359.95,315.04,78.83,255.47,309.72,"Polská, Prague - Vinohrady",50.0787721,14.4457646,,,,,,,,,,,,,,,,,,,,,,,,,,,,,,,,,,,,,,,,,,,,,,,,,,,,,,,,,,,,,,,,,,,,,,,,,,,,,,,,,,,,,,,,,,,,,,,,,,,,,,,,,,,,,,,,,,,,,,,,,,
"CZK 17,250","CZK 5,750",747666,3+kk,12/25/2022,90 m²,Fully furnished,2,1.0,82.8,397.93,96.94,404.98,135.48,353.78,131.46,217.55,654.74,661.34,"Blanická, Prague - Vinohrady",50.0746503,14.439294,,,,,,,,,,,,,,,,,,,,,,,,,,,,,,,,,,,,,,,,,,,,,,,,,,,,,,,,,,,,,,,,,,,,,,,,,,,,,,,,,,,,,,,,,,,,,,,,,,,,,,,,,,,,,,,,,,,,,,,,,,
"CZK 25,028","CZK 8,342",747209,1 bedroom,12/23/2022,34 m²,Fully furnished,5,,192.54,684.55,33.13,461.2,44.3,459.54,274.15,304.32,543.36,239.67,"Bulharská, Prague - Vršovice",50.0717467,14.4598954,,,,,,,,,,,,,,,,,,,,,,,,,,,,,,,,,,,,,,,,,,,,,,,,,,,,,,,,,,,,,,,,,,,,,,,,,,,,,,,,,,,,,,,,,,,,,,,,,,,,,,,,,,,,,,,,,,,,,,,,,,
"CZK 14,671","CZK 5,000",747663,2+kk,10/26/2022,46 m²,Partly,4,,169.75,608.43,266.38,601.09,149.24,120.99,147.73,186.15,1078.48,258.78,"Vavřenova, Prague - Braník",50.02565,14.42738,,,"CZK 30,000",Prefab concrete,Very good,G,,,,1.0,,,,,Standard,,,,Central,,Interior,,,,,,,,,,,,,,,1.0,1.0,,,,,,,,,,,,,,,,,,,,,,,,,,,,,,,,,,,,,,,,,,,,,,,,,,,,,,,,,,,,,,,,,,,,,,,,,,,,,,,,,,,,,
"CZK 41,250","CZK 13,750",747658,2 bedroom,11/11/2022,85 m²,Fully furnished,3,,191.57,753.62,69.97,330.93,13.61,374.53,239.9,389.11,372.07,326.14,"Štěpánská, Prague - Nové Město",50.0782592,14.4248942,,,,,,,,,,,,,,,,,,,,,,,,,,,,,,,,,,,,,,,,,,,,,,,,,,,,,,,,,,,,,,,,,,,,,,,,,,,,,,,,,,,,,,,,,,,,,,,,,,,,,,,,,,,,,,,,,,,,,,,,,,
"CZK 16,000","CZK 3,000",648557,2+kk,11/7/2022,42 m²,Fully furnished,6,1.0,318.96,916.37,242.06,393.37,182.86,256.73,238.53,192.17,492.25,361.76,"Jeseniova, Prague - Žižkov",50.089464,14.473889,,,"CZK 32,000",Brick,Good,G,,,,1.0,,,,,Standard,,,Personal,Gas boiler,,Complete,,,,,,,,,,,,,1.0,,,,,,,,,,,,,,,,,,,,,,,,,,,,,,,,,,,,,,,,,,,,,,,,,,,,,,,,,,,,,,,,,,,,,,,,,,,,,,,,,,,,,,,,
"CZK 22,883","CZK 7,627",747622,3+1,12/12/2022,60 m²,Fully furnished,6,1.0,357.0,1401.6,447.09,965.23,283.45,828.36,114.52,766.81,878.88,400.35,"U Sluncové, Prague - Karlín",50.0941632,14.4640802,,,,,,,,,,,,,,,,,,,,,,,,,,,,,,,,,,,,,,,,,,,,,,,,,,,,,,,,,,,,,,,,,,,,,,,,,,,,,,,,,,,,,,,,,,,,,,,,,,,,,,,,,,,,,,,,,,,,,,,,,,
"CZK 14,000","CZK 3,000",741126,Small studio,11/1/2022,15 m²,Partly,6,1.0,60.71,364.54,33.42,355.97,57.7,358.94,192.19,461.75,194.69,381.0,Prague - Žižkov,50.087,14.45162,,,"CZK 17,000",Brick,Very good,G,,,,,,,,,,,,Personal,,,,,,,,,,,,,,,,,,,,,,,,,,,,,,,,,,,,,,,,,,,,,,,,,,,,,,,,,,,,,,,,,,,,,,,,,,,,,,,,,,,,,,,,,,,,,,,,,,,,,,,,
"CZK 14,000","CZK 4,000",577138,Studio,11/1/2022,36 m²,Fully furnished,3,1.0,161.07,336.22,407.65,1176.56,269.98,1011.5,692.03,732.94,973.64,351.66,Prague - Hlubočepy,50.0314873,14.3630764,,,"CZK 36,000",Brick,New-build,,,,1.0,,,Up to 10 years,,,Standard,,,Personal,Distance,,Complete,,,,,,,,,,,,,1.0,,,,,,,,,,,,,,,,,,,,,,,,,,,,,,,,,,,,,,,,,,,,,,,,,,,,,,,,,,,,,,,,,,,,,,,,,,,,,,,,,,,,,,,,
"CZK 13,000","CZK 3,000",747392,Small studio,10/24/2022,28 m²,Fully furnished,,1.0,135.59,836.0,96.57,471.97,124.11,405.08,470.83,221.69,227.25,261.32,"Biskupcova, Prague - Žižkov",50.09153,14.48104,,,"CZK 26,000",Brick,Very good,G,,,,,,,,,,,,,,,,,,,,,,,,,,,,,,,,,,,,,,,,,,,,,,,,,,,,,,,,,,,,,,,,,,,,,,,,,,,,,,,,,,,,,,,,,,,,,,,,,,,,,,,,,,,,,,,,,,,,
"CZK 9,000","CZK 5,000",740394,Small studio,10/1/2022,25 m²,Partly,3,,422.68,799.39,296.43,615.61,482.52,539.81,509.78,623.31,378.97,435.56,Prague - Košíře,50.06671,14.369,,,"CZK 14,000",Brick,Very good,D,,,,,,,,,,,,,,,,,,,,,,,,,,,,,,,,,,,,,,,,,,,,,,,,,,,,,,,,,,,,,,,,,,,,,,,,,,,,,,,,,,,,,,,,,,,,,,,,,,,,,,,,,,,,,,,,,,,,
"CZK 18,900","CZK 4,500",671617,2+kk,12/1/2022,58 m²,Fully furnished,2,1.0,350.89,606.72,133.43,393.65,125.81,381.24,320.87,364.42,701.62,106.61,"Baranova, Prague - Žižkov",50.08027,14.45722,,,"CZK 18,900",Brick,Good,G,,,,,,,,,Standard,,,Personal,Gas boiler,,Interior,,,,,,,,,,,,,,,,,,,,,,,,,,,,,,,,,,1.0,,,,,,,,,,,,,,,,,,,,,,,,,,,,,,,,,,,,,,,,,,,,,,,,,,,,,,,,,,,,,,,,,,,
"CZK 19,000","CZK 4,773",747612,3+kk,12/1/2022,54 m²,Partly,1,1.0,261.02,802.86,110.04,790.14,408.52,814.81,893.56,420.93,367.44,368.33,"Vladycká, Prague - Hostivař",50.05405,14.52571,,,"CZK 24,000",Brick,Very good,B,,,,,1.0,,,,,,,,,,,,,,,,,,,,,,,,,,,,,,,,,,,,1.0,,,,,,,,,,,,,,,,,,,,,,,,,,,,,,,,,,,,,,,,,,,,,,,,,,,,,,,,,,,,,,,,,,,,,,,,,,,
"CZK 15,000","CZK 3,800",683784,2+kk,11/1/2022,47 m²,Partly,6,1.0,85.49,224.39,182.67,195.12,271.75,250.68,560.34,460.0,850.68,429.12,"Novodvorská, Prague - Braník",50.02571,14.43493,,,"CZK 40,000",Prefab concrete,Good,G,,,,,,,,,,,,Cooperative,Central,,Interior,,,,,,,,,,,,,,,,,,,,,,,,,,,,,,,,,,,1.0,,,,,,,,,,,,,,,,,,,,,,,,,,,,,,,,,,,,,,,,,,,,,,,,,,,,,,,,,,,,,,,,,,
"CZK 18,000","CZK 4,000",743189,Studio,9/30/2022,27 m²,Fully furnished,3,1.0,640.2,2301.2,658.92,2161.71,735.95,2237.09,1279.01,3846.78,3469.94,28.65,Prague - Újezd u Průhonic,50.00866,14.54417,,,"CZK 35,000",Brick,New-build,B,,,1.0,1.0,,,1.0,,,,,,,,,,,,1.0,,,,,,,,,,,,,,,,,,,,,,,,,,,,,,,,,,,,,,,,,,,,,,,,,,,,,,,,,,,,,,,,,,,,,,,,,,,,,,,,,,,,,,,,,,,,,,,,,
"CZK 19,900","CZK 4,900",719098,2 bedroom,11/1/2022,43 m²,Fully furnished,2,,218.91,611.55,237.55,492.12,561.42,312.81,250.46,362.38,742.8,282.58,"Počernická, Prague - Strašnice",50.0810281,14.4926073,,,"CZK 25,000",Brick,New-build,G,,,,,,Up to 10 years,,,Luxurious,,,Personal,,,Complete,,,,,,,1.0,,,,,,,,,,,,,,,,,,,,,,,,,,,,,1.0,,,,,,,,,,,,,,,,,,,,,,,,,,,,,,,,,,,,,,,,,,,,,,,,,,,,,,,,,,,,,,,,,
"CZK 15,000","CZK 4,700",631431,Small studio,11/1/2022,30 m²,Fully furnished,12,1.0,294.24,485.74,441.44,547.57,164.34,424.59,465.63,309.88,395.87,57.83,"Bítovská, Prague - Michle",50.045213,14.456092,,,"CZK 20,000",Prefab concrete,Very good,B,,,,,,Up to 10 years,,,Luxurious,,,Personal,Distance,,Complete,,,,,,,,,,,,,,,,,,,,,,,,,,,,,,,,,,,,,,,,,,,,,,,,,,,,,,,,,,,,,,,,,,,,,,,,,,,,,,,,,,,,,,,,,,,,,,,,,,,,,
"CZK 20,000","CZK 4,330",747600,2+kk,10/25/2022,57 m²,Fully furnished,4,1.0,190.18,1446.71,484.26,1260.01,181.67,736.9,559.23,596.28,659.69,404.52,"V Zahradách, Prague - Libeň",50.11484,14.47501,,,"CZK 25,000",Brick,Very good,G,,,,,1.0,10 to 30 years,,,,,,,Electric boiler,,,,,,,,,,,,,,,,,,,,,,,,1.0,,,,,,,,,,,,,,,,,,,,,,,,,,,,,,,,,,,,,,,,,,,,,,,,,,,,,,,,,,,,,,,,,,,,,,,,,,,,,,,
"CZK 39,000","CZK 13,000",728062,2 bedroom,12/12/2022,92 m²,Fully furnished,7,1.0,73.01,281.28,58.33,478.54,20.37,379.07,102.37,138.49,668.56,481.36,"Francouzská, Prague - Vinohrady",50.0739894,14.440101,1.0,1.0,,,,,,,,,,,,,,,,,,,,,,,,,,,,,,,,,,,,,,,,,,,,,,,,,,,,,,,,,,,,,,,,,,,,,,,,,,,,,,,,,,,,,,,,,,,,,,,,,,,,,,,,,,,,,,,,,,,,,,,,
"CZK 38,250","CZK 12,750",733049,3+kk,11/11/2022,78 m²,Fully furnished,5,1.0,122.69,292.83,150.02,222.27,31.53,246.25,406.08,512.95,283.22,254.06,"Křižíkova a, Prague - Karlín",50.0928722,14.4500782,1.0,1.0,,,,,,,,,1.0,,,,,,,,,,,,,,,,,,,,,,,,,,,,,,,,,,,,,,,,,,,,,,,,,,,,,,,,,,,,,,,,,,,,,,,,,,,,,,,,,,,,,,,,,,,,,,,,,,,,,,,,,,,,,,,
"CZK 35,175","CZK 11,725",728156,2+kk,12/12/2022,50 m²,Fully furnished,3,1.0,75.01,890.63,40.68,622.44,47.2,145.83,371.43,242.4,512.42,352.71,"Kubelíkova, Prague - Žižkov",50.0815843,14.4461973,,,,,,,,,,,,,,,,,,,,,,,,,,,,,,,,,,,,,,,,,,,,,,,,,,,,,,,,,,,,,,,,,,,,,,,,,,,,,,,,,,,,,,,,,,,,,,,,,,,,,,,,,,,,,,,,,,,,,,,,,,
"CZK 20,625","CZK 6,875",731156,2+kk,11/14/2022,49 m²,Fully furnished,2,1.0,84.02,732.97,86.86,659.07,276.51,744.0,408.19,306.62,634.43,198.98,"Na Míčánkách, Prague - Vršovice",50.0713305,14.4638794,,,,,,,,,,,,,,,,,,,,,,,,,,,,,,,,,,,,,,,,,,,,,,,,,,,,,,,,,,,,,,,,,,,,,,,,,,,,,,,,,,,,,,,,,,,,,,,,,,,,,,,,,,,,,,,,,,,,,,,,,,
"CZK 20,000","CZK 6,500",747595,2 bedroom,10/25/2022,78 m²,Partly,2,1.0,177.47,525.82,45.38,165.3,480.57,235.14,216.81,132.09,1009.66,180.24,"Na Okraji, Prague - Veleslavín",50.08973,14.34305,,,"CZK 40,000",Other,Very good,G,,,,1.0,,,,,,,,,,,,,,,,,,,,,,,,,,1.0,,,,,,,,,,,,,,,,,,,,,,1.0,1.0,,,,,,,,,,,,,,,,,,,,,,,,,,,,,,,,,,,,,,,,,,,,,,,,,,,,,,,,,,,,,,,
"CZK 13,500","CZK 2,700",337645,Studio,11/1/2022,37 m²,Fully furnished,6,1.0,101.21,885.61,406.61,1205.48,272.17,307.81,299.96,820.36,115.79,300.55,"Na Slatince, Prague - Záběhlice",50.055986,14.4925778,,,"CZK 20,000",Brick,New-build,B,,,,,,10 to 30 years,,,Standard,,,Personal,Central,,,,,,,,1.0,,,,,,,,,,,,,,,,,,,,,,,,,,,,,,,,,,,,,,,,,,,,,,,,,,,,,,,,,,,,,,,,,,,,,,,,,,,,,,,,,,,,,,,,,,,,,,,
"CZK 24,000","CZK 6,000",451726,3+1,2/1/2023,71 m²,Fully furnished,1,,233.06,859.6,251.44,621.8,344.04,639.57,339.14,147.09,523.3,262.16,"Na Klášterním, Prague - Břevnov",50.0834475,14.3447623,,,"CZK 40,000",Prefab concrete,Very good,,,,,,,,,,Luxurious,,,Personal,Distance,,Complete,,,,,,,,,,,,,,,,,,,,,,,,,,,,,,,,,,,,,,,,,,,,,,,,,,,,,,,,,,,,,,,,,,,,,,,,,,,,,,,,,,,,,,,,,,,,,,,,,,,,,
"CZK 19,900","CZK 4,100",529061,2+kk,11/1/2022,68 m²,Unfurnished,2,1.0,114.59,243.5,104.77,1462.31,277.64,899.43,878.29,930.09,827.68,273.74,Prague - Krč,50.0199331,14.4536045,,,"CZK 24,000",Brick,New-build,A,,,,,,,,,,,,Personal,,,,,,,,,,,,,,,,,,,,,,,,,,,,,,,,,,,,,,,,,,,,,,,,,,,,,,,,,,,,,,,,,,,,,,,,,,,,,,,,,,,,,,,,,,,,,,,,,,,,,,,,
"CZK 38,000","CZK 5,650",743692,3+kk,11/1/2022,93 m²,Partly,6,1.0,292.74,597.07,273.19,266.0,167.75,409.2,830.45,1028.64,565.09,367.73,"Za karlínským přístavem, Prague - Karlín",50.09629,14.45175,,,"CZK 50,000",Low-energy,New-build,B,,,1.0,,1.0,,,,,,,Personal,Central,,,,,1.0,,,,,,,,,,,,,,,,,,,,,,,,,,,,1.0,,,,,,,,,,,,,,,,,,,,,,,,,,,,,,,,,,,,,,,,,,,,,,,,,,,,,,,,,,,,,,,,,,,,,,
"CZK 25,990","CZK 5,021",747594,3+1,10/28/2022,109 m²,Partly,1,,318.34,953.44,186.98,557.25,198.61,318.58,624.8,1156.76,230.71,752.89,"Bubenská, Prague - Holešovice",50.10398083333,14.43642138888,,,"CZK 31,011",Brick,Very good,G,,,,,,,,,,,,Personal,,,,,"CZK 31,011",1.0,,,,,,,,,,,,,,,,,,,,,,,,,,,,,,,,,,,,,,,,,,,,,,,,,,,,,,,,,,,,,,,,,,,,,,,,,,,,,,,,,,,,,,,,,,,,,,,,,,
"CZK 13,950","CZK 4,650",746583,1 bedroom,11/1/2022,80 m²,Fully furnished,5,1.0,113.8,339.96,97.8,888.62,130.7,708.04,240.3,257.58,514.15,165.05,"Voskovcova, Prague - Hlubočepy",50.0299891,14.3690326,,,,,,,,,,,,,,,,,,,,,,,,,,,,,,,,,,,,,,,,,,,,,,,,,,,,,,,,,,,,,,,,,,,,,,,,,,,,,,,,,,,,,,,,,,,,,,,,,,,,,,,,,,,,,,,,,,,,,,,,,,
"CZK 41,625","CZK 13,875",720848,4+kk,10/29/2022,112 m²,Fully furnished,4,1.0,168.35,737.87,30.76,217.13,7.9,216.51,106.1,336.15,114.49,565.37,"Ostrovní, Prague - Nové Město",50.0806286,14.4175374,1.0,1.0,,,,,,,,,,,,,,,,,,,,,,,,,,,,,,,,,,,,,,,,,,,,,,,,,,,,,,,,,,,,,,,,,,,,,,,,,,,,,,,,,,,,,,,,,,,,,,,,,,,,,,,,,,,,,,,,,,,,,,,,
"CZK 31,020","CZK 10,340",730431,3+1,11/1/2022,111 m²,Fully furnished,1,,208.61,131.46,936.81,2564.81,336.74,613.32,243.84,2102.93,1889.94,338.05,"K Zámku, Prague - Dolní Počernice",50.0890765,14.5799076,1.0,1.0,,,,,,,,,,,,,,,,,,,,,,,,,,,,,,,,,,,,,,,,,,,,,,,,,,,,,,,,,,,,,,,,,,,,,,,,,,,,,,,,,,,,,,,,,,,,,,,,,,,,,,,,,,,,,,,,,,,,,,,,
"CZK 12,000","CZK 4,000",729801,Studio,11/1/2022,27 m²,Partly,4,1.0,338.16,922.53,683.97,787.42,808.57,379.1,480.13,748.05,1280.49,389.82,Prague - Horní Měcholupy,50.04028,14.56921,,,"CZK 12,000",Brick,New-build,A,,,1.0,,,,,,,,1.0,Personal,Electric boiler,,,,,,,,,,,,,,,,,,,,,,,,,,1.0,,,,,,,,,,,,,,,,,,,,,,,,,,,,,,,,,,,,,,,,,,,,,,,,,,,,,,,,,,,,,,,,,,,,,,,,,,,,,
"CZK 21,375","CZK 7,125",734261,3+1,11/7/2022,35 m²,Fully furnished,-1,1.0,36.05,792.81,20.0,597.08,172.08,638.36,366.32,329.81,486.26,346.96,"Dvacátého osmého pluku, Prague - Vršovice",50.0707338,14.4627954,1.0,1.0,,,,,,,,,,,,,,,,,,,,,,,,,,,,,,,,,,,,,,,,,,,,,,,,,,,,,,,,,,,,,,,,,,,,,,,,,,,,,,,,,,,,,,,,,,,,,,,,,,,,,,,,,,,,,,,,,,,,,,,,
"CZK 10,300",CZK 0,262439,1 bedroom,11/1/2022,42 m²,Partly,4,,199.08,871.2,156.11,575.85,182.29,455.67,295.58,477.46,968.34,398.18,"Grafická, Prague - Smíchov",50.0730669,14.394531,,,"CZK 11,000",Brick,,F,,,,,,,,,,,,Personal,Electric boiler,,,,,,,,,,,,,,,,,,,,,,,,,,,,,,,,,,,,,,,,,,,,,,,,,,,,,,,,,,,,,,,,,,,,,,,,,,,,,,,,,,,,,,,,,,,,,,,,,,,,,,,
"CZK 19,000","CZK 2,100",744982,2+kk,11/1/2022,56 m²,Fully furnished,5,,137.07,126.64,8.03,93.34,22.38,67.09,242.0,396.84,354.99,434.46,Prague - Žižkov,50.08438,14.45175,,,"CZK 19,000",Brick,Very good,G,,,,,,,,,,,,,,,,,,,,,,,,,,,1.0,,,,,,,,,,,,,,,,,,,,,,,,,,,,,,,,,,,,,,,,,,,,,,,,,,,,,,,,,,,,,,,,,,,,,,,,,,,,,,,,,,,,,,,,,
"CZK 28,990","CZK 4,990",563044,4+kk,11/1/2022,110 m²,Partly,3,,80.21,748.78,465.02,3417.14,587.43,798.99,888.13,403.73,1101.16,184.69,"Rackova zahrada, Prague - Kbely",50.1389742,14.5515386,,,"CZK 50,000",Brick,,B,,,1.0,,,,,,,,,Personal,,,,,,,,,,,,,,,,,,,,,,,,,,,,,,,,,,,,,,,,,,1.0,,,,,,,,,,,,,,,,,,,,,,,,,,,,,,,,,,,,,,,,,,,,,,,,,,,,,,,,,,,,,,
"CZK 30,000","CZK 10,000",734260,2+kk,11/6/2022,41 m²,Fully furnished,5,,394.46,497.82,253.13,432.3,279.54,389.35,316.56,724.72,695.79,345.02,"Krchlebská, Prague - Krč",50.0471114,14.4429584,,,,,,,,,,,,,,,,,,,,,,,,,,,,,,,,,,,,,,,,,,,,,,,,,,,,,,,,,,,,,,,,,,,,,,,,,,,,,,,,,,,,,,,,,,,,,,,,,,,,,,,,,,,,,,,,,,,,,,,,,,
"CZK 48,645","CZK 16,215",732720,3+1,10/29/2022,55 m²,Fully furnished,2,,158.42,248.82,154.82,246.13,112.68,264.3,390.21,408.3,154.53,114.55,"Řásnovka, Prague - Staré Město",50.0918754,14.4250902,,,,,,,,,,,,,,,,,,,,,,,,,,,,,,,,,,,,,,,,,,,,,,,,,,,,,,,,,,,,,,,,,,,,,,,,,,,,,,,,,,,,,,,,,,,,,,,,,,,,,,,,,,,,,,,,,,,,,,,,,,
"CZK 20,000","CZK 4,000",747572,2 bedroom,10/25/2022,41 m²,Fully furnished,3,1.0,184.26,689.74,96.7,289.22,26.89,365.06,307.56,276.38,391.95,144.78,"Verdunská, Prague - Bubeneč",50.10277,14.40096,,,"CZK 20,000",Brick,Very good,G,,,,,,,,,,,,,,,,,,,,,,,,,,,1.0,,,1.0,,,,,,,,,,,,,,,,,,,,,,,,,,,,,,,,,,,,,,,,,,,,,,,,,,,,,,,,,,,,,,,,,,,,,,,,,,,,,,,,,,,,,,
"CZK 22,500","CZK 6,000",703700,2+kk,12/1/2022,57 m²,Partly,2,,179.64,657.51,195.05,670.2,72.18,145.32,351.24,1010.16,403.73,262.77,"Plynární, Prague - Holešovice",50.10811,14.44456,,,"CZK 20,000",Brick,Very good,C,,,,,,,,,,,,Personal,,,Complete,,,,1.0,,,,,,,,,,,,,,,,,,,,,,,,,,,,,,,,,,,,,,,,,,,,,,,,,,,,,,,,,,,,,,,,,,,,,,,,,,,,,,,,,,,,,,,,,,,,,,,,,
"CZK 24,581","CZK 8,194",744273,Studio,11/10/2022,32 m²,Fully furnished,1,,447.58,805.32,396.64,450.11,197.32,945.56,256.47,627.41,458.07,336.59,"Nad Kolčavkou A, Prague - Libeň",50.1080609,14.4828384,,,,,,,,,,,,,,,,,,,,,,,,,,,,,,,,,,,,,,,,,,,,,,,,,,,,,,,,,,,,,,,,,,,,,,,,,,,,,,,,,,,,,,,,,,,,,,,,,,,,,,,,,,,,,,,,,,,,,,,,,,
"CZK 16,500","CZK 1,500",641855,2+kk,12/1/2022,51 m²,Unfurnished,5,1.0,70.22,159.98,85.68,31.82,96.79,66.07,337.6,635.58,408.15,502.47,"Ovenecká, Prague - Holešovice",50.099605,14.424394,,,"CZK 33,000",Brick,Very good,D,,,,,,Up to 10 years,,,Standard,,,Personal,,,Complete,,,1.0,,,,,,,,,,,,,,,,,,,,,1.0,,,,,,,,,,,,,,,,,,,,,,,,,,,,,,,,,,,,,,,,,,,,,,,,,,,,,,,,,,,,,,,,,,,,,,,,,,,,,
"CZK 13,990","CZK 3,449",747565,Studio,10/28/2022,23 m²,Unfurnished,4,1.0,281.46,602.99,267.93,692.17,403.95,688.3,1195.3,523.48,1247.72,159.24,"Peroutkova, Prague - Jinonice",50.05857666666,14.37810388888,,,"CZK 17,439",Prefab concrete,Very good,D,,,,,,,,,,,,Personal,,,,,"CZK 17,439",,,,,,,,,,,,,,,,,,,,,,,,,,,,,,,,,,,,,,,,,,,,,,,,,,,,,,,,,,,,,,,,,,,,,,,,,,,,,,,,,,,,,,,,,,,,,,,,,,,
"CZK 20,000","CZK 3,500",747550,2+kk,10/25/2022,60 m²,Partly,8,1.0,242.34,1352.77,303.49,1027.31,364.56,863.04,303.66,1008.3,1292.55,839.42,"Čerpadlová, Prague - Vysočany",50.10109,14.5057,,,"CZK 23,000",Brick,New-build,B,,,1.0,,,,,,,,,,,,,,,,,,,,,,,,,,,,,,,,,,,,,,,,,,,,,,,,,,,,1.0,,,,,,,,,,,,,,,,,,,,,,,,,,,,,,,,,,,,,,,,,,,,,,,,,,,,,,,,,,,,,
"CZK 20,000","CZK 3,500",744830,2+kk,11/10/2022,50 m²,Unfurnished,3,1.0,209.56,1319.99,270.71,994.54,331.79,830.27,270.88,975.52,1259.78,1085.64,"Čerpadlová, Prague - Vysočany",50.10153,14.50496,,,"CZK 25,000",Brick,New-build,B,,,1.0,,1.0,,,,,,,Personal,,,,,,,,,,,,,,,,,,,,,,,,,,,,,1.0,,,,,,,,,,,,,,,,,,,,,,,,,,,,,,,,,,,,,,,,,,,,,,,,,,,,,,,,,,,,,,,,,,,,,,,,,,,
"CZK 23,000","CZK 4,850",746731,3+kk,10/20/2022,83 m²,Partly,2,1.0,249.49,1322.58,278.37,1330.93,830.67,1275.41,847.6,1350.8,993.37,25.05,"Václava Trojana, Prague - Uhříněves",50.03299,14.61196,,,"CZK 50,000",Brick,New-build,G,,,1.0,,1.0,,,,,1.0,,,,,,,,,,,,,,,,,,,,,,,,,,,,,,,,,,,,,,,,,,,,,,1.0,,,,,,,,,,,,,,,,,,,,,,,,,,,,,,,,,,,,,,,,,,,,,,,,,,,,,,,,,,,,
"CZK 13,000","CZK 3,800",233213,Studio,11/17/2022,41 m²,Fully furnished,12,1.0,106.86,565.99,55.53,214.3,106.18,543.2,527.27,681.33,608.44,125.82,"Vinohradská, Prague - Strašnice",50.0777866,14.4864844,,,"CZK 16,000",Brick,Very good,,,,,,,10 to 30 years,,,Standard,,,Personal,Distance,,,,,,,,,,,,,,,,,,,,,,,,,,,,,,,,,,,,,,,,,,,,,,,,,,,,,,,,,,,,,,,,,,,,,,,,,,,,,,,,,,,,,,,,,,,,,,,,,,,,,,,
"CZK 22,000","CZK 3,000",571485,2+kk,12/1/2022,53 m²,Fully furnished,1,1.0,531.55,1607.91,1167.97,1558.18,884.33,1116.63,717.08,637.7,418.19,132.51,"Na Císařce, Prague - Smíchov",50.0751643,14.3607314,,1.0,"CZK 22,000",Brick,New-build,C,,,1.0,,1.0,10 to 30 years,,,Standard,,,Personal,Central,,,,,,,,,,,,,,,,,,,,,,,,,,,,,,,,,,,,,,,,,,,,,,,,,,,,,,,,,,,,,,,,,,,,,,,,,,,,,,,,,,,,,,,,,,,,,,,,,,,,,,,
"CZK 16,000","CZK 3,795",747521,Studio,11/7/2022,34 m²,Fully furnished,1,1.0,150.49,1046.7,79.93,248.94,178.51,293.03,143.94,630.82,507.58,740.54,Prague - Holešovice,50.09981,14.43615,,,"CZK 32,000",Low-energy,New-build,G,,,1.0,,1.0,,1.0,,,,,Personal,,,,,,,,,,,,,,,1.0,,,,,,,,,,,,,,,,,,,,,,,,,,,,,,,,,,,,,,,,,,,,,,,,,,,,,,,,,,,,,,,,,,,,,,,,,,,,,,,,,,,,,,,,,
"CZK 18,000","CZK 2,000",747424,Studio,1/1/2023,44 m²,Unfurnished,6,1.0,90.57,499.7,90.96,526.63,147.09,92.51,336.48,285.14,527.98,377.58,"Kubelíkova, Prague - Žižkov",50.08148,14.44679,,,"CZK 36,000",Brick,New-build,C,,,,,,,,,,,,,,,,,,,,,,1.0,,,,,,,,,,,,,,,,,,,,,,,,,,,,,,,,,,,,,,,,,,,,,,,,,,,,,,,,,,,,,,,,,,,,,,,,,,,,,,,,,,,,,,,,,,,,,,
"CZK 16,000","CZK 4,500",747519,2+kk,11/1/2022,49 m²,Fully furnished,4,1.0,221.85,1019.03,171.68,296.26,80.2,154.07,341.19,294.83,395.14,403.78,"Viklefova, Prague - Žižkov",50.08998,14.47396,,,"CZK 40,000",Brick,Very good,F,,,,,,,,,Standard,,,,,,Complete,,,,,,,,,,,,1.0,,,1.0,,,,,,,,,,,,,,,,,,,,,,,,,,,,,,,,,,,,,,,,,,,,,,,,,,,,,,,,,,,,,,,,,,,,,,,,,,,,,,,,,,,,,,
"CZK 22,000","CZK 4,500",744757,2+kk,11/1/2022,57 m²,Partly,3,1.0,407.56,918.9,235.05,880.54,583.12,1005.18,377.41,2243.12,1252.43,147.8,Prague - Zličín,50.05815,14.28055,,,"CZK 44,000",Brick,Very good,C,,,,,1.0,,,,,,,,,,,,,,,,,,,,,,1.0,,,,,,,,,,,,,,,,,,,,,,,,,,,,,,,,,,,,,,,,,,,,,,,,,,,,,,,,,,,,,,,,,,,,,,,,,,,,,,,,,,,,,,,,,
"CZK 26,990","CZK 5,473",747543,4+kk,10/28/2022,78 m²,Partly,7,1.0,149.04,775.96,382.98,587.95,507.58,290.9,438.16,447.06,1116.64,374.15,"Hornoměcholupská, Prague - Horní Měcholupy",50.04167277777,14.56671333333,1.0,,"CZK 32,463",Brick,Very good,B,,,,1.0,,,,,,,,Personal,,,,,"CZK 32,463",,,,,,,,,,,,,,,,,,,,,,,,,,,,,,,,,,,,,,,,,,,,,,,,,,,,,,,,,,,,,,,,,,,,,,,,,,,,,,,,,,,,,,,,,,,,,,,,,,,
"CZK 19,800","CZK 6,600",744347,3+1,11/6/2022,90 m²,Fully furnished,5,1.0,82.8,397.93,96.94,404.98,135.48,353.78,131.46,217.55,654.74,661.34,"Blanická, Prague - Vinohrady",50.0746503,14.439294,,,,,,,,,,,,,,,,,,,,,,,,,,,,,,,,,,,,,,,,,,,,,,,,,,,,,,,,,,,,,,,,,,,,,,,,,,,,,,,,,,,,,,,,,,,,,,,,,,,,,,,,,,,,,,,,,,,,,,,,,,
"CZK 25,400","CZK 4,400",565913,3+kk,7/1/2019,91 m²,Partly,5,1.0,290.46,1247.59,1124.79,2529.49,92.33,396.92,721.61,1660.1,1534.23,172.0,"V Zeleném údolí, Prague - Kunratice",50.0214074,14.4662731,,,"CZK 35,000",Brick,Very good,C,,,1.0,1.0,1.0,10 to 30 years,,,Luxurious,,,Personal,Distance,,Complete,,,,,,,,,,,,,1.0,,,,,,,,,,,,,,,,,,,,,,,,,,,,,1.0,,,,,,,,,,,,,,,,,,,,,,,,,,,,,,,,,,,,,,,,,,,,,,,,,,,,,,,,,,,
"CZK 13,500",CZK 0,671564,1 bedroom,12/1/2022,30 m²,Partly,1,1.0,214.04,823.45,209.29,373.07,116.33,560.28,347.83,378.1,389.55,370.67,"Sevastopolská, Prague - Vršovice",50.07102,14.44844,,,"CZK 25,000",Brick,Very good,,,,,,,,,,,,,Personal,Central,,,,,,1.0,,,,,,,,,,,,,,,,,,,,,,,,,,,,,,,,,,,,,,,,,,,,,,,,,,,,,,,,,,,,,,,,,,,,,,,,,,,,,,,,,,,,,,,,,,,,,,,,,
"CZK 13,000","CZK 3,000",747518,1 bedroom,11/1/2022,32 m²,Partly,1,,106.83,167.58,100.82,149.13,332.3,169.39,354.9,278.4,113.8,186.69,"Klánovická, Prague - Hloubětín",50.10494,14.53695,,,"CZK 24,000",Brick,Very good,G,,,,,,,,,,,,,,,,,,,,,,,,,,,,,,1.0,,,,,,,,,1.0,,,,,,,,,,,,,,,,,,,,,,,,,,,,,,,,,,,,,,,,,,,,,,,,,,,,,,,,,,,,,,,,,,,,,,,,,,,,,
"CZK 33,000",CZK 0,603246,2 bedroom,11/1/2022,75 m²,Fully furnished,2,,261.28,644.86,113.3,267.35,86.99,225.25,317.31,208.42,545.62,316.27,"Sudoměřská, Prague - Žižkov",50.080602,14.458238,1.0,,"CZK 50,000",Brick,Very good,C,,,,,,,,,,,,Personal,,,Complete,,,,,,,,,,,,,,,,1.0,,,,,,,,,,,,,,,,,,,,,,,,,,,,,,,,,,,,,,,,,,,,,,,,,,,,,,,,,,,,,,,,,,,,,,,,,,,,,,,,,,,,,
"CZK 19,000","CZK 4,500",747508,2+kk,12/1/2022,47 m²,Partly,1,1.0,181.84,271.59,65.24,146.03,134.72,180.18,306.17,594.3,353.1,492.87,"Dobrovského, Prague - Holešovice",50.09897,14.42431,,,"CZK 19,000",Brick,Very good,G,,,,,,,,,,,,,,,,,,,,,,,,,,,,,,,,,,,,,,,,,,,,,,,,,,,,,,,,,,,,,,,,,,,,,,,,,,,,,,,,,,,,,,,,,,,,,,,,,,,,,,,,,,,,,,,,,,,,
"CZK 16,900","CZK 4,000",745152,2+kk,10/14/2022,49 m²,Partly,1,,229.9,947.02,205.09,713.91,247.68,447.39,154.37,412.65,1095.26,196.69,Prague - Modřany,50.0061,14.40679,,,"CZK 20,900",Other,New-build,B,,,1.0,1.0,,,,,,,,,,,,,,,,,,,,,,,,,,,,,,,,,,,,,,,,,,,,,,,,,,,,,,1.0,,,,,,,,,,,,,,,,,,,,,,,,,,,,,,,,,,,,,,,,,,,,,,,,,,,,,,,,,,
"CZK 17,900",CZK 0,485021,2+kk,10/24/2022,51 m²,Fully furnished,4,,62.74,418.14,146.96,177.29,65.09,282.95,372.54,441.17,296.73,259.29,Prague - Vršovice,50.0676629,14.4583602,,,"CZK 35,000",Brick,,,,,,,,,,,,,,Personal,,,,,,,,,,,,,,,,,,,,,,,,,,,,,,,,,,,,,,,,,,,,,,,,,,,,,,,,,,,,,,,,,,,,,,,,,,,,,,,,,,,,,,,,,,,,,,,,,,,,,,,,
"CZK 18,000","CZK 5,000",600849,2+kk,3/28/2020,40 m²,Fully furnished,2,,131.72,110.37,69.99,426.75,163.94,178.08,236.84,434.72,593.07,199.4,"U Santošky, Prague - Smíchov",50.067941,14.399612,,,"CZK 30,000",Brick,Very good,C,,,,,,,,,,,,Personal,Central,,,,,,,,,,,,,,,,,,,,,,,,,,,,,,,,,,,,,,,,,,,,,,1.0,,,,,,,,,,,,,,,,,,,,,,,,,,,,,,,,,,,,,,,,,,,,,,,,,,,,,,,,,
"CZK 14,000","CZK 3,300",746519,2+kk,11/1/2022,38 m²,Unfurnished,19,1.0,122.96,512.95,144.57,811.18,323.7,71.33,239.39,721.53,271.07,155.23,Prague - Záběhlice,50.05717,14.49623,,,"CZK 14,000",Prefab concrete,Very good,G,,,,,,,,,,,,,Central,,Complete,,,,,,,,,,,,,,,,,,,,,,1.0,,,,,,,,,,,,,,,,,,,,,,,,,,,,,,,,,,,,,,,,,,,,,,,,,,,,,,,,,,,,,,,,,,,,,,,,,,,,,,,
"CZK 26,000","CZK 6,500",747420,3+kk,11/7/2022,84 m²,Partly,1,1.0,183.21,556.24,1203.47,1115.6,614.02,652.83,944.37,1424.45,667.72,332.33,"Nepomuckých, Prague - Letňany",50.13726,14.5225,,,"CZK 45,000",Other,New-build,B,,,1.0,,1.0,,,,,,,,,,,,,,1.0,,,,,,,,,,,,,,,,,,,,,,,,,,,,,,,,,,,,,,,,,1.0,,,,,,,,,,,,,,,,,,,,,,,,,,,,,,,,,,,,,,,,,,,,,,,,,,,,,,,,
"CZK 17,000","CZK 1,000",666715,2+kk,11/14/2022,54 m²,Unfurnished,3,,125.95,893.98,452.03,589.04,72.54,292.2,633.38,1126.67,78.89,782.81,"U Výstaviště, Prague - Holešovice",50.10535,14.43385,,,"CZK 17,000",Brick,New-build,G,,,,,,,,,Standard,,1.0,Personal,,,Complete,,,,,,,,,,,,,,,,,,,,,,,,,,,,,,,,,,,,,,,,,,,,,,,,,,,,,,,,,,,,,,,,,,,,,,,,,,,,,,,,,,,,,,,,,,,,,,,,,,,,,
"CZK 33,000","CZK 12,000",746540,3+kk,10/25/2022,79 m²,Fully furnished,3,1.0,413.54,744.02,401.31,592.5,438.03,733.32,542.0,902.11,1.99,407.83,"Pod Klaudiánkou, Prague - Podolí",50.05435,14.42251,,,"CZK 70,000",Brick,New-build,G,,,1.0,1.0,1.0,,,,,,,,,,,,,,,,,,,,,,,,,,,,,,,,,,,,,,,,,,,,,,,,,,,,,,,,,,,,,,,,,,,,,,,,,,,,,,,,,,,,,,,,,,,,,,,,,,,,,,,,,,,,,,,
"CZK 24,000","CZK 6,000",747480,3+kk,11/1/2022,76 m²,Partly,1,,323.44,367.98,682.93,2731.09,716.09,1401.69,1980.9,2153.75,531.56,1017.7,"V Osikách, Prague - Dolní Měcholupy",50.05735,14.55412,,,"CZK 25,000",Brick,Very good,G,,,,,1.0,,,,,,,,,,,,,,,,,,,,,,,,,,,,,,,,,,,,,,,1.0,,,,,,,,,,,,,,,,,1.0,,,,,,,,,,,,,,,,,,,,,,,,,,,,,,,,,,,,,,,,,,,,,,,,,,,,,,,
"CZK 15,500",CZK 700,545651,1 bedroom,11/1/2022,52 m²,Partly,3,,370.7,1036.73,261.71,778.29,419.89,912.04,271.4,187.57,848.85,352.81,"Sdružení, Prague - Nusle",50.055708,14.444101,,,"CZK 15,500",Brick,,,,,,,,,,,,,,Personal,,,,,,,,,,,,,,,,1.0,,,,,,,,,,,,,,,,,,,,,,,,,,,,,,,,,,,,,,,,,,,,,,,,,,,,,,,,,,,,,,,,,,,,,,,,,,,,,,,,,,,,,,,,
"CZK 37,500",CZK 0,400077,3+1,1/1/2023,109 m²,Partly,2,1.0,217.76,598.71,265.89,684.2,336.87,315.43,399.12,752.22,653.7,484.73,"Talichova, Prague - Břevnov",50.0879235,14.3636788,,,"CZK 40,000",Brick,,C,,,,,,,,,,,,Personal,Central,,,,,,,,,,,,,,,,,,,,,,,,,,,,,,,,,,,,,,,,,,,,,,,,,1.0,1.0,,,,,,,,,,,,,,,,,,,,,,,,,,,,,,,,,,,,,,,,,,,,,,,,,,,,,
"CZK 35,000","CZK 8,200",665597,4+kk,12/1/2022,105 m²,Partly,2,1.0,396.01,549.44,157.22,388.26,59.79,212.95,448.07,522.4,570.4,483.84,"Kubelíkova, Prague - Žižkov",50.08216,14.45073,,,"CZK 50,000",Brick,Very good,G,,,,,,,,,,,,Personal,,,,,,,,,,,,,,,,,,,,,,,,,,,,,,,,1.0,,,,,,,,,,,,,,,,,,,,,,,,,,,,,,,,,,,,,,,,,,,,,,,,,,,,,,,,,,,,,,,,,,,,,,,,
"CZK 16,000","CZK 1,000",581561,Studio,11/1/2022,43 m²,Fully furnished,2,,234.41,357.34,159.96,2095.09,51.1,484.0,276.41,2488.18,416.64,280.22,"Slavětínská, Prague - Klánovice",50.09285,14.667203,,,"CZK 20,000",Brick,New-build,B,,,1.0,1.0,1.0,Up to 10 years,,,Luxurious,,,Personal,Distance,,,,,,,,,,,,,,,,,,,,,,,,,,,,,,,1.0,,,,,,,,,,,,,,,,,,,,1.0,,,,,,,,,,,,,,,,,,,,,,,,,,,,,,,,,,,,,,,,,,,,,,,,,,,,
"CZK 17,900","CZK 2,100",618247,Studio,12/1/2022,53 m²,,4,,56.03,578.98,16.31,165.15,39.19,436.69,90.53,341.23,335.05,263.0,"Moskevská, Prague - Vršovice",50.070905,14.451851,,,"CZK 35,800",Brick,New-build,G,,,,,,,,,,,,Personal,,,,,,,,,,,,,,,,,,,,,,,,,,,,,,,,,,,,,,,,,,,,,,,,,,,,,,,,,,,,,,,,,,,,,,,,,,,,,,,,,,,,,,,,,,,,,,,,,,,,,,,,
"CZK 20,059",CZK 550,747466,2 bedroom,10/25/2022,67 m²,Partly,2,,173.53,713.79,214.13,106.74,245.03,666.29,787.04,519.24,1192.61,201.59,Prague - Horní Počernice,50.1172,14.61911,,,"CZK 20,000",Brick,Good,C,,,,,,,,,,,,,,,,,,,,,,,,,,,,,,,,,,,,,,,,,,,,,,,,,,,,,,,,,,,,,,,,,,,,,,,,,,,,,,,,,,,,,,,,,,,,,,,,,,,,,,,,,,,,,,,,,,,,
"CZK 17,000","CZK 3,500",746624,2+kk,11/1/2022,48 m²,Partly,4,1.0,235.16,929.39,612.68,3539.28,286.1,525.01,1025.49,2961.93,893.6,124.05,Prague - Dolní Měcholupy,50.06561,14.55216,,,"CZK 20,000",Brick,Very good,G,,,,1.0,1.0,,,,,,,,,,,,,,,,,,,,,,,,,,,,,,,,,,,,1.0,,,,,,,,,,,,,,,,,,,,,,,,,,,,,,,,,,,,,,,,,,,,,,,,,,,,,,,,,,,,,,,,,,,,,,,,,,,
"CZK 59,408","CZK 19,802",742058,4+1,10/29/2022,219 m²,Fully furnished,6,1.0,122.69,292.83,150.02,222.27,31.53,246.25,406.08,512.95,283.22,254.06,"Křižíkova a, Prague - Karlín",50.0928722,14.4500782,1.0,1.0,,,,,,,,,1.0,,,,,,,,,,,,,,,,,,,,,,,,,,,,,,,,,,,,,,,,,,,,,,,,,,,,,,,,,,,,,,,,,,,,,,,,,,,,,,,,,,,,,,,,,,,,,,,,,,,,,,,,,,,,,,,
"CZK 30,000",CZK 0,626060,4+1,10/24/2022,134 m²,Fully furnished,3,1.0,141.01,628.17,116.54,298.04,4.95,300.1,379.84,439.62,102.91,345.71,"Krakovská, Prague - Nové Město",50.077639,14.427434,,,"CZK 50,000",Brick,Very good,F,,,,,,,,,Luxurious,,,Personal,Gas boiler,,,,,,,,,,,,,,,,,,,,,,,,,,,,,,,,,,,,,,,,,,,,,,,,,,,,,,,,,,,,,,,,,,,,,,,,,,,,,,,,,,,,,,,,,,,,,,,,,,,,,,,
"CZK 13,000","CZK 4,000",625188,1 bedroom,10/7/2022,33 m²,Partly,3,1.0,381.53,834.49,344.23,785.88,354.15,1035.88,509.99,603.18,390.33,236.29,"Jasmínová, Prague - Záběhlice",50.05592335,14.5109252,,,"CZK 17,000",Prefab concrete,Very good,G,,,,,,,,,,,,Personal,,,,,,,,,,,,,,,,,,,,,,,,,,,,,,,,,,,,,,,,,,,,,,,,,,,,,,,,,,,,,,,,,,,,,,,,,,,,,,,,,,,,,,,,,,,,,,,,,,,,,,,,
"CZK 24,938","CZK 8,312",745022,Studio,12/12/2022,35 m²,Fully furnished,1,1.0,237.21,722.71,270.23,1114.48,162.06,485.4,549.42,612.82,571.2,287.12,"U Nikolajky, Prague - Smíchov",50.0656652,14.3917771,1.0,1.0,,,,,,,,,1.0,,,,,,,,,,,,,,,,,,,,,,,,,,,,,,,,,,,,,,,,,,,,,,,,,,,,,,,,,,,,,,,,,,,,,,,,,,,,,,,,,,,,,,,,,,,,,,,,,,,,,,,,,,,,,,,
"CZK 37,620","CZK 12,540",746650,2 bedroom,12/19/2022,54 m²,Fully furnished,7,1.0,379.66,564.73,5.21,191.31,38.84,242.1,65.9,705.75,343.76,422.75,"Michalská, Prague - Staré Město",50.0846396,14.4202484,,,,,,,,,,,,,,,,,,,,,,,,,,,,,,,,,,,,,,,,,,,,,,,,,,,,,,,,,,,,,,,,,,,,,,,,,,,,,,,,,,,,,,,,,,,,,,,,,,,,,,,,,,,,,,,,,,,,,,,,,,
"CZK 24,581","CZK 8,194",743331,Studio,12/1/2022,28 m²,Fully furnished,1,,194.2,798.76,138.2,283.7,89.62,474.09,247.17,335.61,500.98,81.99,"U Zeměpisného ústavu, Prague - Bubeneč",50.1033901,14.4020568,,,,,,,,,,,,,,,,,,,,,,,,,,,,,,,,,,,,,,,,,,,,,,,,,,,,,,,,,,,,,,,,,,,,,,,,,,,,,,,,,,,,,,,,,,,,,,,,,,,,,,,,,,,,,,,,,,,,,,,,,,
"CZK 11,500","CZK 3,800",747463,Small studio,10/25/2022,21 m²,Fully furnished,4,1.0,180.24,561.73,109.12,301.5,0.46,241.06,390.47,969.32,291.58,421.06,Prague - Karlín,50.09458,14.45509,,,"CZK 12,000",Brick,Very good,G,,,,,,,,,,,,,,,,,,,,,,,,,,,,,,,,,,,,,,,,,,,,,,,,,,,,,,,,,,,,,,,,,,,,,,,,,,,,,,,,,,,,,,,,,,,,,,,,,,,,,,,,,,,,,,,,,,,,
"CZK 20,175","CZK 6,725",744561,Studio,12/9/2022,33 m²,Fully furnished,2,1.0,103.76,101.45,145.18,163.35,18.04,250.43,455.25,533.02,419.63,148.07,"Sokolovská, Prague - Karlín",50.0933405,14.449225,,,,,,,,,,,,,,,,,,,,,,,,,,,,,,,,,,,,,,,,,,,,,,,,,,,,,,,,,,,,,,,,,,,,,,,,,,,,,,,,,,,,,,,,,,,,,,,,,,,,,,,,,,,,,,,,,,,,,,,,,,
"CZK 34,898","CZK 11,632",744188,2 bedroom,12/5/2022,90 m²,Fully furnished,4,1.0,82.8,397.93,96.94,404.98,135.48,353.78,131.46,217.55,654.74,661.34,"Blanická, Prague - Vinohrady",50.0746503,14.439294,,,,,,,,,,,,,,,,,,,,,,,,,,,,,,,,,,,,,,,,,,,,,,,,,,,,,,,,,,,,,,,,,,,,,,,,,,,,,,,,,,,,,,,,,,,,,,,,,,,,,,,,,,,,,,,,,,,,,,,,,,
"CZK 32,250","CZK 10,750",746652,2 bedroom,12/19/2022,89 m²,Fully furnished,3,1.0,82.8,397.93,96.94,404.98,135.48,353.78,131.46,217.55,654.74,661.34,"Blanická, Prague - Vinohrady",50.0746503,14.439294,,,,,,,,,,,,,,,,,,,,,,,,,,,,,,,,,,,,,,,,,,,,,,,,,,,,,,,,,,,,,,,,,,,,,,,,,,,,,,,,,,,,,,,,,,,,,,,,,,,,,,,,,,,,,,,,,,,,,,,,,,
"CZK 33,469","CZK 11,156",742129,2 bedroom,12/1/2022,85 m²,Fully furnished,6,1.0,228.78,477.17,188.19,476.21,152.93,354.17,176.92,420.71,579.69,570.91,"Wenzigova, Prague - Nové Město",50.0708256,14.4316409,1.0,1.0,,,,,,,,,,,,,,,,,,,,,,,,,,,,,,,,,,,,,,,,,,,,,,,,,,,,,,,,,,,,,,,,,,,,,,,,,,,,,,,,,,,,,,,,,,,,,,,,,,,,,,,,,,,,,,,,,,,,,,,,
"CZK 22,000","CZK 1,787",747458,2 bedroom,10/25/2022,51 m²,Fully furnished,4,,257.65,999.84,76.83,327.05,63.37,149.96,322.0,276.46,425.93,352.0,"Buchovcova, Prague - Žižkov",50.09032,14.47262,,,"CZK 40,000",Brick,Very good,G,,,,,,,,,,,,,,,,,,,,,,,,,,,,,,,,,,,,,,,,,,,,,,,,,,,,,,,,,,,,,,,,,,,,,,,,,,,,,,,,,,,,,,,,,,,,,,,,,,,,,,,,,,,,,,,,,,,,
"CZK 35,625","CZK 11,875",747095,2+kk,12/22/2022,76 m²,Fully furnished,3,,174.67,442.95,142.17,234.72,17.52,252.04,261.1,243.44,108.85,249.32,"Týnská ulička, Prague - Staré Město",50.0879034,14.4227015,,,,,,,,,,,,,,,,,,,,,,,,,,,,,,,,,,,,,,,,,,,,,,,,,,,,,,,,,,,,,,,,,,,,,,,,,,,,,,,,,,,,,,,,,,,,,,,,,,,,,,,,,,,,,,,,,,,,,,,,,,
"CZK 26,175","CZK 8,725",747460,Studio,12/24/2022,29 m²,Fully furnished,5,1.0,199.29,530.26,41.72,442.51,28.42,296.91,250.49,239.04,477.71,395.44,"Slavíkova, Prague - Žižkov",50.0799163,14.4476377,1.0,1.0,,,,,,,,,,,,,,,,,,,,,,,,,,,,,,,,,,,,,,,,,,,,,,,,,,,,,,,,,,,,,,,,,,,,,,,,,,,,,,,,,,,,,,,,,,,,,,,,,,,,,,,,,,,,,,,,,,,,,,,,
"CZK 37,425","CZK 12,475",747459,2+kk,12/24/2022,60 m²,Fully furnished,3,1.0,170.48,421.6,257.32,426.75,52.86,339.7,54.65,63.39,473.33,754.41,"Balbínova, Prague - Vinohrady",50.0795659,14.4357789,,,,,,,,,,,,,,,,,,,,,,,,,,,,,,,,,,,,,,,,,,,,,,,,,,,,,,,,,,,,,,,,,,,,,,,,,,,,,,,,,,,,,,,,,,,,,,,,,,,,,,,,,,,,,,,,,,,,,,,,,,
"CZK 33,675","CZK 11,225",746649,2+kk,12/19/2022,55 m²,Fully furnished,2,1.0,170.48,421.6,257.32,426.75,52.86,339.7,54.65,63.39,473.33,754.41,"Balbínova, Prague - Vinohrady",50.0795659,14.4357789,,,,,,,,,,,,,,,,,,,,,,,,,,,,,,,,,,,,,,,,,,,,,,,,,,,,,,,,,,,,,,,,,,,,,,,,,,,,,,,,,,,,,,,,,,,,,,,,,,,,,,,,,,,,,,,,,,,,,,,,,,
"CZK 17,000","CZK 2,000",525017,2+kk,11/1/2022,38 m²,Partly,3,,483.75,1103.55,494.41,737.27,348.93,513.91,727.52,346.53,642.68,319.58,Prague - Libeň,50.120086582637,14.446705930164,,,"CZK 30,000",Prefab concrete,Very good,C,,,,,,30 - 50 years,,,Standard,,,Personal,,,,,,,,,,,,,,,,,,,,,,,,,,,,,,,,,,,,,,,,,,,,,1.0,,,,,,,,,,,,,,,,,,,,,,,,,,,,,,,,,,,,,,,,,,,,,,,,,,,,,,,,,,,
"CZK 24,323","CZK 8,107",745276,2 bedroom,12/11/2022,35 m²,Fully furnished,5,,220.05,826.22,174.81,602.88,97.41,601.22,415.82,330.65,569.7,247.12,"Bulharská, Prague - Vršovice",50.0719625,14.461813,,,,,,,,,,,,,,,,,,,,,,,,,,,,,,,,,,,,,,,,,,,,,,,,,,,,,,,,,,,,,,,,,,,,,,,,,,,,,,,,,,,,,,,,,,,,,,,,,,,,,,,,,,,,,,,,,,,,,,,,,,
"CZK 17,000","CZK 7,269",747297,2+kk,10/24/2022,59 m²,Fully furnished,9,1.0,98.46,811.24,163.79,285.18,344.94,266.59,281.48,532.52,226.88,272.41,"Rýmařovská, Prague - Letňany",50.1358,14.50692,,,"CZK 24,000",Prefab concrete,Very good,G,,,,,,10 to 30 years,,,Luxurious,,,Personal,Electric boiler,,Complete,,,,,,,,,,,,1.0,,,,,,,,,,,,,,,,,,,,,,,,,,,,,,,,,,,,,,,,,,,,,,,,,,,,,,,,,,,,,,,,,,,,,,,,,,,,,,,,,,,,,,,,,
"CZK 28,000","CZK 1,387",747429,2+kk,10/24/2022,74 m²,Partly,7,1.0,164.03,284.11,153.59,500.31,135.88,314.59,59.78,59.78,255.77,74.07,"Karpatská, Prague - Vršovice",50.0697,14.47606,,,"CZK 42,000",Brick,Very good,A,,,,1.0,,,,,,,,,,,,,,,,,,,,,,,,,,,,,,,,,,,,,1.0,,,,,,,,,,,,,1.0,,,,,,,,,,,,,,,,,,,,,,,,,,,,,,,,,,,,,,,,,,,,,,,,,,,,,,,,,,,,,,
"CZK 20,000","CZK 5,000",747427,2+kk,10/24/2022,56 m²,Partly,5,1.0,273.48,1267.27,389.64,1364.3,369.74,810.35,645.27,786.94,1076.37,724.78,"Hornoměcholupská, Prague - Horní Měcholupy",50.04896,14.56195,,,"CZK 50,000",Prefab concrete,New-build,A,,,1.0,1.0,1.0,,,,,,1.0,Personal,,,,,,,,,1.0,,,,,,,,,,,,,,,,,,,,,,,,,,,,,,,,,,,,,,,,,,,,,,,,,,,,,,,,,,,,,,,,,,,,,,,,,,,,,,,,,,,,,,,,,,,,,,,
"CZK 19,000","CZK 5,000",588144,2+kk,11/1/2022,60 m²,Fully furnished,3,,356.63,439.08,219.02,466.02,114.3,241.1,466.64,498.17,598.55,460.83,"Křížkovského, Prague - Žižkov",50.081254,14.449109,,,"CZK 20,000",Brick,Very good,D,,,,,,,,,,,,Personal,Gas boiler,,Interior,,,,,,,,,,,,,,,,,,,,,,,,1.0,,,,,,,,,,,,,,,,,,,,,,,,,,,,,,,,,,,,,,,,,,,,,,,,,,,,,,,,,,,,,,,,,,,,,,,,,,,,,
"CZK 18,750","CZK 6,250",742817,3+1,11/24/2022,90 m²,Fully furnished,2,1.0,82.8,397.93,96.94,404.98,135.48,353.78,131.46,217.55,654.74,661.34,"Blanická, Prague - Vinohrady",50.0746503,14.439294,,,,,,,,,,,,,,,,,,,,,,,,,,,,,,,,,,,,,,,,,,,,,,,,,,,,,,,,,,,,,,,,,,,,,,,,,,,,,,,,,,,,,,,,,,,,,,,,,,,,,,,,,,,,,,,,,,,,,,,,,,
"CZK 17,000","CZK 3,000",688167,Studio,11/1/2022,34 m²,Partly,5,1.0,23.52,511.31,126.89,531.33,110.09,476.06,287.76,195.6,265.31,456.05,"Petrohradská, Prague - Vršovice",50.06435,14.45252,1.0,,"CZK 20,000",Brick,New-build,B,,,1.0,,,Up to 10 years,,,Standard,,1.0,Personal,Central,,,,,,,,,1.0,,,,,,,,,,,,,,,,,,,,,,,,,,,,,,,,,,,,,,,,,,,,,,,,,,,,,,,,,,,,,,,,,,,,,,,,,,,,,,,,,,,,,,,,,,,,,,
"CZK 18,500","CZK 1,000",373315,2 bedroom,11/1/2022,75 m²,Unfurnished,1,,229.85,1102.94,1189.53,2143.55,289.89,959.24,1032.32,1196.75,419.13,572.15,"Pikovická, Prague - Braník",50.0304498,14.4076684,,,"CZK 20,000",Brick,Very good,B,,,,,,,,,,,,Personal,,,,,,,,,,,,,,,,,,,,,,,,,,,,,,,,,,,,,,,,,,,,,,,,,,,,,,,,,,,,,,,,,,,,,,,,,,,,,,,,,,,,,,,,,,,,,,,,,,,,,,,,
"CZK 14,500","CZK 4,900",747401,1 bedroom,11/10/2022,30 m²,Fully furnished,3,,79.36,611.57,106.17,303.56,107.15,219.14,363.06,439.06,538.89,625.14,"Zúžená, Prague - Břevnov",50.0834,14.37131,,,"CZK 30,000",Brick,Very good,G,,,,,,,,,,,,,,,,,,,,,,,,,,,,,,,,,,,,,,,,,,,,,,,,,,,,,,,,,,,,,,,,,,,,,,,,,,,,,,,,,,,,,,,,,,,,,,,,,,,,,,,,,,,,,,,,,,,,
"CZK 13,000","CZK 4,000",747397,2+kk,10/24/2022,50 m²,Partly,,,854.38,3873.32,792.01,3899.19,3418.2,4016.17,3559.1,3521.34,5135.33,823.79,"Starý lis, Prague - Točná",49.9668,14.42462,,,"CZK 26,000",Brick,Very good,B,,,,1.0,,,,,,,,Personal,,,,,,,,,,,,,,,,,,,,,,,,,,,,,,,,,,,,,,,,,,,,,,,,,,,,,1.0,,,,,,,,,,,,,,,,,,,,,,,,,,,,,,,,,,,,,,,,,,,,,,,,,,,
"CZK 11,500","CZK 4,500",308727,Studio,8/15/2022,26 m²,Partly,1,,321.61,1313.49,216.96,1113.77,394.42,254.78,164.22,156.5,890.05,246.07,"Na výhledech, Prague - Strašnice",50.0684525,14.5009037,,,"CZK 16,000",Brick,Very good,,,,,,,Over 50 years,,,Standard,,,Personal,Electric boiler,,,,,,,,,,,,,,,,,,,,,,,,,,,,,,,,,,,,,,,,,,,,,,,,,,,,,,,,,,,,,,,,,,,,,,,,,,,,,,,,,,,,,,,,,,,,,,,,,,,,,,,
"CZK 23,000","CZK 3,500",139610,2 bedroom,10/19/2022,46 m²,Fully furnished,5,,140.53,931.29,212.88,415.85,141.86,828.47,460.57,460.04,899.21,361.46,"Kloboučnická, Prague - Nusle",50.0613525,14.4500789,,,"CZK 25,000",Brick,Very good,,,,,,,,,,Standard,,,Personal,,,Complete,,,,,,,,,,,,,,,,,,,,,,,,1.0,,,,,,,,,,,,,,,,,,,,,,,,,,,,,,,,,,,,,,,,,,,,,,,,,,,,,,,,,,,,,,,,,,,,,,,,,,,,,
"CZK 16,499","CZK 2,499",747390,2+kk,11/14/2022,55 m²,Partly,3,1.0,343.27,1140.0,1410.58,2058.01,322.96,2182.65,1555.23,2691.62,2132.56,965.94,"Želetická, Prague - Sobín",50.06453,14.27368,,,"CZK 18,998",Low-energy,New-build,A,,,1.0,1.0,,,,,,,,,,,,,,,,,,,,,,,,,,,,,,,,,,,,,,,,,,,,1.0,,,,,,1.0,,,,,,,,,,,,1.0,,,,,,,,,,,,,,,,,,,,,,,,,,,,,,,,,,,,,,,,,,,,,,,,,,
"CZK 37,931","CZK 12,644",742150,3+kk,11/1/2022,75 m²,Fully furnished,6,1.0,195.12,1018.19,151.41,722.84,224.35,262.66,303.64,382.55,1097.28,303.28,"Grafická, Prague - Smíchov",50.0726658,14.3919787,,,,,,,,,,,,,,,,,,,,,,,,,,,,,,,,,,,,,,,,,,,,,,,,,,,,,,,,,,,,,,,,,,,,,,,,,,,,,,,,,,,,,,,,,,,,,,,,,,,,,,,,,,,,,,,,,,,,,,,,,,
"CZK 22,425","CZK 7,475",747388,Studio,11/20/2022,30 m²,Fully furnished,3,1.0,258.66,685.78,233.92,407.82,154.16,415.37,547.3,506.41,132.73,464.34,"V Háji, Prague - Holešovice",50.1013638,14.4546402,,,,,,,,,,,1.0,,,,,,,,,,,,,,,,,,,,,,,,,,,,,,,,,,,,,,,,,,,,,,,,,,,,,,,,,,,,,,,,,,,,,,,,,,,,,,,,,,,,,,,,,,,,,,,,,,,,,,,,,,,,,,,
"CZK 19,366","CZK 1,634",743786,1 bedroom,11/15/2022,45 m²,Unfurnished,3,1.0,129.24,11.67,129.87,643.14,94.89,101.48,197.83,270.2,412.1,242.21,"Litevská, Prague - Vršovice",50.07158,14.47671,,,"CZK 42,000",Brick,Very good,D,,,,,,,,,,,,,,,,,,,,,,,,,,,,,,,,,,,,,,,,,,,,,,,,,,,,,,,,,,,,,,,,,,,,,,,,,,,,,,,,,,,,,,,,,,,,,,,,,,,,,,,,,,,,,,,,,,,,
"CZK 22,220","CZK 3,000",746587,2+kk,10/19/2022,56 m²,Fully furnished,1,,233.13,651.17,112.38,907.79,67.69,969.25,438.62,1399.78,409.08,118.92,Prague - Zličín,50.06004,14.29102,,,CZK 0,Brick,Very good,G,,1.0,,,,,,,,,,,,,,,,,,,,,,,,,,,,,,,,,,,,,,,,,,,,,,,,1.0,,,,,,,,,,,,,,,,,,,,,,,,,,,,,,,,,,,,,,,,,,,,,,,,,,,,,,,,,,,,,,,,,,
"CZK 20,500","CZK 3,300",747380,2 bedroom,10/24/2022,52 m²,Fully furnished,4,1.0,256.92,374.05,33.18,541.02,325.93,533.79,283.38,128.85,350.98,209.75,"Dětská, Prague - Strašnice",50.07509,14.49559,,,"CZK 26,000",Brick,Very good,C,,,,1.0,,,,,,,,,,,,,,,,,,,,,,,,,,,,,,,,,,,,,,,,,,,,,,,,,,,,,,,,,,,,,,,1.0,1.0,,,,,,,,,,,,,,,,,,,,,,,,,,,,,,,,,,,,,,,,,,,,,,,,
"CZK 23,000","CZK 3,000",747376,2+kk,12/1/2022,58 m²,Partly,5,1.0,304.22,307.1,190.87,482.9,214.4,627.63,392.99,190.24,150.2,108.64,"V Mezihoří, Prague - Libeň",50.10226,14.47875,,,"CZK 52,000",Brick,New-build,G,,,1.0,,1.0,,,,,,,,,,,,,,,,,,,,,,,,,,,,,,,,,,,,,,,,,,1.0,,,,,,,,,,,,,,,,,,,,,,,,,,,,,,,,,,,,,,,,,,,,,,,,,,,,,,,,,,,,,,,,,,,,,
"CZK 12,900",CZK 600,499632,Studio,10/24/2022,34 m²,Partly,1,1.0,189.98,399.2,93.35,2076.9,171.2,129.81,215.31,270.01,1564.76,478.57,"Na Vinohradu, Prague - Braník",50.0356293,14.4150772,,,"CZK 20,000",Brick,New-build,,,,1.0,,,Up to 10 years,,,Standard,,,Personal,Distance,,,,,,1.0,,,,,,,,,,,,,,,,,,,,1.0,,,,,,,,,,,,,,,,,,,,,,,,,,,,,,,,,,,,,,,,,,,,,,,,,,,,,,,,,,,,,,,,,,,,,,,,,,,,,
"CZK 26,000","CZK 6,000",746626,2+kk,10/19/2022,55 m²,Fully furnished,5,1.0,206.79,511.13,187.24,169.76,131.6,323.25,808.8,934.79,479.14,344.34,Prague - Karlín,50.09557,14.4512,,,"CZK 32,000",Other,New-build,B,,,1.0,,,,,,,,,Personal,,,,,,,,,,,,,,,,,,,,,,,,,,,,,,,,,,,,,,,,,,,,,,1.0,,,,,,,,,,,,,,,,,,,,,,,,,,,,,,,,,,,,,,,,,,,,,,,,,,,,,,,,,,
"CZK 14,000","CZK 3,000",213428,Studio,11/20/2022,43 m²,Partly,6,1.0,26.88,492.09,143.29,462.65,430.69,470.49,321.08,608.97,311.75,198.3,"Tlumačovská, Prague - Stodůlky",50.0399305,14.3357572,1.0,,"CZK 20,000",Brick,New-build,,,,1.0,,,Up to 10 years,,,Luxurious,,,Personal,Distance,,,,,,,,,,1.0,,,,,,,,,,,,,,,,,,,,,1.0,,,,,,,,,,,,,,,,,,,,,,,,,,,,,,,,,,,,,,,,,,,,,,,,,,,,,,,,,,,,,,,,,,,,,,,,
"CZK 15,000","CZK 3,500",577089,Studio,10/23/2022,34 m²,Partly,3,,448.36,1129.75,547.04,1376.97,505.39,861.59,1255.8,768.87,1169.63,602.82,"Houdova, Prague - Košíře",50.064252,14.3821221,,,"CZK 25,000",Other,Good,E,,,,1.0,,30 - 50 years,,,Standard,,,Personal,Central,,,,,,,,,,,,,,,,,,,,,,,,,,,,,,,,,,,,,,,,,,,,,,,,,,,,,,,,,,,,,,,,,,,,,,,,,,,,,,,,,,,,,,,,,,,,,,,,,,,,,,,
"CZK 39,600","CZK 13,200",717648,2+kk,12/8/2022,46 m²,Fully furnished,2,,249.05,258.88,108.69,237.41,65.07,536.83,294.74,273.73,806.33,231.2,"Míšeňská, Prague - Malá Strana",50.0876118,14.4080467,,,,,,,,,,,,,,,,,,,,,,,,,,,,,,,,,,,,,,,,,,,,,,,,,,,,,,,,,,,,,,,,,,,,,,,,,,,,,,,,,,,,,,,,,,,,,,,,,,,,,,,,,,,,,,,,,,,,,,,,,,
"CZK 59,250","CZK 19,750",717599,4+kk,10/29/2022,90 m²,Fully furnished,2,1.0,140.09,527.92,223.64,125.85,37.89,66.77,510.79,1001.31,1180.94,559.23,"Stroupežnického, Prague - Smíchov",50.0710929,14.4032595,,,,,,,,,,,,,,,,,,,,,,,,,,,,,,,,,,,,,,,,,,,,,,,,,,,,,,,,,,,,,,,,,,,,,,,,,,,,,,,,,,,,,,,,,,,,,,,,,,,,,,,,,,,,,,,,,,,,,,,,,,
"CZK 52,500","CZK 17,500",731817,2+kk,11/12/2022,80 m²,Fully furnished,3,1.0,281.86,547.59,69.97,211.73,9.84,221.9,245.36,614.41,367.39,520.5,"Ve Smečkách, Prague - Nové Město",50.0795975,14.4273504,,,,,,,,,,,,,,,,,,,,,,,,,,,,,,,,,,,,,,,,,,,,,,,,,,,,,,,,,,,,,,,,,,,,,,,,,,,,,,,,,,,,,,,,,,,,,,,,,,,,,,,,,,,,,,,,,,,,,,,,,,
"CZK 29,175","CZK 9,725",731240,1 bedroom,11/1/2022,30 m²,Fully furnished,2,1.0,22.29,481.37,107.82,95.32,6.34,158.39,351.4,425.94,380.79,468.94,"Legerova, Prague - Vinohrady",50.0749602,14.4305105,,,,,,,,,,,,,,,,,,,,,,,,,,,,,,,,,,,,,,,,,,,,,,,,,,,,,,,,,,,,,,,,,,,,,,,,,,,,,,,,,,,,,,,,,,,,,,,,,,,,,,,,,,,,,,,,,,,,,,,,,,
"CZK 42,000","CZK 5,000",746896,4+kk,12/1/2022,148 m²,Partly,1,,,,,,,,,,,,Prague - Velká Chuchle,50.01264,14.38504,,,"CZK 47,000",Brick,New-build,G,,,,1.0,,,,,,,,,,,,,,,,,,,,,,,,,,1.0,,,,,,,,1.0,,,,,,,,,,,,,,,,,,,,,,,,,,,,,,,,,,,,,,,,,,,,,,,,,,,,,,,,,,,,,,,,,,,,,,,,,,,,,,
"CZK 15,500",CZK 500,273534,2+kk,11/1/2022,50 m²,Partly,1,,280.97,389.55,209.6,740.43,188.47,515.06,235.83,261.31,432.42,218.94,"Lužická, Prague - Vinohrady",50.0735635,14.4449567,,,"CZK 15,500",Brick,,,,,,,,,,,,,,Personal,,,,,,,,,,,,,,,,,,,,,,,,,,,,,,,,,,,,,,,,,,,,,,,,,,,,,,,,,,,,,,,,,,,,,,,,,,,,,,,,,,,,,,,,,,,,,,,,,,,,,,,,
"CZK 44,000","CZK 6,000",358804,4+kk,9/1/2022,130 m²,Fully furnished,2,,332.93,544.63,139.18,267.34,39.05,305.02,264.26,587.07,297.42,107.97,"Betlémské náměstí, Prague - Staré Město",50.0840811,14.4176178,1.0,,CZK 2,Brick,,,,,,,1.0,,,,,,,Personal,,,Complete,,,,,,,,,,,,,,,,,,,,,,,,,,,,,,,,,,,,,,,,,,,,,,,,,,,,,,,,,,,,,,,,,,,,,,,,,,,,,,,,,,,,,,,,,,,,,,,,,,,,,
"CZK 25,000","CZK 4,000",735551,3+kk,10/1/2022,83 m²,Unfurnished,3,,149.2,1278.61,579.68,1498.92,671.57,884.65,577.38,531.29,725.03,679.79,Prague - Smíchov,50.05493,14.40442,,,"CZK 43,000",Brick,Very good,G,,1.0,,1.0,1.0,,,,,,,,,,,,,,,,,,,,,,,,,,,,,,,,,,,,,,,,,,,,,,,,,,,,,,,,,,,,,,,,,,,,,,,,,,,,,,,,,,,,,,,,,,,,,,,,,,,,,,,,,,,,,,,
"CZK 21,000","CZK 3,000",621181,3+kk,11/1/2022,75 m²,Partly,3,,166.06,225.9,140.93,322.4,103.85,105.04,556.17,485.12,806.35,528.48,"Zenklova, Prague - Libeň",50.120128,14.4581,,,"CZK 21,000",Brick,Very good,,,,,,,,,,,,,Personal,Electric boiler,,Complete,,,,,,,1.0,,,,,,,,,,,,,,,,,,,,,,,,,,,,,,,,,,,,,,,,,,,,,,,,,,,,,,,,,,,,,,,,,,,,,,,,,,,,,,,,,,,,,,,,,,,,,,
"CZK 12,490",CZK 871,747357,Studio,10/28/2022,42 m²,Partly,1,1.0,242.07,716.8,95.59,529.28,96.44,481.42,502.08,976.93,346.08,275.16,"U parního mlýna, Prague - Holešovice",50.10657,14.45446527777,,,"CZK 13,361",Brick,Very good,G,,,,,,,,,,,,Personal,,,,,"CZK 13,361",,,,,,,,,,,,,,,,,,,,,,,,,,,,,,,,,,,,,,,,,,,,,,,,,,,,,,,,,,,,,,,,,,,,,,,,,,,,,,,,,,,,,,,,,,,,,,,,,,,
"CZK 20,000","CZK 9,200",746805,3+1,11/7/2022,78 m²,Partly,3,1.0,323.31,354.53,231.16,1017.2,145.79,351.23,221.43,290.13,261.6,196.8,"Přecechtělova, Prague - Stodůlky",50.03659,14.33928,,,"CZK 30,000",Prefab concrete,Very good,B,,,,,,10 to 30 years,,,Standard,,,Personal,Distance,,Complete,,,,,,,,,,,,,,,1.0,,,,,,,,,,,,,,1.0,,,,,,1.0,,,,,,,,,,,,,,,,,,,,,,,,,,,,,,,,,,,,,,,,,,,,,,,,,,,,,,,,,,,,,,,,,,
"CZK 12,500","CZK 4,000",553340,2+kk,12/1/2022,42 m²,Fully furnished,12,,219.22,490.09,426.79,2811.24,374.64,470.37,385.73,1866.86,1259.58,74.89,"U Valu, Prague - Ruzyně",50.0887184,14.3045167,,,"CZK 30,000",Prefab concrete,Very good,,,,,,,,,,Standard,,,Personal,Distance,,Complete,,,,,,,,,,,,,,,,,,,,,,,,,,,,,,,,,,,,,,,,,,,,,,,,,,,,,,,,,,,,,,,,,,,,,,,,,,,,,,,,,,,,,,,,,,,,,,,,,,,,,
"CZK 24,000","CZK 3,000",745172,4+kk,10/14/2022,100 m²,Partly,4,1.0,41.14,225.84,61.56,214.97,51.82,406.76,157.65,238.7,534.55,761.94,Prague - Vinohrady,50.07813,14.43571,,,"CZK 26,000",Brick,Very good,E,,,,1.0,1.0,,,,,,,,,,,,,,,,,,,,,,,,,1.0,,,,,,,,,,,,,,,,,,,,,,,,,,,,,,,,,,,,,,,,,,,,,,,,,,,,,,,,,,,,,,,,,,,,,,,,,,,,,,,,,,,,,,
"CZK 18,000","CZK 2,500",715239,Studio,4/20/2022,38 m²,Partly,7,1.0,274.79,810.12,422.82,622.93,137.36,665.53,568.22,316.0,355.76,133.63,"Olgy Havlové, Prague - Žižkov",50.0886644,14.484117,,,"CZK 41,000",Brick,New-build,A,,,,,,Up to 10 years,,,Luxurious,,,Personal,Central,,,,,1.0,,,,,,,,,,,,,,,,,,,,,1.0,,,,,,,,,,,,,,,,,,,,,,,,,,,,,,,,,,,,,,,,,,,,,,,,,,,,,,,,,,,,,,,,,,,,,,,,,,,,,
"CZK 32,925","CZK 10,975",735565,2+kk,11/1/2022,45 m²,Fully furnished,2,1.0,210.86,390.29,319.5,985.86,301.65,338.01,858.33,290.45,385.77,539.9,"Strakonická, Prague - Smíchov",50.0643299,14.4102127,,,,,,,,,,,,,,,,,,,,,,,,,,,,,,,,,,,,,,,,,,,,,,,,,,,,,,,,,,,,,,,,,,,,,,,,,,,,,,,,,,,,,,,,,,,,,,,,,,,,,,,,,,,,,,,,,,,,,,,,,,
"CZK 15,000","CZK 2,000",145040,1 bedroom,10/24/2022,40 m²,Fully furnished,,,221.47,1124.11,262.51,357.53,275.21,266.92,373.83,642.0,851.8,361.78,Prague - Kobylisy,50.126128,14.4530888,,,"CZK 30,000",Brick,,,,,,,,,,,,,,Personal,Electric boiler,,,,,,,,,,,,,,,,,,,,,,,,,,,,,,,,,,,,,,,,,,,,,,,,,,,,,,,,,,,,,,,,,,,,,,,,,,,,,,,,,,,,,,,,,,,,,,,,,,,,,,,
"CZK 12,000","CZK 3,500",508559,1 bedroom,10/24/2022,34 m²,Partly,4,,421.61,591.17,138.61,633.85,637.35,684.7,261.45,220.71,409.32,214.01,"Útulná, Prague - Malešice",50.0830856,14.493829,,,"CZK 24,000",Prefab concrete,,,,,,,,,,,,,,Personal,Central,,,,,,,,,,,,,,1.0,,,,,,,,,,,,,,,,,,,,,,,,,,,,,,,,,,,,,,,,,,,,,,,,,,,,,,,,,,,,,,,,,,,,,,,,,,,,,,,,,,,,,,,,,
"CZK 18,000","CZK 2,000",576693,2+kk,11/1/2022,54 m²,Fully furnished,4,1.0,238.84,156.4,198.69,393.46,68.03,77.5,107.92,256.65,494.22,121.55,"Tusarova, Prague - Holešovice",50.1016999,14.4461424,,,"CZK 30,000",Brick,Very good,A,,,,1.0,,,1.0,1.0,,,,Personal,,,,,,,,,,,,,,,,,,,,,,,,,,,,,,,,,,,,,,,,,,,,,,,,,,,,,,,,,1.0,,,,,,,,,,,,,,,,,,,,,,,,,,,,,,,,,,,,,,,,,,,,,,,
"CZK 11,100","CZK 3,700",745149,1 bedroom,10/31/2022,80 m²,Fully furnished,5,1.0,113.8,339.96,97.8,888.62,130.7,708.04,240.3,257.58,514.15,165.05,"Voskovcova, Prague - Hlubočepy",50.0299891,14.3690326,,,,,,,,,,,,,,,,,,,,,,,,,,,,,,,,,,,,,,,,,,,,,,,,,,,,,,,,,,,,,,,,,,,,,,,,,,,,,,,,,,,,,,,,,,,,,,,,,,,,,,,,,,,,,,,,,,,,,,,,,,
"CZK 41,756","CZK 13,919",747328,4+1,10/29/2022,102 m²,Fully furnished,2,,183.27,1023.84,165.5,746.11,195.16,730.27,819.74,259.7,600.66,303.35,"Xaveriova, Prague - Smíchov",50.0626569,14.3913498,,,,,,,,,,,,,,,,,,,,,,,,,,,,,,,,,,,,,,,,,,,,,,,,,,,,,,,,,,,,,,,,,,,,,,,,,,,,,,,,,,,,,,,,,,,,,,,,,,,,,,,,,,,,,,,,,,,,,,,,,,
"CZK 32,925","CZK 10,975",745540,2 bedroom,10/30/2022,50 m²,Fully furnished,-1,,210.86,390.29,319.5,985.86,301.65,338.01,858.33,290.45,385.77,539.9,"Strakonická, Prague - Smíchov",50.0643299,14.4102127,,,,,,,,,,,,,,,,,,,,,,,,,,,,,,,,,,,,,,,,,,,,,,,,,,,,,,,,,,,,,,,,,,,,,,,,,,,,,,,,,,,,,,,,,,,,,,,,,,,,,,,,,,,,,,,,,,,,,,,,,,
"CZK 25,000","CZK 3,800",747035,3+kk,11/18/2022,80 m²,Unfurnished,3,1.0,397.96,1116.03,371.13,884.37,197.39,680.14,609.51,582.44,370.77,349.03,Prague - Břevnov,50.08273,14.37769,,,"CZK 25,000",Brick,Very good,G,,,,,1.0,,,,,,,,,,,,,,,,,,,,,,,,,,,,,,,,,,,,,,,,,,,1.0,,,,,,,,,,,,,,,,,,,,,,,,,,,,,,,,,,,,,,,,,,,,,,,,,,,,,,,,,,,,,,,,,,,,
"CZK 18,000","CZK 4,000",732362,2+kk,11/1/2022,63 m²,Partly,6,1.0,87.37,985.86,126.7,812.34,239.26,921.87,733.17,940.07,415.24,340.92,Prague - Vysočany,50.1104462,14.5132181,,,"CZK 46,000",Brick,New-build,B,,,1.0,1.0,1.0,Up to 10 years,,,Standard,,,Personal,Central,,,,,,,,1.0,,,,,,,,,,,,,,,,,,,,,,,,,,,,,,,,,,,,,,,,,,,,,,,,,,,,,,,,,,,,,,,,,,,,,,,,,,,,,,,,,,,,,,,,,,,,,,,
"CZK 20,500","CZK 2,000",746521,2+kk,11/1/2022,64 m²,Partly,2,,124.22,514.17,172.48,139.63,79.97,225.12,513.86,312.74,295.06,46.84,Prague - Bubeneč,50.10262,14.3957,,,"CZK 30,000",Brick,Very good,G,,1.0,,,1.0,,,,,,,,,,,,,,,,,,,,,,,,,,,,,,,,,,,,,,,,,,,,,,,,,,,,,,,,,,,,,,,,,,,,,,,,,,,,,,,,,,,,,,,,,,,,,,,,,,,,,,,,,,,,,,,
"CZK 26,000","CZK 3,900",747321,3+1,10/24/2022,90 m²,Partly,3,,382.69,615.08,428.7,437.84,403.89,494.22,353.15,874.3,631.07,318.96,"Nad Rokoskou, Prague - Libeň",50.1188,14.45501,,,"CZK 50,000",Brick,Very good,G,,,,1.0,,,,,,,,,,,Complete,,,,,,,,,,,,,,,,,,,,,,,,,,,,,,,,,,,,,,,,,,,,,,,,,,,,,,,,,,,,,,,,,,,,,,,,,,,,,,,,,,,,,,,,,,,,,,,,,,,,,
"CZK 20,000","CZK 3,800",747324,2+kk,12/1/2022,60 m²,Fully furnished,3,1.0,41.91,391.08,286.35,454.89,494.93,389.47,370.88,383.49,1157.45,259.18,"Zrzavého, Prague - Řepy",50.06641,14.31094,,,"CZK 40,000",Brick,Very good,G,,,,1.0,,,,,,,,,,,,,,,,,,,,,,,,1.0,,,,,,,,,,,,,,,,,,,,,,,,,,,,,,,,,,,,,,,,,,,,,,,,,,,,,,,,,,,,,,,,,,,,,,,,,,,,,,,,,,,,,,,,
"CZK 17,000","CZK 5,000",624409,2+kk,11/1/2022,54 m²,Partly,4,1.0,150.25,277.67,204.7,718.22,193.94,11.61,367.1,367.1,390.53,211.0,"Kubánské náměstí, Prague - Vršovice",50.070736,14.479547,,,"CZK 34,000",Other,Very good,G,,,,,,,,,,,,Other,Distance,,Complete,,,,,,,,,,,,,,,,,,,,,,,,,,,,,,,,,,,,,,,,,,,,,,,,,,,,,,,,,,,,,,,,,,,,,,,,,,,,,,,,,,,,,,,,,,,,,,,,,,,,,
