Listing ID,Price,Latitude,Longitude,District,Layout,Floor Space,Fees,Furnishing and Fittings,Floor,Balcony,Terrace,Cellar,Loggia,Parking,Lift,Garage,Available from,Public transport stop,Post office,Shop,Bank,Restaurant,Pharmacy,School,Kindergarten,Sports field,Playground,Condition,Refundable security deposit,Ownership Type,Building Type,New building,Age,Heating,Total number of floors,PENB,Design,Renovation,Developer name,Project name,Kód jednotky,Front garden,Administration fee,Investment Advisor
716961,"CZK 18,675",50.0667869,14.4553047,"Sportovní, Prague - Vršovice",1 bedroom with open-plan kitchen,45 m²,"CZK 6,225",Furnished,2,No,Yes,No,No,No,No,No,03. 07. 2022,79,38,77,287,79,287,384,531,326,376,,,,,,,,,,,,,,,,,
611162,"CZK 16,000",50.030212,14.364044,"Kováříkova, Prague - Hlubočepy",1 bedroom with open-plan kitchen,53 m²,"CZK 3,800",Partially furnished,2,No,Yes,No,No,No,Yes,No,01. 06. 2022,380,"1,101",366,"1,082",244,"1,143",471,586,796,326,Excellent,"CZK 16,000",Personal,Brick building,Yes,1 to 10 years years,District heating,Middle floor,D,,,,,,,,
494735,"CZK 17,500",50.1155396,14.5633862,"Farkašova, Prague - Kyje",2 bedroom with open-plan kitchen,63 m²,"CZK 4,350",Furnished,2,Yes,No,No,No,No,No,No,01. 07. 2022,204,910,685,"1,279","1,219",697,,,,,New build,"CZK 20,000",Personal,Prefab concrete building,,1 to 10 years years,District heating,Middle floor,C,Premium materials and solutions,,,,,,,
668117,"CZK 13,700",50.05742,14.28128,"Prušánecká, Prague - Zličín",Studio,33 m²,"CZK 2,800",Furnished,1,Yes,No,No,No,No,No,No,03. 05. 2022,308,988,913,842,927,967,316,"1,189",133,,New build,"CZK 15,000",Personal,Brick building,,,,,C,,,,,,,,
716333,"CZK 45,000",50.0931,14.36735,"Nový lesík, Prague - Střešovice",5 bedroom,170 m²,"CZK 5,000",Partially furnished,2,Yes,Yes,Yes,No,No,No,Yes,01. 05. 2022,266,928,710,"1,132",274,883,879,"1,234",325,288,Good,"CZK 50,000",Personal,Brick building,,,,,G,,,,,,,,
713487,"CZK 39,971",50.0877117,14.4091678,"U Lužického semináře, Prague - Malá Strana",2 bedroom,56 m²,"CZK 13,324",Furnished,1,No,Yes,No,No,No,No,No,03. 06. 2022,337,356,19,335,43,634,392,362,865,215,,,,,,,,,,,,,,,,,
601295,"CZK 17,800",50.023226,14.511166,"Zdiměřická, Prague - Chodov",1 bedroom with open-plan kitchen,64 m²,"CZK 3,500",Partially furnished,8,Yes,No,No,No,No,Yes,No,01. 06. 2022,326,"1,289",222,595,221,296,844,181,,,Excellent,"CZK 35,000",Personal,Prefab concrete building,,1 to 10 years years,District heating,Top floor,D,Premium materials and solutions,Overall,,,,,,
713523,"CZK 60,000",50.0757302,14.4269087,"Ječná, Prague - Nové Město",1 bedroom with open-plan kitchen,,"CZK 20,000",Furnished,3,No,No,No,No,No,No,No,29. 05. 2022,177,647,182,40,38,122,28,102,350,194,,,,,,,,,,,,,,,,,
713475,"CZK 32,250",50.0717643,14.4385436,"Americká, Prague - Vinohrady",Studio,27 m²,"CZK 10,750",Furnished,4,No,No,No,No,No,Yes,No,16. 05. 2022,272,322,70,607,60,509,83,250,792,565,,,,,,,,,,,,,,,,,
191403,"CZK 12,500",50.0831332,14.4493023,"Bořivojova, Prague - Žižkov",1 bedroom,35 m²,"CZK 2,700",Furnished,4,No,No,No,No,No,Yes,No,01. 05. 2022,364,198,40,225,81,202,206,314,358,577,,"CZK 16,000",Personal,Brick building,,,,,,Standard materials and solutions,,,,,,,
505339,"CZK 12,500",50.0969546,14.4652086,Prague - Karlín,Small studio,28 m²,"CZK 3,000",Partially furnished,5,No,Yes,Yes,No,No,Yes,No,09. 05. 2022,108,"1,177",92,"1,032",226,771,442,685,901,149,,"CZK 15,000",Personal,Other,,,District heating,,,,,,,,,,
716322,"CZK 16,500",50.10325,14.50045,"Na Harfě, Prague - Vysočany",1 bedroom with open-plan kitchen,57 m²,"CZK 4,500",Partially furnished,4,Yes,No,No,No,Yes,Yes,No,15. 07. 2022,368,"1,126",301,531,354,432,401,891,936,619,Excellent,"CZK 30,000",Personal,Other,,,,,G,,,,,,,,
611061,"CZK 16,000",50.074347,14.438075,"Francouzská, Prague - Vinohrady",1 bedroom with open-plan kitchen,60 m²,"CZK 3,498",Partially furnished,5,No,Yes,No,No,No,Yes,No,01. 06. 2022,82,327,32,313,18,259,195,372,740,636,Excellent,"CZK 16,000",Personal,Brick building,,,Central heating,Middle floor,C,,Overall,,,,,,
521475,"CZK 22,000",50.1065558,14.4528197,Prague - Holešovice,1 bedroom with open-plan kitchen,63 m²,"CZK 4,000",Furnished,2,Yes,No,No,No,No,Yes,Yes,ihned,241,602,35,415,68,370,375,870,182,131,New build,"CZK 26,000",Personal,Brick building,,1 to 10 years years,District heating,Middle floor,,Premium materials and solutions,,,,,,,
716919,"CZK 14,000",50.07714,14.47583,"U Vinohradské nemocnice, Prague - Vinohrady",2 bedroom,45 m²,"CZK 4,200",Partially furnished,5,No,No,No,No,No,No,No,15. 05. 2022,54,820,41,350,101,148,605,881,207,13,Excellent,"CZK 30,000",Personal,Brick building,,,,,D,,,,,,,,
716918,"CZK 14,925",50.0921776,14.4422993,"Prvního pluku, Prague - Karlín",1 bedroom with open-plan kitchen,37 m²,"CZK 4,975",Furnished,2,No,No,No,No,No,No,No,01. 06. 2022,194,400,138,184,21,183,399,907,264,211,,,,,,,,,,,,,,,,,
713498,"CZK 39,000",50.0739894,14.440101,"Francouzská, Prague - Vinohrady",2 bedroom,80 m²,"CZK 13,000",Furnished,3,No,No,No,No,No,Yes,No,29. 05. 2022,149,274,60,441,20,421,59,552,690,457,,,,,,,,,,,,,,,,,
462794,"CZK 17,500",50.0719945,14.4586477,"Žitomírská, Prague - Vršovice",1 bedroom with open-plan kitchen,53 m²,"CZK 4,000",Partially furnished,7,Yes,No,Yes,No,No,Yes,No,01. 05. 2022,89,613,63,390,128,388,202,295,688,336,Excellent,"CZK 17,553",Personal,Brick building,,1 to 10 years years,Gas boiler,Top floor,,Premium materials and solutions,,,,,,,
639908,"CZK 21,900",50.087756,14.366929,"Radimova, Prague - Břevnov",1 bedroom with open-plan kitchen,66 m²,"CZK 4,000",Furnished,1,Yes,No,No,No,Yes,Yes,Yes,01. 06. 2022,327,564,144,651,53,98,134,639,620,539,New build,"CZK 30,000",Personal,Brick building,Yes,1 to 10 years years,Central heating,Raised ground floor,,Premium materials and solutions,,,,,,,
716913,"CZK 21,000",50.07168,14.46069,"Bulharská, Prague - Vršovice",2 bedroom with open-plan kitchen,73 m²,"CZK 4,000",Partially furnished,6,No,No,Yes,No,No,Yes,No,01. 06. 2022,138,748,96,525,18,523,337,252,760,188,Excellent,"CZK 25,000",Personal,Brick building,,,Gas boiler,Top floor,G,,Overall,,,,,,
610714,"CZK 14,000",50.054134,14.483781,"Podle Náhonu, Prague - Záběhlice",1 bedroom with open-plan kitchen,44 m²,"CZK 3,153",,2,Yes,No,No,No,No,Yes,No,01. 08. 2022,190,"1,150",551,"1,092",231,"1,176",938,747,372,191,New build,"CZK 14,000",Personal,Brick building,,,,,B,,,,,,,,
710751,"CZK 14,500",50.06853,14.38762,"Nad Popelkou, Prague - Smíchov",1 bedroom with open-plan kitchen,55 m²,CZK 950,Partially furnished,1,No,No,Yes,No,No,No,No,01. 07. 2022,52,986,661,"1,180",625,"1,073",698,"1,065",537,177,Excellent,"CZK 29,000",Personal,Brick building,,,Other,Ground floor,F,,Overall,,,,,,
716909,"CZK 23,000",50.1049556,14.4905151,"Ocelářská, Prague - Libeň",1 bedroom with open-plan kitchen,70 m²,"CZK 3,900",Partially furnished,3,Yes,Yes,No,No,Yes,Yes,No,10. 05. 2022,280,213,157,195,145,289,128,514,240,212,New build,"CZK 23,000",Personal,Brick building,Yes,,Central heating,,B,Premium materials and solutions,,,,,,,
716466,"CZK 13,000",50.07675,14.45756,"Libická, Prague - Vinohrady",Studio,25 m²,"CZK 1,500",Furnished,5,No,No,No,No,No,Yes,No,19. 05. 2022,113,485,133,101,171,302,361,438,820,377,Excellent,"CZK 19,000",Personal,Brick building,,,,,A,,,,,,,,
716314,"CZK 15,500",50.10601,14.4356,"Bubenská, Prague - Holešovice",1 bedroom,40 m²,"CZK 3,000",Furnished,3,Yes,No,No,No,No,Yes,No,01. 06. 2022,310,"1,078",541,773,84,477,525,106,677,,Excellent,"CZK 18,500",Personal,Prefab concrete building,,,Electric boiler,,G,,Overall,,,,,,
713502,"CZK 59,100",50.0882082,14.4262296,"Rybná, Prague - Staré Město",2 bedroom with open-plan kitchen,86 m²,"CZK 19,700",Furnished,2,Yes,No,No,No,No,No,No,29. 05. 2022,281,192,58,183,11,369,315,297,289,305,,,,,,,,,,,,,,,,,
657758,"CZK 10,000",50.0981031,14.3582803,"Evropská, Prague - Vokovice",Small studio,23 m²,"CZK 2,200",Unfurnished,11,No,No,Yes,Yes,No,Yes,No,02. 05. 2022,90,334,179,160,60,190,155,133,"1,075",294,Excellent,"CZK 10,000",Cooperative,Prefab concrete building,,,District heating,Middle floor,C,,,,,,,,
350671,"CZK 13,000",50.1376179,14.5200178,"Nepomuckých, Prague - Letňany",Studio,31 m²,"CZK 2,000",Unfurnished,3,No,No,No,No,No,No,No,06. 05. 2022,225,358,"1,013",926,501,463,752,"1,276","1,014",203,,"CZK 15,000",Personal,Brick building,Yes,1 to 10 years years,District heating,Middle floor,B,Premium materials and solutions,,,,,,,
716902,"CZK 13,000",50.13927,14.51786,"Pavla Beneše, Prague - Letňany",Studio,37 m²,"CZK 2,500",Furnished,3,No,No,No,No,Yes,Yes,Yes,03. 05. 2022,210,367,951,934,509,471,760,979,"1,022",240,New build,"CZK 26,000",Personal,Brick building,,,,,G,,,,,,,,
713073,"CZK 16,000",50.07784,14.49749,"Vrátkovská, Prague - Strašnice",2 bedroom,52 m²,"CZK 5,756",Partially furnished,2,No,No,Yes,No,No,No,No,01. 05. 2022,242,489,146,575,314,529,552,469,"1,195",154,Good,"CZK 40,000",Cooperative,Prefab concrete building,,,District heating,Middle floor,D,,,,,,,,
529640,"CZK 9,500",50.0577592,14.2889989,"Na Radosti, Prague - Zličín",Studio,25 m²,"CZK 2,800",Furnished,2,No,No,No,No,No,No,No,09. 05. 2022,293,773,615,558,412,669,248,522,50,,Excellent,"CZK 19,000",Personal,Brick building,,1 to 10 years years,Central heating,Middle floor,,Premium materials and solutions,Overall,,,,,,
630614,"CZK 10,500",50.090374,14.307124,"Ciolkovského, Prague - Ruzyně",1 bedroom with open-plan kitchen,42 m²,"CZK 2,500",,2,No,No,No,No,No,Yes,No,04. 05. 2022,248,322,228,215,274,272,307,"1,484","1,396",213,Good,"CZK 20,000",Personal,Prefab concrete building,,,,Middle floor,G,,,,,,,,
716299,"CZK 13,800",50.05615,14.4466,"U Družstva Život, Prague - Nusle",1 bedroom with open-plan kitchen,50 m²,"CZK 2,500",Unfurnished,3,No,No,No,No,No,No,No,01. 05. 2022,392,998,83,491,319,989,294,210,874,330,Good,"CZK 41,400",Personal,Brick building,,,,,G,,,,,,,,
202649,"CZK 11,990",50.1026222,14.436082,"U smaltovny, Prague - Holešovice",Studio,30 m²,"CZK 2,500",Furnished,1,No,No,No,No,No,Yes,No,01. 06. 2022,286,848,109,360,31,305,466,444,944,,Excellent,"CZK 15,000",Personal,Brick building,,1 to 10 years years,District heating,Raised ground floor,,Standard materials and solutions,Overall,,,,,,
715590,"CZK 43,775",50.09912,14.43261,Prague - Holešovice,3 bedroom with open-plan kitchen,113 m²,"CZK 5,500",Unfurnished,4,No,No,Yes,No,No,Yes,No,01. 06. 2022,54,722,20,64,99,38,187,"1,475",177,471,New build,"CZK 87,550",Personal,Brick building,,,,,A,,,,,,,,
581839,"CZK 17,400",50.128615,14.483932,"Březenská, Prague - Libeň",1 bedroom with open-plan kitchen,62 m²,"CZK 3,550",Furnished,2,No,No,No,No,Yes,Yes,Yes,18. 05. 2022,163,"1,180",257,"1,235",458,249,195,728,919,192,New build,"CZK 55,000",Personal,Low-energy building,Yes,1 to 10 years years,District heating,Middle floor,B,Premium materials and solutions,,,,,,,
540297,"CZK 21,500",50.04304,14.31343,"Toufarova, Prague - Stodůlky",1 bedroom with open-plan kitchen,60 m²,"CZK 2,500",Partially furnished,2,Yes,No,No,No,No,No,No,01. 05. 2022,258,485,231,799,821,429,778,559,"1,031",582,New build,"CZK 40,000",Personal,Brick building,,1 to 10 years years,Central heating,Middle floor,B,Premium materials and solutions,,,,,,,
716862,"CZK 16,165",50.1127635,14.4749632,"Braunerova, Prague - Libeň",2 bedroom,58 m²,"CZK 5,388",Furnished,4,No,No,No,No,No,No,No,25. 06. 2022,91,"1,445",124,970,141,538,446,"1,176",616,318,,,,,,,,,,,,,,,,,
688668,"CZK 19,000",50.07413,14.3961,"Holečkova, Prague - Smíchov",Studio,40 m²,"CZK 3,000",Furnished,3,Yes,No,Yes,No,No,Yes,No,01. 06. 2022,70,937,289,648,121,632,234,"1,083","1,005",390,New build,"CZK 40,000",Personal,Brick building,,,,,G,,,,,,,,
697214,"CZK 13,000",50.06194,14.43608,"Petra Rezka, Prague - Nusle",1 bedroom,49 m²,"CZK 2,500",Unfurnished,2,Yes,No,No,No,No,Yes,No,01. 04. 2022,167,614,151,528,121,457,121,445,399,278,Excellent,"CZK 31,000",Personal,Other,,,,,G,,Bathroom unit,,,,,,
716856,"CZK 36,000",50.04595,14.32223,"Mukařovského, Prague - Stodůlky",2 bedroom with open-plan kitchen,94 m²,CZK 133,Furnished,13,No,Yes,Yes,No,Yes,Yes,No,24. 06. 2022,,,,,,,,,,,Excellent,"CZK 72,000",Personal,Other,Yes,,,,A,,,Luka Residential s.r.o.,Luka Living Rental apartments,1314,,,
664824,"CZK 16,000",49.97529,14.39465,"Žitavského, Prague - Zbraslav",2 bedroom with open-plan kitchen,64 m²,"CZK 1,800",Partially furnished,3,No,No,No,No,No,No,No,01. 06. 2021,102,216,100,86,154,143,211,915,,,Excellent,"CZK 15,000",Personal,Brick building,,,Gas boiler,Top floor,F,Standard materials and solutions,Overall,,,,,,
716849,"CZK 11,000",50.1111,14.4889,"Podvinný mlýn, Prague - Libeň",Studio,34 m²,"CZK 3,500",Partially furnished,2,Yes,No,No,No,No,Yes,No,10. 05. 2022,573,935,683,783,251,651,623,731,450,361,Excellent,"CZK 10,000",Personal,Brick building,,,,,G,,,,,,,,
716850,"CZK 15,000",50.02136,14.41189,"Pod Lysinami, Prague - Hodkovičky",1 bedroom with open-plan kitchen,41 m²,"CZK 3,000",Unfurnished,1,No,No,No,No,Yes,Yes,No,03. 05. 2022,278,"1,437","1,082","1,396",515,"1,143",209,,,,Excellent,"CZK 15,000",Personal,Prefab concrete building,,,,,G,,,,,,,,
716244,"CZK 18,000",50.01163,14.41707,"Hausmannova, Prague - Modřany",1 bedroom with open-plan kitchen,53 m²,"CZK 4,200",Unfurnished,,No,No,Yes,No,No,No,No,01. 05. 2022,96,817,288,719,734,710,315,348,"1,429",424,Excellent,"CZK 36,000",Cooperative,Prefab concrete building,,,District heating,,G,Standard materials and solutions,Interior,,,,,,
599056,"CZK 20,500",50.044159,14.46402,"Na Nivách, Prague - Michle",1 bedroom with open-plan kitchen,80 m²,"CZK 3,500",Furnished,2,No,No,No,No,No,No,No,01. 06. 2022,308,"1,069",423,"1,127",387,543,487,543,759,303,Excellent,"CZK 48,000",Personal,Brick building,,1 to 10 years years,Gas boiler,Middle floor,G,Premium materials and solutions,Interior,,,,,,
621214,"CZK 19,000",50.061555,14.364851,"Na Pomezí, Prague - Košíře",1 bedroom with open-plan kitchen,71 m²,"CZK 2,500",Partially furnished,4,No,Yes,Yes,No,No,Yes,Yes,01. 07. 2022,118,"1,036","1,029","1,374",997,"1,123",396,425,926,258,Excellent,"CZK 38,000",Personal,Brick building,,,Gas boiler,,G,,,,,,,,
716843,"CZK 17,000",50.08879,14.3488,"Šantrochova, Prague - Břevnov",2 bedroom,54 m²,"CZK 6,000",Partially furnished,3,Yes,No,No,No,Yes,Yes,No,01. 07. 2022,86,132,241,428,132,227,194,128,300,194,Excellent,"CZK 34,000",Personal,Prefab concrete building,,,,,G,,,,,,,,
705725,"CZK 150,000",50.09114,14.41807,"Pařížská, Prague - Josefov",6 bedroom with open-plan kitchen,322 m²,"CZK 15,000",Unfurnished,6,No,Yes,No,No,No,Yes,No,09. 02. 2022,50,344,274,458,40,435,343,586,60,470,Excellent,"CZK 165,000",Personal,Brick building,,,,,G,,,,,,,,
715964,"CZK 29,999",50.0918972,14.4483184,"Křižíkova, Prague - Karlín",Studio,49 m²,"CZK 10,000",Furnished,2,Yes,Yes,No,No,No,Yes,Yes,27. 05. 2022,224,159,75,308,58,360,238,"1,343",368,105,,,,,,,,,,,,,,,,,
446603,"CZK 15,000",50.1079732,14.3953667,"Terronská, Prague - Bubeneč",1 bedroom with open-plan kitchen,50 m²,"CZK 3,500",Partially furnished,,No,No,No,No,No,Yes,No,09. 05. 2022,144,"1,163",110,562,99,457,257,441,556,200,Excellent,"CZK 18,000",Personal,Brick building,,,Gas boiler,Ground floor,,,Interior,,,,,,
713265,"CZK 12,900",50.05891,14.49887,"Ostružinová, Prague - Záběhlice",1 bedroom with open-plan kitchen,51 m²,"CZK 2,400",Partially furnished,2,No,No,No,Yes,No,Yes,No,15. 04. 2022,349,430,336,639,658,403,483,637,577,225,Good,,Personal,Prefab concrete building,,,,,G,,,,,,,,
716666,"CZK 9,000",49.99684,14.3205,"Na Cikánce, Prague - Radotín",Studio,25 m²,"CZK 2,000",Furnished,1,No,No,No,No,No,No,No,09. 05. 2022,127,,,,,,,,,,Excellent,"CZK 22,000",Personal,Brick building,,,,,G,,,,,,,,
716826,"CZK 8,700",50.12182,14.4878556,"Bílinská, Prague - Prosek",Studio,26 m²,"CZK 2,300",Partially furnished,3,Yes,No,No,No,No,No,No,01. 07. 2022,344,852,231,791,620,469,142,190,303,212,Excellent,"CZK 8,700",Personal,Prefab concrete building,,,,,C,,,,,,,,
166213,"CZK 24,999",50.0808055,14.4197518,"Spálená, Prague - Nové Město",2 bedroom,72 m²,"CZK 3,000",Furnished,3,No,No,No,No,No,No,No,01. 05. 2022,43,650,75,105,60,114,171,530,170,544,Excellent,"CZK 27,999",Personal,Brick building,,1 to 10 years years,Gas boiler,,C,Premium materials and solutions,Overall,,,,116 m²,,
315689,"CZK 14,500",50.0275539,14.4906579,"Hráského, Prague - Chodov",2 bedroom,55 m²,,Furnished,2,No,No,No,No,No,Yes,No,,350,383,114,508,157,179,797,256,313,268,,,Personal,Prefab concrete building,,1 to 10 years years,,Middle floor,,,,,,,,,
644750,"CZK 11,500",50.022858,14.40224,"Šífařská, Prague - Hodkovičky",Small studio,33 m²,"CZK 2,900",Partially furnished,2,Yes,No,No,No,Yes,Yes,No,01. 06. 2022,213,213,987,177,913,,,,,,New build,"CZK 11,500",Personal,Low-energy building,Yes,1 to 10 years years,District heating,Middle floor,B,Premium materials and solutions,,,,,,,
649185,"CZK 17,000",50.092787,14.451795,"Křižíkova, Prague - Karlín",1 bedroom with open-plan kitchen,57 m²,CZK 900,Unfurnished,3,No,No,No,No,No,Yes,No,01. 06. 2021,43,348,50,55,66,84,443,"1,093",116,310,Excellent,"CZK 40,000",Personal,Brick building,,1 to 10 years years,Gas boiler,Middle floor,G,Standard materials and solutions,,,,,,,
617044,"CZK 21,500",50.076949,14.4649,"Písecká, Prague - Vinohrady",1 bedroom with open-plan kitchen,53 m²,"CZK 4,000",Furnished,1,No,No,No,No,No,No,No,01. 06. 2022,197,200,66,307,120,375,159,672,203,172,Excellent,"CZK 25,500",Personal,Brick building,,30 to 50 years years,Gas boiler,Raised ground floor,F,Premium materials and solutions,Interior,,,,,,
602233,"CZK 30,000",50.078073,14.423947,"Řeznická, Prague - Nové Město",3 bedroom,85 m²,"CZK 4,000",Furnished,1,Yes,No,No,No,No,Yes,No,01. 06. 2022,238,629,89,270,94,333,234,419,415,356,Good,"CZK 34,000",Personal,Brick building,,over 50 years years,Central heating,Middle floor,F,Standard materials and solutions,Bathroom unit,,,,,,
652714,"CZK 24,000",50.140401,14.506608,"Místecká, Prague - Letňany",2 bedroom with open-plan kitchen,69 m²,"CZK 6,000",Furnished,9,No,No,Yes,Yes,Yes,Yes,No,01. 06. 2022,213,841,151,783,337,104,369,416,515,226,Excellent,"CZK 30,000",Personal,Prefab concrete building,,,,,G,,,,,,,,
658687,"CZK 23,000",50.10168,14.4242,"U Studánky, Prague - Bubeneč",1 bedroom with open-plan kitchen,59 m²,"CZK 2,250",Furnished,5,No,No,No,No,No,Yes,No,01. 06. 2022,353,307,138,232,151,290,316,206,220,,Excellent,"CZK 46,000",Personal,Brick building,,,Gas boiler,Middle floor,,Premium materials and solutions,,,,,,,
716821,"CZK 27,500",50.07162,14.40618,"Na Bělidle, Prague - Smíchov",1 bedroom with open-plan kitchen,52 m²,"CZK 5,500",Furnished,,No,Yes,Yes,No,No,Yes,No,01. 06. 2022,152,499,49,172,34,250,593,"1,073","1,203",601,New build,"CZK 55,000",Personal,Brick building,,,,,C,,,,,,,,
716820,"CZK 35,033",50.0925119,14.4502616,"Křižíkova, Prague - Karlín",2 bedroom,88 m²,"CZK 11,677",Furnished,5,No,No,No,No,No,Yes,Yes,01. 06. 2022,81,251,125,181,24,205,369,"1,216",241,212,,,,,,,,,,,,,,,,,
688240,"CZK 21,000",50.05428,14.5265,"Vladycká, Prague - Hostivař",1 bedroom with open-plan kitchen,55 m²,"CZK 2,600",Furnished,1,Yes,No,No,No,No,Yes,No,15. 06. 2022,267,816,120,779,414,820,"1,153",525,373,376,Excellent,"CZK 42,000",Personal,Brick building,,,,Middle floor,G,Standard materials and solutions,Interior,,,,,,
364335,"CZK 14,000",50.0792699,14.458398,"Lucemburská, Prague - Žižkov",1 bedroom,48 m²,"CZK 3,743",Furnished,4,No,No,No,No,No,Yes,No,,264,535,156,356,58,452,479,380,709,186,,,Personal,Brick building,,,Central heating,,,,,,,,,,
716818,"CZK 17,000",50.06911,14.50239,"Pod Strání, Prague - Strašnice",1 bedroom with open-plan kitchen,58 m²,"CZK 4,000",Furnished,8,No,No,Yes,Yes,No,Yes,No,05. 05. 2022,432,"1,399",356,"1,188",456,363,144,137,966,135,Excellent,"CZK 30,000",Personal,Prefab concrete building,,,,,G,,,,,,,,
640912,"CZK 8,100",50.035171,14.411621,"Zelinářská, Prague - Braník",Small studio,38 m²,CZK 800,Partially furnished,3,No,No,No,No,No,No,No,01. 05. 2022,125,412,167,101,268,349,144,"1,229",260,,Excellent,"CZK 15,000",Personal,Brick building,,,,,G,,,,,,,,
715714,"CZK 16,200",50.06133,14.39786,"Radlická, Prague - Smíchov",2 bedroom,47 m²,CZK 650,Partially furnished,3,Yes,No,No,No,No,No,No,25. 04. 2022,32,953,43,803,4,498,416,516,623,501,Excellent,"CZK 16,200",Personal,Brick building,,,,,G,,,,,,,,
585738,"CZK 18,000",50.129377,14.551176,"Hornopočernická, Prague - Kbely",2 bedroom with open-plan kitchen,100 m²,"CZK 5,000",Partially furnished,2,No,Yes,Yes,No,No,No,No,28. 04. 2022,95,832,202,381,217,958,918,831,299,,Excellent,"CZK 22,000",Personal,Brick building,,,Central heating,,G,,,,,,,,
716390,"CZK 19,200",50.08781,14.4725,"Ambrožova, Prague - Žižkov",1 bedroom with open-plan kitchen,57 m²,"CZK 2,500",Partially furnished,2,Yes,No,Yes,No,Yes,Yes,No,01. 08. 2022,102,622,257,413,274,484,238,58,551,172,New build,,Personal,Brick building,Yes,1 to 10 years years,Central heating,Middle floor,B,Premium materials and solutions,Overall,,,,,,
716780,"CZK 11,000",50.06522,14.51057,"Královická, Prague - Strašnice",1 bedroom,37 m²,"CZK 3,500",Partially furnished,1,No,No,No,No,Yes,No,No,16. 05. 2022,445,463,"1,228",200,454,290,329,566,258,,Excellent,"CZK 11,000",Personal,Brick building,,,,,C,,,,,,,,
231034,"CZK 7,000",50.133324,14.455523,"Davídkova, Prague - Kobylisy",Small studio,23 m²,"CZK 3,000",Unfurnished,1,No,No,No,No,No,No,No,,65,"1,391",325,"1,290",303,995,"1,006",865,"1,478",521,,"CZK 6,000",Personal,Brick building,,,Central heating,,A,,,,,,,,
134980,"CZK 17,500",50.106425,14.410325,Prague - Bubeneč,2 bedroom,51 m²,"CZK 4,200",Furnished,2,No,No,No,No,No,No,No,04. 06. 2022,496,"1,014","1,032",677,"1,362",570,531,909,305,,Excellent,"CZK 20,000",Personal,Brick building,,,Gas boiler,Middle floor,,Standard materials and solutions,Overall,,,,,,
492410,"CZK 17,000",50.0983131,14.4249055,"Ovenecká, Prague - Holešovice",1 bedroom with open-plan kitchen,40 m²,"CZK 5,000",Partially furnished,2,No,No,No,No,No,Yes,No,01. 07. 2022,218,307,78,180,163,214,176,"1,459",502,426,Excellent,"CZK 25,000",Personal,Brick building,,1 to 10 years years,Other,Middle floor,G,Premium materials and solutions,Overall,,,,,,
656808,"CZK 18,000",50.10855,14.52602,"Laponská, Prague - Hloubětín",1 bedroom with open-plan kitchen,60 m²,"CZK 4,000",Furnished,2,Yes,No,Yes,No,Yes,Yes,Yes,02. 05. 2022,273,"1,313",712,"1,294",976,"1,109","1,220","1,024","1,177",517,New build,"CZK 25,000",Personal,Prefab concrete building,Yes,,,Middle floor,A,,,,,,,,
610898,"CZK 11,500",50.069319,14.372789,"Pod Kavalírkou, Prague - Košíře",1 bedroom,23 m²,"CZK 2,500",Partially furnished,3,No,No,No,No,No,Yes,No,01. 06. 2022,158,294,197,172,233,279,451,"1,008",786,120,Excellent,"CZK 14,000",Personal,Brick building,,,Other,Middle floor,D,Standard materials and solutions,Overall,,,,,,
292412,"CZK 16,000",50.109311,14.4970563,"Na břehu, Prague - Vysočany",2 bedroom,50 m²,"CZK 2,500",Furnished,1,No,No,Yes,Yes,No,No,No,15. 06. 2022,164,445,52,158,87,147,710,676,194,259,Excellent,"CZK 30,000",Personal,Prefab concrete building,,,,,,,Overall,,,,,,
714092,"CZK 23,195",50.0719625,14.461813,"Bulharská, Prague - Vršovice",Studio,35 m²,"CZK 7,731",Furnished,5,No,No,No,No,No,No,No,12. 06. 2022,220,827,175,604,97,602,416,334,726,246,,,,,,,,,,,,,,,,,
716806,"CZK 20,000",50.12519,14.46912,"U Slovanky, Prague - Libeň",1 bedroom with open-plan kitchen,55 m²,"CZK 5,000",Furnished,4,Yes,No,Yes,No,No,Yes,Yes,16. 05. 2022,222,574,308,376,177,386,513,672,740,181,Excellent,"CZK 40,000",Personal,Brick building,,,,,A,,,,,,,,
716805,"CZK 14,250",50.0563948,14.3470542,"Pod Stolovou Horou, Prague - Jinonice",Studio,39 m²,"CZK 4,750",Furnished,3,Yes,No,No,No,No,Yes,No,02. 07. 2022,243,"1,060",532,755,541,497,572,643,108,,,,,,,,,,,,,,,,,,
716804,"CZK 37,125",50.0739894,14.440101,"Francouzská, Prague - Vinohrady",2 bedroom,90 m²,"CZK 12,375",Furnished,2,No,No,No,No,No,Yes,No,05. 06. 2022,149,274,60,441,20,421,59,552,690,457,,,,,,,,,,,,,,,,,
716803,"CZK 56,700",50.082182161145,14.415757035582,"Karoliny Světlé, Prague - Staré Město",2 bedroom,72 m²,"CZK 18,900",Furnished,3,No,No,No,No,No,Yes,No,02. 07. 2022,186,811,109,132,85,110,274,275,231,398,,,,,,,,,,,,,,,,,
716802,"CZK 21,019",50.1033901,14.4020568,"U Zeměpisného ústavu, Prague - Bubeneč",Studio,28 m²,"CZK 7,006",Furnished,1,No,No,No,No,No,No,No,02. 07. 2022,192,792,137,285,93,475,243,337,508,82,,,,,,,,,,,,,,,,,
716792,"CZK 22,000",50.13141,14.47152,"Famfulíkova, Prague - Kobylisy",3 bedroom,69 m²,"CZK 5,500",Partially furnished,7,No,No,No,Yes,Yes,Yes,No,01. 06. 2022,148,483,222,580,208,458,315,372,138,,Excellent,"CZK 22,000",Personal,Prefab concrete building,,,,,C,,,,,,,,
716785,"CZK 16,500",50.04257,14.44224,"Krčská, Prague - Krč",2 bedroom,67 m²,"CZK 2,800",Furnished,4,No,No,Yes,No,No,No,No,01. 06. 2022,240,223,273,437,194,256,488,269,737,273,Excellent,"CZK 31,000",Personal,Brick building,,,,,F,,,,,,,,
510207,"CZK 15,500",50.0889731,14.3043643,"U Valu, Prague - Ruzyně",1 bedroom with open-plan kitchen,45 m²,"CZK 2,000",Partially furnished,5,No,No,No,No,No,Yes,No,,225,486,448,435,345,492,357,"1,259",46,,Excellent,"CZK 20,000",Personal,Prefab concrete building,,1 to 10 years years,Central heating,Middle floor,C,Premium materials and solutions,Overall,,,,,,
641733,"CZK 21,000",50.072553,14.430241,"Legerova, Prague - Nové Město",2 bedroom with open-plan kitchen,72 m²,"CZK 3,500",Furnished,2,Yes,No,No,No,No,Yes,No,01. 06. 2022,203,551,112,217,140,254,301,481,641,639,Excellent,"CZK 42,000",Personal,Brick building,,1 to 10 years years,Gas boiler,,G,Standard materials and solutions,,,,,,,
700087,"CZK 19,500",50.07173,14.41968,"Na Hrádku, Prague - Nové Město",2 bedroom,50 m²,"CZK 4,000",Furnished,,No,No,Yes,No,No,No,No,19. 01. 2022,138,519,100,168,160,80,339,287,459,360,Excellent,"CZK 19,500",Personal,Brick building,,,,,G,,,,,,,,
324795,"CZK 20,000",50.0410429,14.3224894,"Bellušova, Prague - Stodůlky",2 bedroom with open-plan kitchen,73 m²,"CZK 3,500",Furnished,4,Yes,No,Yes,Yes,Yes,Yes,Yes,01. 07. 2022,384,920,595,566,716,630,330,689,483,215,Excellent,"CZK 10,000",Personal,Prefab concrete building,,10 to 30 years years,District heating,Middle floor,,Premium materials and solutions,Overall,,,,,,
716778,"CZK 10,000",50.09795,14.35746,"Evropská, Prague - Vokovice",Small studio,22 m²,"CZK 2,600",Partially furnished,10,Yes,No,Yes,No,No,Yes,No,01. 06. 2022,151,395,240,221,121,251,208,104,997,355,Excellent,"CZK 20,000",Personal,Prefab concrete building,,,,,G,,,,,,,,
509105,"CZK 13,500",50.1058662,14.4495428,"U Měšťanského pivovaru, Prague - Holešovice",1 bedroom,49 m²,"CZK 4,200",Furnished,4,No,No,No,No,No,Yes,No,,134,324,75,137,35,140,340,599,310,417,,"CZK 20,000",Cooperative,Brick building,,,,,C,,,,,,,,
716190,"CZK 11,400",50.09068,14.45339,"Thámova, Prague - Karlín",Small studio,28 m²,CZK 960,Partially furnished,3,No,No,No,No,No,No,No,28. 04. 2022,275,621,289,249,52,323,279,834,310,243,Excellent,"CZK 11,400",Personal,Brick building,,,,,G,,,,,,,,
713481,"CZK 49,650",50.0894663,14.4240032,"Masná, Prague - Staré Město",Studio,46 m²,"CZK 16,550",Furnished,6,No,No,No,No,No,Yes,No,19. 05. 2022,62,263,122,95,13,113,64,46,150,138,,,,,,,,,,,,,,,,,
713497,"CZK 38,625",50.0895308,14.4237131,"Masná, Prague - Staré Město",1 bedroom,38 m²,"CZK 12,875",Furnished,4,No,No,No,No,No,Yes,No,29. 05. 2022,69,269,125,89,15,106,70,52,156,144,,,,,,,,,,,,,,,,,
716775,"CZK 11,000",50.09156,14.48126,"Biskupcova, Prague - Žižkov",Studio,30 m²,"CZK 2,700",Partially furnished,2,No,No,No,No,No,Yes,No,01. 06. 2022,100,744,74,435,74,368,418,136,213,237,Excellent,"CZK 16,000",Personal,Brick building,,,,,G,,,,,,,,
711585,"CZK 15,000",49.98832,14.41191,"Za Sídlištěm, Prague - Komořany",1 bedroom with open-plan kitchen,50 m²,"CZK 2,000",Furnished,12,No,No,Yes,No,No,Yes,No,01. 04. 2022,416,428,430,598,,,,,,,Excellent,"CZK 20,000",Personal,Prefab concrete building,,,,,B,,,,,,,,
588838,"CZK 25,000",50.0863375,14.3311049,"Libocká, Prague - Liboc",1 bedroom with open-plan kitchen,62 m²,"CZK 6,500",Unfurnished,,Yes,No,Yes,No,Yes,Yes,No,01. 05. 2022,167,612,"1,210",716,"1,193","1,106",239,653,701,,New build,"CZK 50,000",Cooperative,Other,Yes,1 to 10 years years,Central heating,Ground floor,B,Premium materials and solutions,,,,,,,
715722,"CZK 12,000",50.12741,14.5036,"Terezínská, Prague - Letňany",1 bedroom with open-plan kitchen,54 m²,"CZK 4,500",Partially furnished,2,Yes,No,Yes,Yes,Yes,Yes,No,01. 06. 2022,248,911,152,941,485,"1,055",269,586,238,,Good,"CZK 16,500",Personal,Brick building,,,,,G,,,,,,,,
716761,"CZK 16,500",50.1069,14.56511,"Cíglerova, Prague - Černý Most",3 bedroom,75 m²,"CZK 5,500",Furnished,7,No,No,No,No,No,Yes,No,09. 05. 2022,51,506,83,"1,163",725,563,613,697,"1,410",389,Excellent,"CZK 35,000",Personal,Prefab concrete building,,,,,C,,,,,,,,
534510,"CZK 14,500",50.1218065,14.4874006,"Litvínovská, Prague - Prosek",1 bedroom with open-plan kitchen,49 m²,"CZK 3,500",Unfurnished,5,No,No,No,Yes,No,No,No,01. 07. 2022,298,894,250,832,594,510,96,185,263,171,Excellent,"CZK 30,000",Personal,Prefab concrete building,,,District heating,,,,Overall,,,,,,
599783,"CZK 16,900",50.098652,14.373412,"Zavadilova, Prague - Dejvice",1 bedroom,46 m²,"CZK 3,500",Furnished,2,No,No,Yes,No,No,No,No,01. 07. 2022,231,917,134,751,358,242,"1,013",604,727,152,Excellent,"CZK 20,400",Personal,Brick building,,,Central heating,Middle floor,B,Standard materials and solutions,Overall,,,,,,
713467,"CZK 23,625",50.0984636,14.4253146,"Ovenecká, Prague - Holešovice",1 bedroom with open-plan kitchen,55 m²,"CZK 7,875",Furnished,5,No,No,No,No,No,Yes,No,01. 06. 2022,220,310,47,185,156,218,202,"1,485",496,451,,,,,,,,,,,,,,,,,
713506,"CZK 37,425",50.0749602,14.4305105,"Legerova, Prague - Vinohrady",1 bedroom,30 m²,"CZK 12,475",Furnished,2,No,No,No,No,No,Yes,No,15. 05. 2022,22,463,81,96,72,158,361,436,384,451,,,,,,,,,,,,,,,,,
393866,"CZK 18,000",50.0692954,14.4739425,"Amurská, Prague - Vršovice",2 bedroom,53 m²,"CZK 1,500",Partially furnished,4,No,No,Yes,No,No,Yes,No,15. 06. 2022,294,442,218,324,110,505,76,195,144,184,,"CZK 36,000",Personal,Brick building,,,,,,,,,,,,,
668805,"CZK 14,000",50.0123602,14.5107549,Prague - Šeberov,1 bedroom with open-plan kitchen,53 m²,"CZK 4,000",Furnished,2,Yes,No,Yes,No,Yes,No,No,01. 07. 2022,274,480,429,27,857,152,,,,,Excellent,"CZK 28,000",Personal,Brick building,Yes,1 to 10 years years,Gas boiler,Ground floor,B,Standard materials and solutions,,,,,,,
600532,"CZK 59,000",50.075681,14.408523,"Janáčkovo Nábřeží, Prague - Smíchov",5 bedroom,165 m²,"CZK 12,000",Partially furnished,6,No,Yes,No,No,No,Yes,No,11. 04. 2022,279,223,344,342,68,418,193,839,"1,059",309,Excellent,"CZK 60,000",Personal,Brick building,,1 to 10 years years,Central heating,Top floor,G,Premium materials and solutions,,,,,,,
713465,"CZK 31,725",50.0795659,14.4357789,"Balbínova, Prague - Vinohrady",1 bedroom with open-plan kitchen,60 m²,"CZK 10,575",Furnished,3,No,No,No,No,No,Yes,No,21. 06. 2022,134,417,252,351,68,251,205,205,457,712,,,,,,,,,,,,,,,,,
646251,"CZK 12,000",50.065706,14.433726,"Na Folimance, Prague - Vinohrady",Studio,35 m²,"CZK 3,000",Furnished,4,Yes,No,No,No,Yes,Yes,No,06. 05. 2022,244,444,188,579,162,360,212,265,171,319,Excellent,"CZK 15,000",Personal,Brick building,,,,,D,,,,,,,,
697903,"CZK 17,000",50.05208,14.33443,"Wiedermannova, Prague - Stodůlky",1 bedroom with open-plan kitchen,64 m²,"CZK 5,720",Partially furnished,1,Yes,No,No,No,No,Yes,No,03. 01. 2022,344,729,279,694,682,249,662,777,922,508,New build,"CZK 22,720",Personal,Brick building,,1 to 10 years years,,Middle floor,G,Standard materials and solutions,Interior,,,,3 m²,,
716029,"CZK 30,744",50.0928722,14.4500782,"Křižíkova a, Prague - Karlín",1 bedroom,45 m²,"CZK 10,248",Furnished,2,No,No,No,No,No,Yes,Yes,05. 06. 2022,123,293,167,222,66,246,411,"1,258",283,254,,,,,,,,,,,,,,,,,
710120,"CZK 17,000",50.09243,14.44636,"Karlínské náměstí, Prague - Karlín",1 bedroom with open-plan kitchen,58 m²,"CZK 2,000",Partially furnished,4,No,No,Yes,No,No,No,No,05. 05. 2022,58,206,68,430,100,499,278,"1,248",588,185,Good,"CZK 19,000",Cooperative,Brick building,,,,,C,,,,,,,,
653851,"CZK 13,000",50.08344,14.509,"Počernická, Prague - Malešice",Studio,35 m²,"CZK 3,400",Furnished,5,Yes,No,Yes,No,No,Yes,Yes,01. 06. 2022,40,740,80,680,33,602,868,643,644,288,New build,"CZK 15,000",Personal,Brick building,,1 to 10 years years,Central heating,,A,,,,,,,,
716153,"CZK 17,000",50.02973,14.59703,"Oty Bubeníčka, Prague - Uhříněves",Studio,32 m²,"CZK 2,000",Furnished,4,No,No,Yes,Yes,Yes,Yes,No,01. 07. 2022,153,292,295,401,213,265,711,814,918,101,New build,"CZK 50,000",Personal,Brick building,,,,,B,,,,,,,,
714283,"CZK 21,900",50.05814,14.37359,"Nyklíčkova, Prague - Jinonice",1 bedroom with open-plan kitchen,42 m²,"CZK 4,000",Furnished,1,No,Yes,Yes,No,Yes,Yes,Yes,03. 05. 2022,156,365,313,"1,248",325,427,967,164,"1,424",210,New build,CZK 2,Personal,Brick building,,,,,C,,,,,,,,
277546,"CZK 24,999",50.073377,14.443233,"Lužická, Prague - Vinohrady",1 bedroom with open-plan kitchen,76 m²,"CZK 4,999",Furnished,2,No,No,No,No,No,No,No,01. 05. 2022,184,362,68,779,132,669,370,549,491,244,Excellent,"CZK 60,000",Personal,Brick building,,10 to 30 years years,Gas boiler,Middle floor,F,Premium materials and solutions,Interior,,,,,,
648716,"CZK 12,000",50.04791,14.556934,"Boloňská, Prague - Horní Měcholupy",Studio,49 m²,"CZK 5,000",Partially furnished,,No,No,Yes,No,Yes,No,No,01. 06. 2022,34,904,139,981,346,"1,048",552,404,678,335,Excellent,"CZK 15,000",Personal,Prefab concrete building,,1 to 10 years years,,,C,,,,,,,,
485350,"CZK 10,000",50.1283194,14.4685875,Prague - Kobylisy,Studio,25 m²,"CZK 2,200",Partially furnished,6,No,No,No,No,No,No,No,,311,185,134,207,250,156,409,409,"1,137",155,,"CZK 10,000",Personal,Prefab concrete building,,,,,,,,,,,,,
657007,"CZK 11,000",50.0291787,14.4506539,Prague - Krč,Studio,27 m²,"CZK 3,200",Partially furnished,10,No,No,No,No,Yes,Yes,No,01. 03. 2022,69,"1,240",280,57,704,788,"1,119",504,325,,Excellent,"CZK 22,000",Personal,Prefab concrete building,,,District heating,,C,,Interior,,,,,,
454800,"CZK 18,500",50.0773435,14.4009876,"Holečkova, Prague - Smíchov",2 bedroom with open-plan kitchen,83 m²,CZK 800,Partially furnished,2,No,No,No,No,No,No,No,01. 06. 2022,188,514,319,533,229,506,480,942,762,354,,"CZK 30,000",Personal,Brick building,,,,,,,,,,,,,
538565,"CZK 24,800",50.0355664,14.4120967,"Ke Krči, Prague - Braník",2 bedroom with open-plan kitchen,82 m²,"CZK 2,200",Furnished,3,Yes,No,No,No,No,No,No,18. 05. 2022,59,357,126,119,310,307,186,"1,295",325,,,"CZK 24,800",Personal,Brick building,,1 to 10 years years,Gas boiler,Attic,A,Premium materials and solutions,Overall,,,,,,
275083,"CZK 22,900",50.0855268,14.4464269,"Krásova, Prague - Žižkov",2 bedroom with open-plan kitchen,71 m²,CZK 790,Unfurnished,2,No,No,No,No,No,No,No,04. 05. 2022,159,357,61,299,88,378,280,107,439,583,,"CZK 22,900",Personal,Brick building,,1 to 10 years years,,Middle floor,,Standard materials and solutions,Interior,,,,,,
716128,"CZK 14,000",49.96188,14.39462,"Žitavského, Prague - Zbraslav",1 bedroom with open-plan kitchen,53 m²,"CZK 1,000",Unfurnished,1,No,No,No,No,No,No,No,27. 04. 2022,260,593,"1,177","1,363","1,185",875,"1,293",,,,Excellent,"CZK 14,000",Personal,Brick building,,,,,G,,,,,,,,
716719,"CZK 10,500",50.05551,14.44094,"Nad Jezerkou, Prague - Nusle",Studio,21 m²,"CZK 1,950",Partially furnished,4,No,Yes,No,No,No,No,No,02. 05. 2022,145,"1,092",260,581,113,494,421,349,668,229,New build,"CZK 10,000",Personal,Brick building,,,,,G,,,,,,,,
716714,"CZK 14,000",50.07619,14.46518,"Písecká, Prague - Vinohrady",1 bedroom,33 m²,"CZK 1,500",Furnished,3,No,No,No,No,No,Yes,No,30. 05. 2022,275,416,225,523,47,529,229,591,168,251,Excellent,"CZK 21,000",Personal,Brick building,,,,,A,,,,,,,,
497894,"CZK 37,000",50.0947079,14.4561382,"Březinova, Prague - Karlín",2 bedroom with open-plan kitchen,76 m²,"CZK 5,000",Furnished,1,No,No,No,No,No,Yes,No,,136,648,119,388,25,295,302,"1,209",346,376,,"CZK 70,000",Personal,Brick building,,1 to 10 years years,Central heating,Middle floor,,,Overall,,,,,,
716710,"CZK 11,500",50.08328,14.37314,"Šlikova, Prague - Břevnov",Studio,33 m²,CZK 524,Unfurnished,4,No,No,No,No,No,No,No,02. 05. 2022,260,773,258,273,236,291,379,688,506,779,Excellent,"CZK 11,500",Personal,Brick building,,,,,G,,,,,,,,
716711,"CZK 11,500",50.08102,14.40624,"Šeříková, Prague - Malá Strana",1 bedroom,50 m²,"CZK 4,100",Partially furnished,4,No,No,No,No,No,Yes,No,01. 06. 2022,74,241,111,503,30,225,123,526,346,383,Good,"CZK 11,500",Personal,Brick building,,,,,G,,,,,,,,
716712,"CZK 18,824",50.0303807,14.5956461,"Jindřicha Bubeníčka, Prague - Uhříněves",3 bedroom,75 m²,"CZK 3,966",,3,No,No,No,No,No,No,No,02. 05. 2022,138,284,141,375,96,235,702,796,909,204,Good,"CZK 22,790",Personal,Other,,,,,,,,,,,,"CZK 2,824",
698535,"CZK 10,000",50.13068,14.43328,"Bukolská, Prague - Bohnice",Studio,30 m²,"CZK 2,500",Furnished,2,No,No,No,No,No,Yes,No,23. 05. 2022,293,147,573,55,897,651,201,236,80,,Excellent,"CZK 10,000",Personal,Prefab concrete building,,,Central heating,,G,,,,,,,,
716707,"CZK 14,900",50.12031,14.48518,"Litoměřická, Prague - Prosek",Studio,54 m²,"CZK 3,000",Furnished,3,No,No,No,Yes,No,No,Yes,02. 05. 2022,70,"1,176",104,"1,115",367,793,242,266,448,115,New build,"CZK 14,900",Personal,Brick building,,,,,G,,,,,,,,
649500,"CZK 17,000",50.059194,14.403452,"Pod Kesnerkou, Prague - Smíchov",1 bedroom with open-plan kitchen,53 m²,"CZK 4,000",Furnished,1,No,No,No,No,Yes,No,Yes,01. 05. 2022,15,858,411,"1,303",399,415,979,"1,118",996,258,Excellent,"CZK 21,000",Personal,Brick building,,,Gas boiler,,G,Standard materials and solutions,,,,,,,
568519,"CZK 11,500",50.0905831,14.4805142,"Jeseniova, Prague - Žižkov",Studio,36 m²,"CZK 2,600",Partially furnished,3,No,No,Yes,No,No,No,No,01. 06. 2022,289,904,132,467,227,528,502,127,226,228,Excellent,"CZK 10,000",Personal,Brick building,,,Gas boiler,,E,Standard materials and solutions,Interior,,,,,,
716117,"CZK 29,419",50.0925135,14.4556107,"Šaldova, Prague - Karlín",1 bedroom,40 m²,"CZK 9,806",Furnished,2,No,Yes,No,No,No,Yes,No,09. 06. 2022,367,716,142,317,156,180,346,"1,276",231,204,,,,,,,,,,,,,,,,,
716115,"CZK 56,093",50.0928722,14.4500782,"Křižíkova a, Prague - Karlín",3 bedroom with open-plan kitchen,160 m²,"CZK 18,698",Furnished,6,No,Yes,No,No,No,Yes,Yes,01. 06. 2022,123,293,167,222,66,246,411,"1,258",283,254,,,,,,,,,,,,,,,,,
716108,"CZK 14,000",50.04626,14.45966,"Hodonínská, Prague - Michle",Studio,30 m²,"CZK 3,500",Partially furnished,1,No,No,Yes,No,No,No,No,01. 05. 2022,172,498,97,591,165,570,403,230,189,118,Excellent,"CZK 28,000",Personal,Brick building,,,,,B,,,,,,,,
588561,"CZK 13,000",50.0359746,14.3314215,"Nad Dalejským údolím, Prague - Stodůlky",Studio,39 m²,"CZK 3,500",Furnished,4,Yes,No,No,No,No,Yes,No,01. 06. 2022,381,784,466,"1,178",243,744,479,635,658,79,Excellent,"CZK 25,000",Personal,Brick building,,,,Top floor,G,,,,,,,,
641217,"CZK 24,000",50.063138,14.447026,"U Pernštejnských, Prague - Nusle",1 bedroom with open-plan kitchen,68 m²,"CZK 3,000",Partially furnished,4,Yes,No,Yes,No,No,Yes,Yes,01. 06. 2022,278,735,249,438,352,481,623,637,801,694,New build,"CZK 27,000",Personal,Other,,,,,G,,,,,,,,
716673,"CZK 22,000",50.0849492,14.3771226,"Bělohorská, Prague - Břevnov",3 bedroom,84 m²,"CZK 5,000",Furnished,2,No,No,No,No,No,Yes,No,01. 07. 2022,109,881,5,453,0,218,138,341,238,216,Excellent,"CZK 27,000",Personal,Brick building,,over 50 years years,Gas boiler,Middle floor,G,Standard materials and solutions,Interior,,,,,,
716689,"CZK 15,500",50.09936,14.42266,"Jirečkova, Prague - Holešovice",2 bedroom,78 m²,"CZK 3,700",Unfurnished,4,No,No,Yes,No,No,No,No,01. 07. 2022,176,147,165,167,41,207,277,550,376,,Good,"CZK 20,000",Personal,Brick building,,,,,G,,,,,,,,
716686,"CZK 15,000",50.00921,14.40993,"Na Holém vrchu, Prague - Modřany",2 bedroom,60 m²,"CZK 5,000",Partially furnished,1,No,Yes,No,No,No,No,No,01. 07. 2022,200,854,774,756,562,674,535,899,"1,465",519,Good,"CZK 18,000",Personal,Brick building,,,,,D,,,,,,,,
716680,"CZK 21,500",50.09593,14.36114,"Na Dlouhém lánu, Prague - Vokovice",2 bedroom with open-plan kitchen,61 m²,"CZK 3,200",Partially furnished,1,No,No,Yes,No,No,No,No,06. 05. 2022,354,217,70,343,111,140,288,565,"1,176",407,Excellent,"CZK 21,500",Personal,Brick building,,,,,G,,,,,,,,
24757,"CZK 7,500",50.0939141,14.5324196,Prague - Hloubětín,Studio,28 m²,"CZK 3,000",Furnished,2,No,No,No,No,No,No,No,Ihned,293,747,"1,083","1,062","1,356","1,185","1,300",688,557,,,"CZK 10,000",Personal,Brick building,,,Central heating,,B,,,,,,,,
624625,"CZK 19,000",50.0991748,14.3997706,"Valerije Pavloviče Čkalova, Prague - Bubeneč",2 bedroom,80 m²,"CZK 1,125",Unfurnished,1,Yes,No,No,No,No,No,No,15. 09. 2020,225,377,85,131,36,275,278,654,368,180,Good,"CZK 41,326",Personal,Brick building,,,Gas boiler,Middle floor,D,Standard materials and solutions,Interior,,,,,,
716097,"CZK 14,500",50.08415,14.44908,"Víta Nejedlého, Prague - Žižkov",1 bedroom with open-plan kitchen,47 m²,CZK 500,Partially furnished,2,No,No,No,No,No,No,No,01. 05. 2022,287,125,75,152,66,146,133,200,244,514,New build,"CZK 30,000",Personal,Brick building,,,,,G,,,,,,,,
705981,"CZK 16,500",50.085698,14.4449948,"Husinecká, Prague - Žižkov",1 bedroom with open-plan kitchen,50 m²,CZK 670,Partially furnished,2,No,No,No,No,No,No,No,01. 06. 2022,255,222,50,211,7,189,62,278,94,553,Excellent,"CZK 30,000",Personal,Other,,1 to 10 years years,Other,Middle floor,C,Standard materials and solutions,Overall,,,,,,
716674,"CZK 11,000",50.07342,14.50766,"V Olšinách, Prague - Strašnice",Studio,30 m²,"CZK 2,000",Furnished,1,No,No,No,No,No,No,No,01. 06. 2022,130,"1,413",284,"1,266",254,664,373,764,"1,235",451,Excellent,"CZK 25,000",Personal,Brick building,,,,,G,,,,,,,,
282676,"CZK 15,000",50.0686763,14.3091212,"Žufanova, Prague - Řepy",1 bedroom with open-plan kitchen,45 m²,"CZK 3,000",Furnished,4,No,No,No,No,No,Yes,No,10. 05. 2022,227,598,447,816,474,336,342,438,"1,207",51,Excellent,"CZK 25,000",Personal,Prefab concrete building,,,Central heating,,B,,,,,,,,
716016,"CZK 28,000",50.08622,14.44951,"Dalimilova, Prague - Žižkov",1 bedroom with open-plan kitchen,50 m²,"CZK 3,300",Furnished,3,Yes,No,Yes,No,No,Yes,No,01. 06. 2022,250,377,223,384,63,344,89,302,89,726,Excellent,"CZK 56,000",Personal,Brick building,,,,,F,,,,,,,,
463258,"CZK 17,900",50.0648387,14.4266126,"Nezamyslova, Prague - Nusle",1 bedroom with open-plan kitchen,44 m²,CZK 590,Partially furnished,2,Yes,No,Yes,No,Yes,No,No,01. 07. 2022,118,606,34,402,51,332,587,637,455,268,Good,"CZK 17,900",Personal,Brick building,,,Other,Middle floor,,Standard materials and solutions,Overall,,,,,,
534713,"CZK 16,500",50.09430137852,14.453672516828,"Sokolovská, Prague - Karlín",Studio,40 m²,"CZK 3,500",Furnished,3,No,Yes,Yes,No,No,No,No,01. 06. 2022,125,436,29,176,3,244,501,"1,352",367,483,New build,"CZK 20,000",Personal,Brick building,Yes,,,,,,,,,,45 m²,,
716669,"CZK 29,281",50.0928722,14.4500782,"Křižíkova a, Prague - Karlín",Studio,50 m²,"CZK 9,760",Furnished,5,Yes,Yes,No,No,No,Yes,Yes,05. 05. 2022,123,293,167,222,66,246,411,"1,258",283,254,,,,,,,,,,,,,,,,,
716668,"CZK 31,039",50.0928722,14.4500782,"Křižíkova a, Prague - Karlín",2 bedroom with open-plan kitchen,95 m²,"CZK 10,346",Furnished,3,No,Yes,No,No,No,Yes,Yes,06. 06. 2022,123,293,167,222,66,246,411,"1,258",283,254,,,,,,,,,,,,,,,,,
716094,"CZK 37,500",50.0633339,14.4440155,"Mečislavova, Prague - Nusle",1 bedroom with open-plan kitchen,56 m²,"CZK 12,500",Furnished,5,No,No,No,No,No,Yes,No,01. 06. 2022,243,541,100,272,177,315,457,820,635,594,,,,,,,,,,,,,,,,,
542065,"CZK 24,000",50.0825929,14.4476311,Prague - Žižkov,2 bedroom with open-plan kitchen,100 m²,"CZK 3,000",Furnished,2,No,No,No,No,No,Yes,No,11. 01. 2021,405,356,105,383,47,86,152,259,516,449,Excellent,"CZK 40,000",Personal,Brick building,,over 50 years years,Gas boiler,Middle floor,B,Premium materials and solutions,Overall,,,,,,
716664,"CZK 16,000",50.08584,14.34099,"Mahulenina, Prague - Břevnov",1 bedroom with open-plan kitchen,54 m²,"CZK 4,000",Partially furnished,2,No,No,No,No,No,No,No,15. 05. 2022,173,832,481,536,337,518,225,387,925,306,Excellent,"CZK 16,000",Personal,Prefab concrete building,,,,,C,,,,,,,,
602514,"CZK 24,900",50.081285,14.429989,"Opletalova, Prague - Nové Město",3 bedroom,90 m²,"CZK 4,900",Partially furnished,2,No,No,No,No,No,No,No,19. 06. 2022,321,287,33,198,42,52,259,967,178,570,Excellent,"CZK 29,800",Personal,Brick building,,1 to 10 years years,Geothermal heat pump,Middle floor,G,Premium materials and solutions,Overall,,,,,,
691264,"CZK 13,000",50.10614,14.5219,"Nepelova, Prague - Hloubětín",Studio,30 m²,"CZK 2,000",Partially furnished,2,Yes,No,No,No,No,Yes,No,01. 06. 2022,435,"1,338",677,"1,319",890,686,"1,267","1,297",846,269,New build,"CZK 15,000",Personal,Brick building,,,,,G,,,,,,,,
697081,"CZK 44,000",50.08294,14.4439,"U Rajské zahrady, Prague - Žižkov",2 bedroom with open-plan kitchen,96 m²,"CZK 6,560",Furnished,1,No,No,Yes,No,No,Yes,No,25. 05. 2022,310,517,418,403,183,453,300,306,676,106,Excellent,"CZK 88,000",Personal,Brick building,,,,,B,,,,,,,,
536098,"CZK 14,000",50.090469220676,14.451218128051,"Pernerova, Prague - Karlín",Studio,33 m²,"CZK 1,500",Unfurnished,2,No,No,No,No,No,Yes,No,01. 07. 2022,367,465,234,364,151,430,172,992,425,360,Excellent,"CZK 30,000",Personal,Brick building,,,Other,,,,,,,,,,
716248,"CZK 15,500",50.06945,14.46176,"Arménská, Prague - Vršovice",2 bedroom,53 m²,"CZK 2,000",Partially furnished,4,Yes,No,Yes,No,No,Yes,No,01. 06. 2022,259,736,287,410,228,522,255,264,614,357,Excellent,"CZK 22,000",Personal,Brick building,,,,,G,,,,,,,,
715588,"CZK 12,500",50.12685,14.4341,"Vřesová, Prague - Troja",Studio,28 m²,"CZK 3,000",Furnished,4,Yes,No,No,No,No,No,No,23. 04. 2022,209,733,176,"1,366",602,858,669,582,457,576,Excellent,"CZK 12,000",Personal,Brick building,,,,,A,,,,,,,,
716659,"CZK 16,900",50.07857,14.50894,"Černokostelecká, Prague - Strašnice",4 bedroom,80 m²,"CZK 5,000",Partially furnished,5,No,No,Yes,No,No,Yes,No,04. 05. 2022,53,817,509,952,125,828,998,"1,070","1,195",538,Excellent,"CZK 16,900",Personal,Prefab concrete building,,,,,G,,,,,,,,
438163,"CZK 15,000",50.1295252,14.4159214,"Ratibořská, Prague - Bohnice",1 bedroom with open-plan kitchen,42 m²,"CZK 3,264",Partially furnished,7,No,No,No,No,Yes,Yes,No,01. 06. 2022,184,402,362,332,325,409,495,643,"1,423",196,Excellent,"CZK 15,000",Personal,Prefab concrete building,,1 to 10 years years,District heating,Middle floor,,Standard materials and solutions,Overall,,,,,,
697090,"CZK 18,000",50.03557,14.48806,"Koštířova, Prague - Chodov",1 bedroom with open-plan kitchen,82 m²,"CZK 4,950",Partially furnished,4,No,Yes,No,No,Yes,Yes,No,02. 05. 2022,466,767,175,601,371,567,857,962,704,346,Good,"CZK 36,000",Personal,Brick building,,10 to 30 years years,Gas boiler,Top floor,C,Standard materials and solutions,Overall,,,,,,
714474,"CZK 37,500",50.0822245,14.4146349,"Krocínova, Prague - Staré Město",2 bedroom with open-plan kitchen,102 m²,"CZK 12,500",Furnished,2,Yes,Yes,No,No,No,Yes,No,17. 06. 2022,258,962,181,204,1,145,392,348,304,385,,,,,,,,,,,,,,,,,
715350,"CZK 41,438",50.077834,14.422878,"Příčná, Prague - Nové Město",Studio,26 m²,"CZK 13,812",Furnished,2,No,No,No,No,No,No,No,20. 06. 2022,224,529,123,232,36,222,310,471,467,408,,,,,,,,,,,,,,,,,
716212,"CZK 36,675",50.0830187,14.4654473,"Olšanská h, Prague - Žižkov",1 bedroom with open-plan kitchen,62 m²,"CZK 12,225",Furnished,7,No,No,No,No,No,Yes,No,27. 06. 2022,99,368,492,556,426,352,496,585,430,491,,,,,,,,,,,,,,,,,
716625,"CZK 17,000",50.0424646,14.4441971,"Kremličkova, Prague - Krč",2 bedroom,67 m²,"CZK 8,000",Unfurnished,2,No,No,Yes,No,No,No,No,02. 05. 2022,326,335,188,461,218,264,365,196,849,383,Good,"CZK 55,000",Cooperative,Brick building,,,,,G,,,,,,,,
563070,"CZK 21,450",50.1086988,14.375396,"Na Pískách, Prague - Dejvice",2 bedroom with open-plan kitchen,64 m²,"CZK 2,400",Partially furnished,1,No,No,No,No,No,No,No,01. 06. 2022,57,656,293,738,469,438,289,277,,,,"CZK 42,900",Personal,Brick building,,,,,B,,,,,,,,
716619,"CZK 21,000",50.1234603,14.456174,"Klapkova, Prague - Kobylisy",1 bedroom with open-plan kitchen,56 m²,"CZK 7,000",Furnished,3,No,No,No,No,No,No,No,01. 07. 2022,69,650,120,98,122,196,92,456,836,528,,,,,,,,,,,,,,,,,
716618,"CZK 14,617",50.086414,14.4459075,"Orebitská, Prague - Žižkov",Studio,15 m²,"CZK 4,872",Furnished,5,No,No,No,No,No,Yes,No,01. 07. 2022,85,599,358,554,76,567,334,374,416,568,,,,,,,,,,,,,,,,,
716617,"CZK 25,718",50.0837266,14.430251,"Růžová, Prague - Nové Město",1 bedroom with open-plan kitchen,45 m²,"CZK 8,573",Furnished,2,No,No,No,No,No,No,No,01. 07. 2022,214,177,154,267,119,627,49,937,198,459,,,,,,,,,,,,,,,,,
716616,"CZK 27,900",50.0471114,14.4429584,"Krchlebská, Prague - Krč",1 bedroom with open-plan kitchen,41 m²,"CZK 9,300",Furnished,5,No,No,No,No,No,No,No,01. 07. 2022,394,499,253,432,280,389,317,725,696,412,,,,,,,,,,,,,,,,,
716615,"CZK 30,956",50.0726658,14.3919787,"Grafická, Prague - Smíchov",1 bedroom with open-plan kitchen,46 m²,"CZK 10,318",Furnished,2,No,No,No,No,No,Yes,No,01. 07. 2022,185,"1,028",126,719,138,845,205,903,"1,057",128,,,,,,,,,,,,,,,,,
716614,"CZK 12,083",50.0701958,14.4617404,"Kodaňská, Prague - Vršovice",Studio,19 m²,"CZK 4,027",Furnished,1,No,No,No,No,No,No,No,01. 07. 2022,126,727,145,409,139,544,178,223,772,427,,,,,,,,,,,,,,,,,
716613,"CZK 18,975",50.1045704,14.3964833,"Nikolaje Alexejeviče Někrasova, Prague - Bubeneč",1 bedroom with open-plan kitchen,55 m²,"CZK 6,325",Furnished,4,No,No,No,No,No,Yes,No,01. 07. 2022,127,738,134,167,33,143,316,211,416,52,,,,,,,,,,,,,,,,,
716611,"CZK 36,338",50.0183023,14.5625656,"Ibišková, Prague - Křeslice",4 bedroom with open-plan kitchen,180 m²,"CZK 12,112",Furnished,1,Yes,Yes,No,No,No,No,Yes,01. 07. 2022,695,843,921,,,,,,,,,,,,,,,,,,,,,,,,
716609,"CZK 16,200",50.0478326,14.4843362,"Hrusická, Prague - Záběhlice",2 bedroom,52 m²,"CZK 5,400",Furnished,1,No,No,No,No,No,Yes,No,01. 07. 2022,132,324,308,337,285,"1,437",187,359,"1,164",362,,,,,,,,,,,,,,,,,
716608,"CZK 53,510",50.0824664,14.4140344,"Divadelní, Prague - Staré Město",4 bedroom,110 m²,"CZK 17,836",Furnished,7,No,Yes,No,No,No,Yes,No,01. 07. 2022,260,938,207,294,98,143,489,445,401,362,,,,,,,,,,,,,,,,,
716607,"CZK 43,710",50.0918754,14.4250902,"Řásnovka, Prague - Staré Město",3 bedroom,55 m²,"CZK 14,570",Furnished,2,No,No,No,No,No,No,No,01. 07. 2022,158,249,155,246,113,320,391,409,155,114,,,,,,,,,,,,,,,,,
716606,"CZK 27,225",50.0739894,14.440101,"Francouzská, Prague - Vinohrady",1 bedroom with open-plan kitchen,45 m²,"CZK 9,075",Furnished,6,No,No,No,No,No,Yes,No,01. 07. 2022,149,274,60,441,20,421,59,552,690,457,,,,,,,,,,,,,,,,,
716605,"CZK 32,918",50.0876118,14.4080467,"Míšeňská, Prague - Malá Strana",Studio,35 m²,"CZK 10,972",Furnished,2,No,No,No,No,No,No,No,01. 07. 2022,249,259,109,237,65,537,295,274,806,231,,,,,,,,,,,,,,,,,
716604,"CZK 29,700",50.0778888,14.4403889,"Mánesova, Prague - Vinohrady",Studio,60 m²,"CZK 9,900",Furnished,7,No,No,No,No,No,Yes,No,01. 07. 2022,229,544,212,97,87,308,108,378,237,578,,,,,,,,,,,,,,,,,
716603,"CZK 43,500",50.0723321,14.4399493,"Jana Masaryka, Prague - Vinohrady",2 bedroom,82 m²,"CZK 14,500",Furnished,3,No,No,No,No,No,Yes,No,01. 07. 2022,155,369,147,651,45,545,205,328,671,484,,,,,,,,,,,,,,,,,
716602,"CZK 51,656",50.0865843,14.4323212,"Dlážděná, Prague - Nové Město",1 bedroom with open-plan kitchen,60 m²,"CZK 17,219",Furnished,4,No,No,No,No,No,Yes,No,01. 07. 2022,110,274,157,129,77,143,300,496,282,367,,,,,,,,,,,,,,,,,
716600,"CZK 28,050",50.0911861,14.4228786,"U Obecního dvora, Prague - Staré Město",1 bedroom with open-plan kitchen,50 m²,"CZK 9,350",Furnished,2,No,No,No,No,No,No,No,01. 07. 2022,154,470,120,271,120,288,315,411,239,203,,,,,,,,,,,,,,,,,
716213,"CZK 28,688",50.0730353,14.4083714,"Zborovská, Prague - Smíchov",Studio,40 m²,"CZK 9,562",Furnished,2,Yes,Yes,No,No,No,No,No,27. 06. 2022,94,401,89,199,59,403,430,911,"1,115",601,,,,,,,,,,,,,,,,,
716599,"CZK 22,493",50.1013638,14.4546402,"V Háji, Prague - Holešovice",Studio,30 m²,"CZK 7,497",Furnished,3,No,No,No,No,No,Yes,Yes,01. 07. 2022,236,686,234,408,154,248,547,510,133,319,,,,,,,,,,,,,,,,,
716598,"CZK 22,500",50.0908591,14.471919,"Koněvova, Prague - Žižkov",1 bedroom with open-plan kitchen,50 m²,"CZK 7,500",Furnished,6,Yes,No,No,No,No,No,No,01. 07. 2022,137,"1,056",102,289,54,112,349,397,388,279,,,,,,,,,,,,,,,,,
716597,"CZK 22,478",50.0830187,14.4654473,"Olšanská, Prague - Žižkov",Studio,30 m²,"CZK 7,492",Furnished,3,No,No,No,No,No,No,Yes,01. 07. 2022,99,368,492,556,426,352,496,585,430,491,,,,,,,,,,,,,,,,,
716596,"CZK 26,925",50.0564738,14.5142373,"Švehlova, Prague - Záběhlice",1 bedroom with open-plan kitchen,65 m²,"CZK 8,975",Furnished,4,No,Yes,No,No,No,Yes,Yes,01. 07. 2022,88,519,253,482,504,524,542,798,830,228,,,,,,,,,,,,,,,,,
716592,"CZK 17,346",50.1030733,14.4335679,"Šimáčkova, Prague - Holešovice",Studio,30 m²,"CZK 5,782",Furnished,3,Yes,No,No,No,No,Yes,No,01. 07. 2022,139,794,157,306,80,123,368,481,882,,,,,,,,,,,,,,,,,,
716591,"CZK 39,000",50.0865843,14.4323212,"Dlážděná, Prague - Nové Město",1 bedroom with open-plan kitchen,45 m²,"CZK 13,000",Furnished,2,No,No,No,No,No,Yes,No,01. 07. 2022,110,274,157,129,77,143,300,496,282,367,,,,,,,,,,,,,,,,,
716589,"CZK 23,625",50.097327,14.4663608,"Nekvasilova, Prague - Karlín",1 bedroom with open-plan kitchen,40 m²,"CZK 7,875",Furnished,7,No,No,No,No,No,Yes,Yes,01. 07. 2022,148,"1,069",121,"1,015",205,744,547,541,774,101,,,,,,,,,,,,,,,,,
464110,"CZK 15,000",49.9615309,14.3822935,"Pickova, Prague - Zbraslav",1 bedroom with open-plan kitchen,68 m²,"CZK 4,000",Partially furnished,2,Yes,No,Yes,No,Yes,Yes,No,01. 06. 2022,345,327,599,615,976,210,227,,,,Excellent,"CZK 25,000",Personal,Low-energy building,,10 to 30 years years,District heating,Middle floor,C,Premium materials and solutions,,,,,,,
683821,"CZK 23,000",50.05484,14.44049,"Spolupráce, Prague - Nusle",2 bedroom with open-plan kitchen,60 m²,"CZK 3,200",Furnished,5,No,Yes,No,No,No,No,No,01. 04. 2022,184,"1,129",323,565,140,485,462,303,711,319,Excellent,"CZK 23,000",Personal,Brick building,,,Gas boiler,,G,Premium materials and solutions,Interior,,,,,,
342318,"CZK 29,000",50.0533340759,14.367026986,"Bochovská, Prague - Jinonice",2 bedroom with open-plan kitchen,70 m²,"CZK 2,500",Partially furnished,4,No,Yes,Yes,No,Yes,Yes,Yes,01. 05. 2022,353,402,510,208,581,117,"1,004",659,93,,New build,"CZK 40,000",Personal,Brick building,Yes,,Gas boiler,Top floor,,Premium materials and solutions,Interior,,,,,,
716575,"CZK 25,000",50.03712,14.5004,"Benkova, Prague - Chodov",3 bedroom,75 m²,"CZK 5,000",Partially furnished,1,Yes,No,Yes,No,No,Yes,No,01. 05. 2022,177,532,572,"1,190",310,630,340,478,323,301,Excellent,"CZK 50,000",Personal,Prefab concrete building,,,,,C,,Overall,,,,,,
388358,"CZK 38,000",50.1082765,14.395231,"Terronská, Prague - Bubeneč",4 bedroom with open-plan kitchen,175 m²,CZK 800,Partially furnished,5,Yes,No,No,No,No,Yes,No,01. 07. 2022,109,"1,265",75,616,64,427,292,406,521,219,Excellent,"CZK 76,000",Personal,Brick building,,10 to 30 years years,Gas boiler,Top floor,G,Standard materials and solutions,,,,,,,
713484,"CZK 70,875",50.0822886,14.4155231,"Karoliny Světlé, Prague - Staré Město",2 bedroom with open-plan kitchen,90 m²,"CZK 23,625",Furnished,3,No,No,No,No,No,Yes,No,01. 06. 2022,462,817,70,468,89,510,489,683,411,400,,,,,,,,,,,,,,,,,
57719,"CZK 7,900",50.067,14.451,"Samova, Prague - Vršovice",Studio,28 m²,"CZK 1,000",Furnished,4,No,No,No,No,No,Yes,No,01. 05. 2022,304,458,204,355,203,150,261,310,229,385,,"CZK 8,900",Personal,Brick building,,,,Middle floor,C,,,,,,,,
683613,"CZK 16,000",50.01222,14.63183,"K Říčanům, Prague - Kolovraty",1 bedroom with open-plan kitchen,52 m²,"CZK 1,500",Furnished,3,Yes,No,Yes,No,Yes,Yes,No,01. 06. 2022,63,330,700,634,801,672,395,"1,026",424,,Excellent,"CZK 32,000",Personal,Brick building,,1 to 10 years years,,,C,Standard materials and solutions,,,,,,,
594659,"CZK 13,000",50.06888,14.433909,"Pod Zvonařkou, Prague - Vinohrady",Studio,30 m²,CZK 800,Partially furnished,1,No,No,Yes,No,No,No,No,04. 05. 2022,90,622,113,712,173,657,489,522,335,422,Good,"CZK 14,000",Personal,Brick building,,30 to 50 years years,,Raised ground floor,C,Standard materials and solutions,Interior,,,,50 m²,,
713524,"CZK 60,000",50.0757302,14.4269087,"Ječná, Prague - Nové Město",1 bedroom with open-plan kitchen,,"CZK 20,000",Furnished,3,No,No,No,No,No,No,No,05. 06. 2022,177,647,182,40,38,122,28,102,350,194,,,,,,,,,,,,,,,,,
715733,"CZK 47,340",50.1025661,14.4522431,"Na Maninách, Prague - Holešovice",1 bedroom with open-plan kitchen,69 m²,"CZK 15,780",Furnished,6,Yes,Yes,No,No,No,Yes,No,05. 05. 2022,105,350,144,146,109,151,432,394,290,329,,,,,,,,,,,,,,,,,
713483,"CZK 53,550",50.090911,14.4295366,"Soukenická, Prague - Nové Město",1 bedroom with open-plan kitchen,50 m²,"CZK 17,850",Furnished,4,Yes,No,No,No,No,Yes,Yes,18. 05. 2022,144,325,176,152,60,230,49,259,388,439,,,,,,,,,,,,,,,,,
715436,"CZK 30,096",50.0925119,14.4502616,"Křižíkova, Prague - Karlín",Studio,40 m²,"CZK 10,032",Furnished,6,Yes,Yes,No,No,No,Yes,Yes,03. 06. 2022,81,251,125,181,24,205,369,"1,216",241,212,,,,,,,,,,,,,,,,,
713969,"CZK 35,175",50.0769346,14.4169603,"Na Zbořenci, Prague - Nové Město",2 bedroom,65 m²,"CZK 11,725",Furnished,4,No,No,No,No,No,Yes,No,01. 06. 2022,168,319,99,227,101,409,227,243,632,429,,,,,,,,,,,,,,,,,
716569,"CZK 15,000",50.07913,14.45767,"Baranova, Prague - Žižkov",1 bedroom with open-plan kitchen,47 m²,"CZK 5,000",Unfurnished,4,No,No,Yes,No,No,Yes,No,01. 05. 2022,216,526,87,287,40,357,461,421,749,177,Excellent,"CZK 22,500",Personal,Brick building,,,,,G,,,,,,,,
654369,"CZK 12,000",50.08424,14.34691,"Brunclíkova, Prague - Břevnov",1 bedroom,38 m²,"CZK 2,500",Unfurnished,2,No,No,Yes,No,No,No,No,15. 05. 2022,92,716,67,569,258,587,280,300,360,153,Excellent,"CZK 12,000",Personal,Prefab concrete building,,,District heating,Middle floor,G,,Overall,,,,,,
715157,"CZK 11,000",50.0934711,14.5428312,Prague - Kyje,Studio,33 m²,"CZK 3,500",Furnished,1,Yes,No,Yes,Yes,No,No,No,01. 05. 2022,96,116,95,652,831,"1,103",224,,,,Excellent,"CZK 22,000",Personal,Brick building,,,Central heating,,C,,,,,,,,
690612,"CZK 21,000",50.0619286,14.365565,"Na Pomezí, Prague - Košíře",1 bedroom with open-plan kitchen,45 m²,"CZK 3,967",Furnished,4,Yes,No,No,No,Yes,Yes,Yes,04. 11. 2021,42,"1,053","1,047","1,298",921,"1,141",320,437,850,182,New build,"CZK 30,000",Personal,Brick building,,,,,B,,,,,,,,
716083,"CZK 12,000",50.11318,14.62601,"Ve Žlíbku, Prague - Horní Počernice",Studio,38 m²,"CZK 3,900",Furnished,1,No,Yes,No,No,Yes,No,No,01. 05. 2022,279,"1,418",561,737,305,683,500,615,,,Excellent,"CZK 24,000",Personal,Brick building,,,Geothermal heat pump,Middle floor,G,Premium materials and solutions,Interior,,,,,,
713528,"CZK 41,250",50.0912734,14.4238585,"Haštalské náměstí, Prague - Staré Město",2 bedroom,50 m²,"CZK 13,750",Furnished,-1,No,Yes,No,No,No,No,No,26. 05. 2022,55,370,51,238,66,242,352,396,158,122,,,,,,,,,,,,,,,,,
713522,"CZK 56,250",50.0766855,14.4294035,"Sokolská, Prague - Nové Město",1 bedroom with open-plan kitchen,45 m²,"CZK 18,750",Furnished,4,No,No,No,No,No,No,No,05. 05. 2022,212,525,185,151,68,162,317,392,109,262,,,,,,,,,,,,,,,,,
713472,"CZK 41,250",50.0643299,14.4102127,"Strakonická, Prague - Smíchov",2 bedroom,50 m²,"CZK 13,750",Furnished,-1,No,No,No,No,No,Yes,No,05. 05. 2022,211,382,250,989,170,745,812,"1,050",387,543,,,,,,,,,,,,,,,,,
713473,"CZK 31,425",50.0643299,14.4102127,"Strakonická, Prague - Smíchov",Studio,30 m²,"CZK 10,475",Furnished,2,No,No,No,No,No,Yes,No,19. 05. 2022,211,382,250,989,170,745,812,"1,050",387,543,,,,,,,,,,,,,,,,,
716561,"CZK 12,500",50.06958,14.47544,"Karpatská, Prague - Vršovice",1 bedroom,40 m²,"CZK 3,000",Unfurnished,2,No,No,No,No,No,Yes,No,02. 05. 2022,207,340,205,293,187,388,124,94,110,138,Excellent,"CZK 16,000",Personal,Brick building,,,,,C,,,,,,,,
380123,"CZK 16,000",50.1026156,14.5087551,"Poděbradská, Prague - Vysočany",1 bedroom with open-plan kitchen,54 m²,"CZK 5,000",Partially furnished,3,Yes,No,No,No,No,Yes,Yes,01. 06. 2022,83,"1,344",453,944,559,657,326,"1,271","1,460",591,Excellent,"CZK 21,000",Personal,Brick building,,,District heating,Middle floor,B,Standard materials and solutions,Overall,,,,,,
712898,"CZK 17,000",50.09525,14.50889,"Mezilehlá, Prague - Hrdlořezy",1 bedroom with open-plan kitchen,61 m²,"CZK 5,700",Partially furnished,,No,Yes,Yes,No,Yes,Yes,Yes,01. 05. 2022,189,499,654,463,962,728,"1,279","1,091",262,,New build,"CZK 40,000",Personal,Brick building,Yes,,,,B,,,,,,,,
713512,"CZK 35,175",50.0747395,14.424046,"Lípová, Prague - Nové Město",1 bedroom with open-plan kitchen,45 m²,"CZK 11,725",Furnished,5,No,No,No,No,No,No,No,01. 06. 2022,120,534,85,337,48,344,183,195,543,341,,,,,,,,,,,,,,,,,
713468,"CZK 18,720",50.0713305,14.4638794,"Na Míčánkách, Prague - Vršovice",1 bedroom with open-plan kitchen,49 m²,"CZK 6,240",Furnished,2,No,No,No,No,No,Yes,No,06. 06. 2022,84,743,87,659,277,595,408,307,678,198,,,,,,,,,,,,,,,,,
716552,"CZK 10,000",50.13562,14.50983,"Bohumínská, Prague - Letňany",Studio,41 m²,"CZK 2,500",Partially furnished,3,No,No,Yes,No,No,No,No,09. 05. 2022,67,664,234,512,199,143,220,630,273,371,Excellent,"CZK 10,000",Personal,Prefab concrete building,,,,,G,,,,,,,,
716039,"CZK 27,000",50.09876,14.40049,"Jaselská, Prague - Bubeneč",3 bedroom,73 m²,"CZK 6,000",Unfurnished,,No,No,Yes,No,No,No,No,01. 05. 2022,265,383,113,66,65,280,189,750,443,27,Excellent,"CZK 66,000",Personal,Brick building,,,Electric boiler,Ground floor,G,,Overall,,,,,,
448701,"CZK 16,000",50.0769189,14.4655804,"Slezská, Prague - Vinohrady",1 bedroom with open-plan kitchen,50 m²,"CZK 3,500",Unfurnished,5,No,No,No,No,No,Yes,No,23. 05. 2022,146,326,187,433,176,400,100,720,144,121,Excellent,"CZK 32,000",Personal,Brick building,,,Gas boiler,,,,Interior,,,,,,
716549,"CZK 19,000",50.11465,14.56601,"Sicherova, Prague - Kyje",2 bedroom with open-plan kitchen,72 m²,"CZK 4,000",Partially furnished,1,Yes,No,Yes,No,No,No,No,02. 05. 2022,363,"1,047",822,"1,416","1,387",834,,,,,Excellent,"CZK 19,000",Personal,Brick building,,,,,G,,,,,,,,
576447,"CZK 15,000",50.0582331,14.4521541,"Magistrů, Prague - Michle",Studio,40 m²,"CZK 3,000",Furnished,1,No,No,No,No,Yes,Yes,No,01. 04. 2022,260,631,391,300,42,983,184,518,385,394,New build,"CZK 30,000",Personal,Brick building,Yes,1 to 10 years years,Central heating,,B,Standard materials and solutions,Exterior,,,,,,
716547,"CZK 11,500",50.12486,14.44189,"Písečná, Prague - Troja",1 bedroom with open-plan kitchen,39 m²,"CZK 3,800",Unfurnished,1,No,No,No,No,No,Yes,No,15. 05. 2022,243,"1,254",148,814,252,202,468,276,497,111,Excellent,"CZK 23,000",Personal,Prefab concrete building,,,,,G,,,,,,,,
714329,"CZK 46,530",50.0918754,14.4250902,"Řásnovka, Prague - Staré Město",2 bedroom,48 m²,"CZK 15,510",Furnished,2,No,No,No,No,No,No,No,05. 05. 2022,158,249,155,246,113,320,391,409,155,114,,,,,,,,,,,,,,,,,
713459,"CZK 51,225",50.090911,14.4295366,"Soukenická, Prague - Nové Město",1 bedroom with open-plan kitchen,50 m²,"CZK 17,075",Furnished,4,No,No,No,No,No,Yes,Yes,05. 06. 2022,144,325,176,152,60,230,49,259,388,439,,,,,,,,,,,,,,,,,
545754,"CZK 16,500",50.0833811,14.4649759,"Olšanská, Prague - Žižkov",Studio,42 m²,"CZK 2,500",Partially furnished,1,No,No,No,No,Yes,Yes,No,01. 06. 2022,69,338,462,526,396,322,466,595,399,460,New build,"CZK 30,000",Personal,Low-energy building,Yes,1 to 10 years years,District heating,Middle floor,A,Premium materials and solutions,,,,,,,
589750,"CZK 19,500",50.080805,14.458633,"Sudoměřská, Prague - Žižkov",2 bedroom,65 m²,"CZK 1,300",Furnished,1,No,No,No,No,No,No,No,16. 05. 2022,236,654,378,294,56,471,502,378,543,283,Excellent,"CZK 15,000",Personal,Brick building,,over 50 years years,Gas boiler,Ground floor,C,Standard materials and solutions,Overall,,,,,,
716036,"CZK 74,850",50.090911,14.4295366,"Soukenická, Prague - Nové Město",2 bedroom with open-plan kitchen,90 m²,"CZK 24,950",Furnished,4,Yes,Yes,No,No,No,Yes,Yes,18. 05. 2022,144,325,176,152,60,230,49,259,388,439,,,,,,,,,,,,,,,,,
617977,"CZK 18,000",50.085434,14.345057,"Volavkova, Prague - Břevnov",2 bedroom,55 m²,"CZK 1,000",Partially furnished,4,No,No,No,No,No,No,No,01. 07. 2022,187,620,176,382,104,400,180,101,609,198,Excellent,"CZK 18,000",Cooperative,Prefab concrete building,,1 to 10 years years,District heating,Top floor,B,Premium materials and solutions,Overall,,,,,,
539851,"CZK 14,500",50.0208636,14.4646361,Prague - Kunratice,Studio,52 m²,"CZK 3,300",Furnished,7,Yes,No,No,No,No,Yes,No,01. 05. 2022,198,"1,123","1,001",182,331,710,"1,392",294,,,Excellent,"CZK 20,000",Personal,Brick building,,1 to 10 years years,Central heating,Middle floor,,Standard materials and solutions,,,,,,,
716457,"CZK 18,000",50.1100963,14.3976305,Prague - Bubeneč,1 bedroom with open-plan kitchen,52 m²,"CZK 2,400",,,No,No,No,No,No,No,No,Ihned,365,281,907,320,682,559,496,776,288,,Excellent,"CZK 30,000",Personal,Brick building,,,,,,,,,,,,,
709594,"CZK 15,500",50.1250814,14.5069297,"Kytlická, Prague - Prosek",2 bedroom with open-plan kitchen,71 m²,"CZK 5,500",Partially furnished,,No,No,No,No,No,No,No,01. 05. 2022,273,794,162,"1,032",290,982,154,742,195,,Excellent,"CZK 21,000",Personal,Prefab concrete building,,,District heating,Ground floor,G,,Overall,,,,,,
713305,"CZK 11,000",50.00967,14.46089,"Libušská, Prague - Libuš",Studio,36 m²,"CZK 4,500",Furnished,1,No,No,Yes,No,Yes,No,No,01. 06. 2022,69,141,357,222,334,876,"1,339",973,,,New build,"CZK 30,000",Cooperative,Brick building,,,Gas boiler,Middle floor,A,,,,,,,,
391791,"CZK 15,000",50.1018961,14.4186782,Prague - Bubeneč,Studio,20 m²,"CZK 2,000",Furnished,1,No,Yes,Yes,No,No,Yes,No,01. 06. 2022,150,482,75,350,137,567,163,"1,493",189,330,New build,"CZK 17,000",Personal,Brick building,Yes,1 to 10 years years,Electric boiler,Ground floor,C,Premium materials and solutions,,,,,10 m²,,
714443,"CZK 35,925",50.0749602,14.4305105,"Legerova, Prague - Vinohrady",Studio,30 m²,"CZK 11,975",Furnished,6,No,No,No,No,No,Yes,No,21. 05. 2022,22,463,81,96,72,158,361,436,384,451,,,,,,,,,,,,,,,,,
712290,"CZK 12,900",50.09887,14.3966,"Kafkova, Prague - Dejvice",Studio,34 m²,,Furnished,4,No,No,No,No,No,Yes,No,01. 05. 2022,134,30,92,131,64,76,507,422,357,257,Good,,Personal,Brick building,,,,,G,,,,,,,,
503042,"CZK 14,000",50.1256878,14.4467673,"Přemyšlenská, Prague - Kobylisy",1 bedroom with open-plan kitchen,48 m²,"CZK 5,000",Furnished,2,Yes,No,No,No,Yes,No,No,,171,"1,320",218,478,160,225,503,298,847,323,,CZK 1,Personal,Brick building,,1 to 10 years years,Central heating,Middle floor,,,Overall,,,,,,
715997,"CZK 15,000",50.06641,14.39943,"Bieblova, Prague - Smíchov",1 bedroom,50 m²,"CZK 3,000",Partially furnished,4,No,No,No,No,No,No,No,09. 05. 2022,45,276,6,647,218,360,80,274,536,212,Excellent,"CZK 15,600",Other,Brick building,,,,,G,,,,,,,,
593217,"CZK 15,000",50.066406,14.399425,"Bieblova, Prague - Smíchov",1 bedroom,55 m²,"CZK 2,500",Partially furnished,3,No,No,No,No,No,No,No,09. 05. 2022,45,276,6,647,218,360,80,274,536,212,Excellent,"CZK 15,600",Other,Brick building,,,,,E,,,,,,,,
695256,"CZK 18,000",50.07786,14.41518,"Vojtěšská, Prague - Nové Město",Studio,32 m²,"CZK 4,000",Furnished,1,No,No,No,No,No,No,No,01. 05. 2022,186,489,77,381,97,578,197,255,533,269,New build,"CZK 22,000",Personal,Brick building,,1 to 10 years years,Electric boiler,Ground floor,G,Premium materials and solutions,Interior,,,,,,
715481,"CZK 35,175",50.0769346,14.4169603,"Na Zbořenci, Prague - Nové Město",2 bedroom,65 m²,"CZK 11,725",Furnished,3,No,No,No,No,No,Yes,No,02. 06. 2022,168,319,99,227,101,409,227,243,632,429,,,,,,,,,,,,,,,,,
716526,"CZK 18,000",50.1261106,14.5002253,"Českolipská, Prague - Prosek",3 bedroom,52 m²,"CZK 4,000",Partially furnished,4,Yes,No,No,No,No,Yes,No,02. 05. 2022,161,460,223,490,504,604,180,138,"1,324",208,Excellent,"CZK 36,000",Personal,Prefab concrete building,,,,,G,,,,,,,,
534143,"CZK 14,000",50.0699577,14.4427519,"U Havlíčkových sadů, Prague - Vinohrady",Small studio,30 m²,CZK 700,Partially furnished,4,No,No,No,No,No,Yes,No,15. 05. 2022,465,693,187,816,193,782,472,142,570,197,,"CZK 20,000",Personal,Brick building,,,Gas boiler,Middle floor,,,,,,,,,
716525,"CZK 19,000",50.03507,14.51957,"Hněvkovského, Prague - Chodov",3 bedroom,79 m²,"CZK 3,700",Unfurnished,7,Yes,No,No,Yes,No,Yes,No,02. 05. 2022,179,525,338,978,452,474,240,513,282,226,Excellent,"CZK 38,000",Personal,Prefab concrete building,,,,,G,,,,,,,,
716524,"CZK 16,000",50.0606,14.43336,"Lounských, Prague - Nusle",2 bedroom,55 m²,"CZK 3,500",Furnished,1,No,No,No,No,No,Yes,No,01. 05. 2022,355,974,147,528,124,477,346,656,600,524,Excellent,"CZK 20,000",Personal,Brick building,,,,,G,,,,,,,,
716523,"CZK 11,000",50.12617,14.42044,"Hnězdenská, Prague - Troja",Studio,37 m²,"CZK 2,500",Partially furnished,11,No,No,No,No,No,Yes,No,02. 05. 2022,206,279,292,349,143,293,800,990,"1,268",421,Excellent,"CZK 11,000",Personal,Prefab concrete building,,,,,G,,,,,,,,
711824,"CZK 14,000",50.10907,14.5569,"Za černým mostem, Prague - Kyje",Studio,,"CZK 3,000",Furnished,4,Yes,No,Yes,No,Yes,Yes,Yes,01. 05. 2022,176,800,136,48,754,418,"1,323","1,438",483,,New build,"CZK 28,000",Personal,Brick building,,,,,G,,,,,,,,
716522,"CZK 32,000",50.0613873,14.3654246,"Na Pomezí, Prague - Košíře",3 bedroom with open-plan kitchen,110 m²,"CZK 3,500",Partially furnished,2,Yes,No,No,Yes,No,Yes,No,01. 07. 2022,153,946,939,"1,409","1,031","1,033",431,460,961,292,Excellent,"CZK 64,000",Personal,Low-energy building,,,,,G,,,,,,,,
532365,"CZK 25,000",50.0675081,14.4599435,"Moskevská, Prague - Vršovice",2 bedroom with open-plan kitchen,114 m²,"CZK 2,000",Partially furnished,5,Yes,No,No,No,No,Yes,No,15. 06. 2022,83,521,82,275,23,383,474,356,306,272,,"CZK 30,000",Personal,Brick building,,,Gas boiler,Top floor,,Standard materials and solutions,Interior,,,,,,
193123,"CZK 21,500",50.0755341,14.4547563,"Korunní, Prague - Vinohrady",3 bedroom,106 m²,"CZK 7,450",Partially furnished,2,Yes,Yes,No,No,No,No,No,01. 07. 2022,59,390,87,246,74,222,85,526,686,199,,"CZK 28,950",Personal,Brick building,,over 50 years years,Other,Middle floor,E,Standard materials and solutions,,,,,,,
715976,"CZK 10,500",49.99684,14.3205,"Na Cikánce, Prague - Radotín",Studio,35 m²,"CZK 2,500",Furnished,1,No,No,No,No,No,No,No,01. 05. 2022,127,,,,,,,,,,Excellent,"CZK 30,000",Personal,Brick building,,,,,G,,,,,,,,
716116,"CZK 29,664",50.0925119,14.4502616,"Křižíkova, Prague - Karlín",Studio,51 m²,"CZK 9,888",Furnished,5,Yes,No,No,No,No,Yes,Yes,09. 06. 2022,81,251,125,181,24,205,369,"1,216",241,212,,,,,,,,,,,,,,,,,
713747,"CZK 18,500",50.07719,14.47697,"Hollarovo náměstí, Prague - Vinohrady",1 bedroom with open-plan kitchen,47 m²,"CZK 3,000",Partially furnished,1,Yes,No,Yes,No,No,No,No,01. 05. 2022,146,902,104,492,168,134,761,817,290,130,Excellent,"CZK 37,000",Personal,Brick building,,,,,G,,,,,,,,
711233,"CZK 14,990",50.1085429,14.5254683,"Granitova, Prague - Hloubětín",Studio,44 m²,"CZK 2,990",Partially furnished,5,No,Yes,Yes,No,Yes,Yes,No,21. 03. 2022,280,"1,320",719,"1,302","1,077","1,144","1,212","1,015","1,196",524,New build,,Personal,Low-energy building,Yes,1 to 10 years years,District heating,,A,Premium materials and solutions,,,,,,,
566413,"CZK 11,000",50.0599398,14.4285851,"Na Pankráci, Prague - Nusle",Studio,30 m²,CZK 880,Partially furnished,1,No,No,No,No,No,No,No,01. 06. 2020,157,726,41,354,95,245,526,9,172,365,,"CZK 11,000",Personal,Brick building,,,,,,,,,,,,,
715950,"CZK 20,000",50.08309,14.56256,"U Hostavického potoka, Prague - Hostavice",1 bedroom with open-plan kitchen,57 m²,"CZK 3,900",Furnished,1,Yes,No,No,No,Yes,Yes,Yes,11. 06. 2022,586,521,791,107,,,,,,,New build,"CZK 40,000",Personal,Brick building,,,,,G,,,,,,,,
715962,"CZK 20,663",50.0910052,14.4210032,"Bílkova, Prague - Staré Město",Studio,35 m²,"CZK 6,887",Furnished,5,Yes,No,No,No,No,Yes,No,10. 06. 2022,190,595,159,287,45,281,221,427,252,401,,,,,,,,,,,,,,,,,
445260,"CZK 17,500",50.0742417,14.3977477,"Kobrova, Prague - Smíchov",Studio,41 m²,"CZK 4,300",Furnished,4,Yes,No,No,No,Yes,Yes,No,01. 08. 2022,220,670,323,521,223,378,268,"1,212","1,039",136,New build,"CZK 35,000",Personal,Brick building,,1 to 10 years years,Central heating,Middle floor,,Premium materials and solutions,,,,,,,
466224,"CZK 13,000",50.0855445,14.3729816,"Mládeže, Prague - Břevnov",1 bedroom with open-plan kitchen,42 m²,"CZK 3,000",Partially furnished,3,No,No,Yes,No,No,No,No,30. 04. 2022,229,745,314,504,225,206,234,245,512,394,,"CZK 16,000",Personal,Brick building,,,,,,,,,,,,,
716510,"CZK 29,000",50.10982,14.38248,"Neherovská, Prague - Dejvice",1 bedroom with open-plan kitchen,61 m²,,Furnished,1,No,No,No,No,Yes,No,No,01. 06. 2022,323,432,"1,305",445,739,394,452,838,701,,Excellent,"CZK 29,000",Personal,Brick building,,,,,G,,,,,,,,
716371,"CZK 42,814",50.0722637,14.3926388,"Grafická, Prague - Smíchov",1 bedroom with open-plan kitchen,79 m²,"CZK 14,271",Furnished,6,No,No,No,No,No,No,No,05. 05. 2022,10,927,65,618,170,761,228,"1,106",933,331,,,,,,,,,,,,,,,,,
716514,"CZK 32,706",50.0928722,14.4500782,"Křižíkova a, Prague - Karlín",1 bedroom with open-plan kitchen,66 m²,"CZK 10,902",Furnished,1,No,Yes,No,No,No,Yes,Yes,05. 05. 2022,123,293,167,222,66,246,411,"1,258",283,254,,,,,,,,,,,,,,,,,
716513,"CZK 27,700",50.0928722,14.4500782,"Křižíkova a, Prague - Karlín",1 bedroom,58 m²,"CZK 9,233",Furnished,3,No,Yes,No,No,No,Yes,Yes,20. 05. 2022,123,293,167,222,66,246,411,"1,258",283,254,,,,,,,,,,,,,,,,,
716512,"CZK 29,187",50.0928722,14.4500782,"Křižíkova a, Prague - Karlín",1 bedroom with open-plan kitchen,62 m²,"CZK 9,729",Furnished,4,No,No,No,No,No,Yes,Yes,29. 05. 2022,123,293,167,222,66,246,411,"1,258",283,254,,,,,,,,,,,,,,,,,
712631,"CZK 14,000",50.090668,14.3081756,"Žukovského, Prague - Ruzyně",1 bedroom with open-plan kitchen,42 m²,"CZK 3,500",Partially furnished,9,No,No,No,Yes,Yes,Yes,No,21. 04. 2022,177,173,80,67,185,123,375,"1,335","1,464",119,Excellent,"CZK 28,000",Personal,Prefab concrete building,,,,,G,Standard materials and solutions,Overall,,,,,,
577002,"CZK 16,000",50.1171669,14.4317465,"Trojská, Prague - Troja",1 bedroom with open-plan kitchen,43 m²,"CZK 3,500",Unfurnished,1,No,No,No,No,No,No,No,01. 01. 2022,141,"1,030","1,164",484,672,"1,054",233,748,,,,"CZK 48,000",Personal,Brick building,,,,,C,,,,,,,,
656514,"CZK 13,000",50.08298,14.45354,"Bořivojova, Prague - Žižkov",Studio,50 m²,"CZK 3,000",Furnished,5,No,No,No,No,No,Yes,No,01. 05. 2022,161,133,103,297,14,246,314,447,599,333,Excellent,"CZK 15,000",Personal,Brick building,,,Gas boiler,Middle floor,D,Standard materials and solutions,,,,,,,
716504,"CZK 24,439",50.0735628,14.4373343,"Uruguayská, Prague - Vinohrady",Studio,26 m²,"CZK 8,146",Furnished,1,No,No,No,No,No,Yes,No,01. 06. 2022,193,168,131,353,18,256,47,213,857,690,,,,,,,,,,,,,,,,,
708786,"CZK 17,990",50.07866083333,14.42345777777,"Navrátilova, Prague - Nové Město",1 bedroom with open-plan kitchen,54 m²,"CZK 3,949",Furnished,3,No,No,No,No,No,Yes,No,,161,630,144,170,10,330,214,535,575,472,Excellent,"CZK 21,939",Personal,Brick building,,,,,D,,,,,,,"CZK 21,939

                                
                                
                
i",
715209,"CZK 48,000",50.0718291,14.4385892,"Americká, Prague - Vinohrady",3 bedroom,72 m²,"CZK 16,000",Furnished,5,No,No,No,No,No,Yes,No,19. 06. 2022,274,300,81,587,69,312,103,253,793,568,,,,,,,,,,,,,,,,,
715938,"CZK 51,000",50.0903205,14.4200069,"Elišky Krásnohorské, Prague - Josefov",2 bedroom,110 m²,"CZK 17,000",Furnished,5,No,No,No,No,No,Yes,No,25. 06. 2022,110,373,218,256,23,273,141,384,214,476,,,,,,,,,,,,,,,,,
716501,"CZK 37,620",50.0706439,14.4164891,"Trojická, Prague - Nové Město",1 bedroom with open-plan kitchen,60 m²,"CZK 12,540",Furnished,3,No,No,No,No,No,Yes,No,30. 06. 2022,212,694,96,186,110,101,316,52,369,339,,,,,,,,,,,,,,,,,
715207,"CZK 17,625",50.0753237,14.4575982,"Korunní, Prague - Vinohrady",Studio,29 m²,"CZK 5,875",Furnished,1,No,No,No,No,No,Yes,No,19. 06. 2022,159,612,67,290,33,373,307,359,795,244,,,,,,,,,,,,,,,,,
716497,"CZK 41,325",50.0865843,14.4323212,"Dlážděná, Prague - Nové Město",1 bedroom with open-plan kitchen,67 m²,"CZK 13,775",Furnished,4,Yes,Yes,No,No,No,Yes,No,30. 06. 2022,110,274,157,129,77,143,300,496,282,367,,,,,,,,,,,,,,,,,
715924,"CZK 14,000",50.00671,14.433,"Mladenovova, Prague - Modřany",3 bedroom,73 m²,"CZK 7,500",Partially furnished,4,Yes,No,Yes,No,No,Yes,No,02. 05. 2022,163,"1,244",583,"1,233",133,"1,229",687,144,495,129,Excellent,"CZK 20,000",Personal,Prefab concrete building,,,,,G,,,,,,,,
716489,"CZK 18,000",50.09357,14.46052,"Na Střelnici, Prague - Karlín",1 bedroom with open-plan kitchen,71 m²,CZK 600,Partially furnished,5,No,No,Yes,No,No,No,No,04. 05. 2022,415,"1,073",165,683,310,546,133,"1,032",596,111,Excellent,"CZK 36,000",Personal,Brick building,,,,,G,,,,,,,,
624896,"CZK 13,500",50.0973,14.362884,"Kladenská, Prague - Vokovice",1 bedroom with open-plan kitchen,50 m²,"CZK 3,400",Partially furnished,5,No,No,Yes,No,Yes,No,No,01. 06. 2022,227,104,237,300,260,291,511,417,"1,174",243,Excellent,"CZK 27,000",Personal,Brick building,,1 to 10 years years,Gas boiler,Top floor,C,Premium materials and solutions,Overall,,,,,,
713500,"CZK 63,000",50.0895437,14.4260543,"Rybná, Prague - Staré Město",3 bedroom,86 m²,"CZK 21,000",Furnished,3,No,No,No,No,No,No,No,01. 06. 2022,138,70,36,61,45,257,146,128,234,214,,,,,,,,,,,,,,,,,
714011,"CZK 22,350",50.0799163,14.4476377,"Slavíkova, Prague - Žižkov",Studio,29 m²,"CZK 7,450",Furnished,5,No,Yes,No,No,No,Yes,No,10. 06. 2022,472,536,115,535,55,394,404,513,675,431,,,,,,,,,,,,,,,,,
713507,"CZK 59,250",50.0710929,14.4032595,"Stroupežnického, Prague - Smíchov",3 bedroom with open-plan kitchen,90 m²,"CZK 19,750",Furnished,2,No,No,No,No,No,Yes,No,05. 05. 2022,140,528,224,126,38,67,511,"1,001","1,181",559,,,,,,,,,,,,,,,,,
716486,"CZK 14,000",50.11522,14.47129,"Vosmíkových, Prague - Libeň",1 bedroom,38 m²,CZK 500,Furnished,3,No,No,No,No,Yes,No,No,15. 06. 2022,97,"1,138",146,"1,252",41,431,312,"1,297",898,356,Excellent,"CZK 30,000",Personal,Brick building,,,Gas boiler,,A,,,,,,,,
713490,"CZK 39,600",50.0876118,14.4080467,"Míšeňská, Prague - Malá Strana",1 bedroom with open-plan kitchen,46 m²,"CZK 13,200",Furnished,2,No,No,No,No,No,No,No,28. 05. 2022,249,259,109,237,65,537,295,274,806,231,,,,,,,,,,,,,,,,,
715902,"CZK 28,500",50.07732,14.42821,"Žitná, Prague - Nové Město",2 bedroom with open-plan kitchen,62 m²,"CZK 3,800",Furnished,3,Yes,No,No,No,No,Yes,No,01. 05. 2022,151,552,123,257,0,336,366,446,89,353,Excellent,"CZK 57,000",Personal,Brick building,,,,,G,,,,,,,,
660548,"CZK 36,000",50.10666,14.3884,"Bechyňova, Prague - Dejvice",3 bedroom with open-plan kitchen,100 m²,"CZK 6,000",Partially furnished,2,Yes,No,Yes,No,Yes,Yes,Yes,01. 05. 2022,51,"1,254",57,661,139,115,352,322,694,354,New build,"CZK 72,000",Personal,Other,,1 to 10 years years,District heating,Middle floor,G,Premium materials and solutions,,,,,,,
713527,"CZK 25,110",50.0719498,14.4319499,"Koubkova, Prague - Nové Město",1 bedroom,39 m²,"CZK 8,370",Furnished,2,No,No,No,No,No,Yes,No,01. 06. 2022,203,332,57,333,25,268,328,262,694,682,,,,,,,,,,,,,,,,,
715723,"CZK 41,250",50.0643299,14.4102127,"Strakonická, Prague - Smíchov",2 bedroom,50 m²,"CZK 13,750",Furnished,-1,No,No,No,No,No,No,No,16. 05. 2022,211,382,250,989,170,745,812,"1,050",387,543,,,,,,,,,,,,,,,,,
716481,"CZK 18,000",50.042789,14.4612313,"Jihlavská, Prague - Michle",2 bedroom,52 m²,"CZK 3,000",Furnished,3,No,No,No,No,No,Yes,No,10. 05. 2022,108,835,263,839,12,162,678,732,691,402,Excellent,"CZK 30,000",Personal,Brick building,,,,,G,,Overall,,,,,,
713112,"CZK 35,000",50.02094,14.41331,"U Zátiší, Prague - Hodkovičky",2 bedroom with open-plan kitchen,110 m²,"CZK 6,000",Furnished,6,No,Yes,No,No,No,Yes,Yes,18. 04. 2022,253,"1,412","1,277","1,370",489,"1,491",183,,,,Excellent,"CZK 60,000",Personal,Brick building,,,,,A,,,,,,,,
713495,"CZK 49,650",50.0882058,14.4262315,"Rybná, Prague - Staré Město",1 bedroom with open-plan kitchen,53 m²,"CZK 16,550",Furnished,3,No,No,No,No,No,Yes,No,06. 06. 2022,281,192,58,183,11,368,315,297,289,305,,,,,,,,,,,,,,,,,
713499,"CZK 39,015",50.0882058,14.4262315,"Rybná, Prague - Staré Město",1 bedroom with open-plan kitchen,44 m²,"CZK 13,005",Furnished,3,No,No,No,No,No,No,No,19. 05. 2022,281,192,58,183,11,368,315,297,289,305,,,,,,,,,,,,,,,,,
713501,"CZK 33,750",50.0718291,14.4385892,"Americká, Prague - Vinohrady",1 bedroom,43 m²,"CZK 11,250",Furnished,4,No,No,No,No,No,Yes,No,16. 05. 2022,274,300,81,587,69,312,103,253,793,568,,,,,,,,,,,,,,,,,
690939,"CZK 14,500",50.090668,14.3081756,"Žukovského, Prague - Ruzyně",1 bedroom with open-plan kitchen,41 m²,"CZK 4,500",Partially furnished,8,Yes,No,No,No,Yes,Yes,No,01. 05. 2022,177,173,80,67,185,123,375,"1,335","1,464",119,Excellent,,Personal,Prefab concrete building,,,District heating,,C,Standard materials and solutions,Overall,,,,,,
713480,"CZK 46,103",50.0840648,14.4187033,"Jilská, Prague - Staré Město",1 bedroom with open-plan kitchen,53 m²,"CZK 15,367",Furnished,3,No,No,No,No,No,Yes,No,16. 05. 2022,298,541,99,261,14,253,193,593,251,217,,,,,,,,,,,,,,,,,
713470,"CZK 32,175",50.0643299,14.4102127,"Strakonická, Prague - Smíchov",Studio,30 m²,"CZK 10,725",Furnished,3,No,No,No,No,No,Yes,No,16. 05. 2022,211,382,250,989,170,745,812,"1,050",387,543,,,,,,,,,,,,,,,,,
713464,"CZK 43,350",50.0894289,14.423732,"Masná, Prague - Staré Město",Studio,46 m²,"CZK 14,450",Furnished,3,No,No,No,No,No,Yes,No,18. 05. 2022,68,269,126,89,16,107,70,52,156,144,,,,,,,,,,,,,,,,,
713454,"CZK 31,875",50.0902753,14.4260311,"Rybná, Prague - Staré Město",Studio,40 m²,"CZK 10,625",Furnished,1,No,No,No,No,No,No,No,26. 05. 2022,124,153,54,67,17,194,209,158,151,202,,,,,,,,,,,,,,,,,
716417,"CZK 16,808",50.1040109,14.4778547,"Novákových a, Prague - Libeň",1 bedroom with open-plan kitchen,42 m²,"CZK 5,602",Furnished,2,No,No,No,No,No,No,No,06. 06. 2022,128,226,52,252,51,178,275,424,252,299,,,,,,,,,,,,,,,,,
716035,"CZK 63,000",50.090911,14.4295366,"Soukenická, Prague - Nové Město",2 bedroom with open-plan kitchen,90 m²,"CZK 21,000",Furnished,4,No,No,No,No,No,Yes,Yes,18. 06. 2022,144,325,176,152,60,230,49,259,388,439,,,,,,,,,,,,,,,,,
647743,"CZK 25,000",50.0814214,14.4299039,"Opletalova, Prague - Nové Město",1 bedroom with open-plan kitchen,52 m²,"CZK 3,900",,6,No,Yes,No,No,Yes,Yes,No,31. 05. 2022,322,273,32,180,43,69,245,976,163,571,Excellent,,Personal,Brick building,,,Central heating,Top floor,G,Premium materials and solutions,Overall,,,,,,
716470,"CZK 13,500",50.08643,14.44441,"Řehořova, Prague - Žižkov",Studio,30 m²,"CZK 3,500",Partially furnished,-2,No,No,Yes,No,No,Yes,No,01. 05. 2022,216,730,475,586,207,697,465,504,546,698,Excellent,"CZK 13,500",Personal,Brick building,,,,,G,,,,,,,,
713968,"CZK 22,575",50.0769346,14.4169603,"Na Zbořenci, Prague - Nové Město",1 bedroom,48 m²,"CZK 7,525",Furnished,1,No,Yes,No,No,No,Yes,No,21. 05. 2022,168,319,99,227,101,409,227,243,632,429,,,,,,,,,,,,,,,,,
715582,"CZK 25,463",50.0848162,14.4690502,"Pitterova, Prague - Žižkov",Studio,50 m²,"CZK 8,487",Furnished,6,Yes,Yes,No,No,No,Yes,Yes,22. 05. 2022,130,178,103,494,73,222,671,527,372,445,,,,,,,,,,,,,,,,,
626683,"CZK 24,000",50.07756,14.406627,"Malátova, Prague - Smíchov",2 bedroom,103 m²,"CZK 2,000",Partially furnished,5,Yes,No,Yes,Yes,No,Yes,No,01. 07. 2022,212,303,252,293,106,346,262,914,734,418,Excellent,"CZK 24,000",Personal,Brick building,,,Gas boiler,Attic,D,,,,,,,,
596203,"CZK 12,700",50.0144,14.58426,"Chorošová, Prague - Pitkovice",Studio,37 m²,"CZK 2,900",Partially furnished,1,Yes,Yes,Yes,No,No,Yes,No,01. 06. 2022,412,,,,,,,,,,New build,"CZK 15,000",Personal,Low-energy building,Yes,1 to 10 years years,Central heating,Ground floor,B,Premium materials and solutions,,,,,41 m²,,
653885,"CZK 12,200",50.04892,14.31268,"Kovářova, Prague - Stodůlky",1 bedroom with open-plan kitchen,45 m²,"CZK 2,800",Partially furnished,2,No,No,No,No,No,No,No,01. 05. 2022,352,473,347,955,278,595,208,307,151,224,Excellent,"CZK 25,000",Personal,Brick building,,,,,G,,,,,,,,
665746,"CZK 26,000",50.10527,14.44355,"Argentinská, Prague - Holešovice",1 bedroom with open-plan kitchen,60 m²,"CZK 3,000",Furnished,7,No,Yes,Yes,No,Yes,Yes,No,01. 05. 2022,185,451,296,464,326,319,626,804,173,345,New build,,Personal,Brick building,Yes,,,,A,,,,,,,,
574766,"CZK 15,000",50.0849718,14.4519607,"Štítného, Prague - Žižkov",1 bedroom with open-plan kitchen,52 m²,"CZK 2,000",Partially furnished,2,No,No,No,No,No,No,No,01. 05. 2022,225,191,70,162,71,165,129,373,246,400,,"CZK 30,000",Personal,Brick building,,,,,,,,,,,,,
698766,"CZK 16,500",50.07717,14.41919,"Karlovo náměstí, Prague - Nové Město",1 bedroom,43 m²,"CZK 1,500",Furnished,,No,No,No,No,No,No,No,25. 04. 2022,51,235,42,74,4,202,262,428,550,377,Excellent,"CZK 33,000",Personal,Brick building,,,,Ground floor,C,,,,,,,,
669105,"CZK 15,000",50.0682814,14.511752,Prague - Strašnice,3 bedroom,68 m²,"CZK 3,660",Partially furnished,1,No,No,Yes,No,Yes,Yes,No,15. 09. 2021,44,141,"1,360",286,217,579,216,"1,046",149,,Excellent,"CZK 40,000",Cooperative,Prefab concrete building,,,District heating,Middle floor,G,,Bathroom unit,,,,,,
716255,"CZK 42,512",50.0928722,14.4500782,"Křižíkova a, Prague - Karlín",5 bedroom,142 m²,"CZK 14,171",Furnished,4,Yes,Yes,No,No,No,Yes,Yes,05. 05. 2022,123,293,167,222,66,246,411,"1,258",283,254,,,,,,,,,,,,,,,,,
714304,"CZK 29,520",50.0861053,14.4085409,"Na Kampě, Prague - Malá Strana",1 bedroom with open-plan kitchen,39 m²,"CZK 9,840",Furnished,3,No,No,No,No,No,No,No,16. 05. 2022,417,407,197,386,62,673,443,555,732,174,,,,,,,,,,,,,,,,,
716254,"CZK 26,918",50.0582813,14.4230267,"Na Dolinách, Prague - Podolí",2 bedroom,80 m²,"CZK 8,972",Furnished,6,Yes,Yes,No,No,No,Yes,No,03. 06. 2022,186,458,318,436,44,435,455,544,404,439,,,,,,,,,,,,,,,,,
678488,"CZK 13,000",50.09024,14.34522,"Na Okraji, Prague - Veleslavín",2 bedroom,53 m²,"CZK 4,000",Furnished,2,No,No,Yes,No,No,No,No,01. 09. 2021,78,384,92,176,181,245,117,210,706,60,Good,"CZK 13,000",Personal,Brick building,,,,,G,,,,,,,,
584586,"CZK 38,000",50.105532,14.392401,"Nikoly Tesly, Prague - Dejvice",2 bedroom,92 m²,"CZK 2,000",Furnished,4,Yes,No,No,No,No,Yes,No,01. 06. 2022,239,994,265,389,186,190,442,489,776,345,Excellent,"CZK 50,000",Personal,Brick building,,1 to 10 years years,Central heating,Middle floor,G,Standard materials and solutions,Overall,,,,,,
532964,"CZK 14,000",49.9987439,14.4309443,"Provázkova ulice, Prague - Modřany",Studio,40 m²,"CZK 3,000",Partially furnished,,No,Yes,Yes,No,No,No,No,06. 05. 2022,186,"1,042",679,662,765,,,,,,,"CZK 20,000",Personal,Brick building,Yes,1 to 10 years years,District heating,Ground floor,B,Premium materials and solutions,,,,,76 m²,,
715965,"CZK 26,933",50.0928722,14.4500782,"Křižíkova a, Prague - Karlín",Studio,50 m²,"CZK 8,977",Furnished,1,No,No,No,No,No,Yes,Yes,01. 06. 2022,123,293,167,222,66,246,411,"1,258",283,254,,,,,,,,,,,,,,,,,
715963,"CZK 30,636",50.0918972,14.4483184,"Křižíkova, Prague - Karlín",1 bedroom with open-plan kitchen,63 m²,"CZK 10,212",Furnished,2,Yes,Yes,No,No,No,Yes,Yes,04. 06. 2022,224,159,75,308,58,360,238,"1,343",368,105,,,,,,,,,,,,,,,,,
715966,"CZK 28,793",50.0918972,14.4483184,"Křižíkova, Prague - Karlín",Studio,44 m²,"CZK 9,597",Furnished,2,No,Yes,No,No,No,Yes,Yes,05. 05. 2022,224,159,75,308,58,360,238,"1,343",368,105,,,,,,,,,,,,,,,,,
715967,"CZK 29,156",50.0918972,14.4483184,"Křižíkova, Prague - Karlín",Studio,44 m²,"CZK 9,718",Furnished,3,No,No,No,No,No,Yes,Yes,05. 05. 2022,224,159,75,308,58,360,238,"1,343",368,105,,,,,,,,,,,,,,,,,
647423,"CZK 16,000",50.071234,14.407889,"Vrázova, Prague - Smíchov",2 bedroom,76 m²,"CZK 3,000",Partially furnished,,No,No,No,No,No,No,No,15. 05. 2022,194,566,107,108,148,383,672,"1,031","1,018",505,Excellent,"CZK 30,000",Personal,Brick building,,,,Raised ground floor,G,,,,,,,,
191761,"CZK 14,600",50.0842085,14.3727813,"Bělohorská, Prague - Břevnov",2 bedroom,52 m²,CZK 700,Partially furnished,3,No,No,No,No,No,No,No,28. 04. 2022,141,651,4,203,11,103,192,461,471,437,Good,"CZK 24,000",Personal,Brick building,,,Electric boiler,Middle floor,,Standard materials and solutions,Overall,,,,,,
710940,"CZK 34,000",50.0959448,14.453085513058,"Rohanské nábřeží, Prague - Karlín",2 bedroom with open-plan kitchen,80 m²,"CZK 5,750",Furnished,5,Yes,No,Yes,No,Yes,Yes,No,01. 05. 2022,327,632,307,307,206,444,677,553,540,,New build,"CZK 20,000",Personal,Prefab concrete building,,1 to 10 years years,District heating,,G,,,,,,,,
715358,"CZK 15,000",50.00861,14.42885,"Rilská, Prague - Modřany",2 bedroom with open-plan kitchen,68 m²,"CZK 7,000",Furnished,10,Yes,No,Yes,No,No,Yes,No,01. 06. 2022,299,934,97,923,125,"1,013",314,360,338,165,Excellent,"CZK 30,000",Personal,Prefab concrete building,,10 to 30 years years,District heating,,C,,,,,,,,
144771,"CZK 18,000",50.0758072,14.4602045,"Čáslavská, Prague - Vinohrady",1 bedroom with open-plan kitchen,66 m²,"CZK 5,500",Partially furnished,2,No,No,Yes,No,No,Yes,No,01. 05. 2022,67,377,64,323,35,278,507,301,557,210,Excellent,"CZK 18,000",Personal,Brick building,,,Gas boiler,Middle floor,,,,,,,,,
659654,"CZK 10,000",50.0754406,14.4923271,Prague - Strašnice,Studio,32 m²,"CZK 2,230",Furnished,3,No,No,No,No,No,No,No,01. 06. 2022,235,115,149,272,125,269,246,414,721,295,Excellent,"CZK 13,000",Personal,Brick building,,,Electric boiler,,G,,,,,,,,
716448,"CZK 14,500",50.06292,14.38006,"Černochova, Prague - Košíře",1 bedroom with open-plan kitchen,47 m²,"CZK 3,500",Partially furnished,6,Yes,No,No,No,Yes,Yes,No,01. 06. 2022,340,"1,246",671,"1,032",660,957,348,"1,229",619,,Excellent,"CZK 14,500",Personal,Brick building,,,,,G,,,,,,,,
649871,"CZK 9,000",50.091464,14.473323,"Koněvova, Prague - Žižkov",Small studio,28 m²,CZK 700,Partially furnished,2,No,No,No,No,No,No,No,01. 06. 2022,120,"1,178",93,151,131,99,217,440,250,313,Excellent,"CZK 18,000",Personal,Brick building,,,Other,Middle floor,G,Standard materials and solutions,Overall,,,,,,
712727,"CZK 19,000",50.05563,14.42088,"Podolská, Prague - Podolí",1 bedroom with open-plan kitchen,50 m²,"CZK 4,000",Partially furnished,,No,No,Yes,No,No,No,No,04. 04. 2022,238,486,271,285,309,483,254,835,279,151,Excellent,"CZK 40,000",Personal,Brick building,,,Gas boiler,Ground floor,G,Premium materials and solutions,Overall,,,,,,
713920,"CZK 86,625",50.0882058,14.4262315,"Rybná, Prague - Staré Město",3 bedroom with open-plan kitchen,150 m²,"CZK 28,875",Furnished,4,No,No,No,No,No,No,No,11. 06. 2022,281,192,58,183,11,368,315,297,289,305,,,,,,,,,,,,,,,,,
716395,"CZK 17,000",50.12684,14.44754,"Třeboradická, Prague - Kobylisy",2 bedroom,65 m²,"CZK 3,000",Partially furnished,3,Yes,No,No,No,No,No,No,02. 05. 2022,354,"1,455",318,643,326,323,582,146,983,193,Excellent,"CZK 30,000",Personal,Brick building,,,,,G,,,,,,,,
621246,"CZK 16,000",50.117855,14.475694,"Na Sypkém, Prague - Libeň",1 bedroom with open-plan kitchen,43 m²,"CZK 2,500",Furnished,3,No,No,No,No,No,No,No,01. 06. 2022,174,"1,483",516,506,775,847,"1,055","1,259",572,,Excellent,"CZK 20,000",,Brick building,,1 to 10 years years,Electric boiler,,C,Premium materials and solutions,Overall,,,,200 m²,,
715724,"CZK 17,500",50.06505,14.55267,"Františka Jansy, Prague - Dolní Měcholupy",1 bedroom with open-plan kitchen,48 m²,"CZK 3,500",Partially furnished,4,No,No,No,Yes,No,Yes,No,25. 04. 2022,178,872,476,395,647,"1,173",837,72,,,New build,"CZK 35,000",Cooperative,Brick building,,,,,A,,,,,,,,
716429,"CZK 31,000",50.07781,14.40239,"Drtinova, Prague - Smíchov",3 bedroom with open-plan kitchen,89 m²,"CZK 3,000",Partially furnished,1,Yes,No,Yes,No,No,No,No,01. 06. 2022,221,424,229,353,40,326,578,851,671,282,Excellent,"CZK 50,000",Personal,Brick building,,,Central heating,Middle floor,G,,Overall,,,,,,
716428,"CZK 16,990",50.10263833333,14.56778277777,"Doležalova, Prague - Černý Most",3 bedroom,76 m²,"CZK 3,560",Unfurnished,4,Yes,No,Yes,No,No,Yes,No,,220,943,175,"1,241",739,751,382,276,"1,275",347,Good,"CZK 20,550",Personal,Prefab concrete building,,,,,G,,,,,,,"CZK 20,550

                                
                                
                
i",
482525,"CZK 18,750",50.086769801288,14.345216747607,"Brunclíkova, Prague - Břevnov",2 bedroom,53 m²,"CZK 4,250",Partially furnished,7,Yes,No,No,No,No,No,No,01. 06. 2022,15,602,259,337,121,355,258,231,636,171,Excellent,"CZK 30,000",Personal,Prefab concrete building,,1 to 10 years years,District heating,Top floor,D,,Overall,,,,,,
695231,"CZK 7,000",50.06129,14.59472,"Netlucká, Prague - Dubeč",Small studio,25 m²,,Furnished,2,No,No,No,No,Yes,No,No,27. 05. 2022,174,953,256,818,584,919,"1,025",,,,Excellent,"CZK 7,000",Personal,Brick building,,1 to 10 years years,Central heating,Attic,A,Premium materials and solutions,Overall,,,,,,
326100,"CZK 9,000",50.0777008,14.4576999,"Vinohradská, Prague - Žižkov",Small studio,30 m²,"CZK 1,500",Partially furnished,4,No,No,No,No,No,No,No,09. 05. 2022,43,433,75,83,83,243,516,593,808,295,,"CZK 10,500",Personal,Brick building,,,District heating,Top floor,G,,,,,,,,
603358,"CZK 16,000",50.108989,14.497986,"Na Břehu, Prague - Vysočany",1 bedroom with open-plan kitchen,54 m²,"CZK 3,500",Furnished,4,Yes,No,Yes,No,No,No,No,01. 06. 2022,238,370,128,234,86,223,696,655,269,320,Excellent,"CZK 32,000",Personal,Brick building,,,Other,Top floor,G,,Overall,,,,,,
715713,"CZK 12,000",50.06851,14.43809,"Perucká, Prague - Vinohrady",Studio,25 m²,"CZK 3,000",Partially furnished,3,No,Yes,No,No,No,No,No,30. 04. 2022,543,662,441,769,469,743,529,451,635,750,New build,"CZK 24,000",Personal,Brick building,,1 to 10 years years,District heating,Middle floor,G,Standard materials and solutions,Overall,,,,,,
714373,"CZK 16,800",50.04842,14.42603,"Pod Pekařkou, Prague - Podolí",1 bedroom with open-plan kitchen,50 m²,"CZK 4,200",Furnished,4,No,No,Yes,No,No,Yes,No,15. 06. 2022,397,"1,349",499,801,268,940,567,671,"1,211",650,Excellent,"CZK 20,000",Personal,Brick building,,,,,C,,,,,,,,
716406,"CZK 31,000",50.04595,14.32223,"Mukařovského, Prague - Stodůlky",2 bedroom with open-plan kitchen,68 m²,CZK 133,Furnished,8,No,Yes,Yes,No,Yes,Yes,No,01. 06. 2022,,,,,,,,,,,Excellent,"CZK 62,000",Personal,Other,Yes,,,,A,,,Luka Residential s.r.o.,Luka Living Rental apartments,814,,,
712480,"CZK 22,000",50.04595,14.32223,"Mukařovského, Prague - Stodůlky",2 bedroom,42 m²,CZK 133,Furnished,13,No,No,Yes,No,Yes,Yes,Yes,22. 07. 2022,,,,,,,,,,,Excellent,"CZK 44,000",Personal,Other,Yes,,,,A,,,Luka Residential s.r.o.,Luka Living Rental apartments,1301,,,
714237,"CZK 36,000",50.04595,14.32223,"Mukařovského, Prague - Stodůlky",2 bedroom with open-plan kitchen,94 m²,CZK 133,Furnished,11,No,Yes,Yes,No,Yes,Yes,Yes,10. 07. 2022,,,,,,,,,,,Excellent,"CZK 72,000",Personal,Other,Yes,,,,A,,,Luka Residential s.r.o.,Luka Living Rental apartments,1115,,,
714245,"CZK 15,900",50.04595,14.32223,"Mukařovského, Prague - Stodůlky",Studio,31 m²,CZK 133,Unfurnished,11,Yes,No,Yes,No,Yes,Yes,No,25. 06. 2022,,,,,,,,,,,Excellent,"CZK 31,800",Personal,Other,Yes,,,,A,,,Luka Residential s.r.o.,Luka Living Rental apartments,1103,,,
714255,"CZK 30,000",50.07202,14.44518,"Francouzská, Prague - Vinohrady",Studio,40 m²,CZK 133,Unfurnished,1,No,Yes,No,No,No,No,No,14. 04. 2022,,,,,,,,,,,Excellent,"CZK 60,000",Personal,Brick building,Yes,,,,A,,,Luka Residential s.r.o.,Luka Living Rental apartments,F003,,,
716403,"CZK 28,000",50.09174,14.44246,"Prvního pluku, Prague - Karlín",1 bedroom with open-plan kitchen,55 m²,"CZK 5,000",Furnished,4,No,No,No,No,No,No,No,23. 05. 2022,208,408,151,207,58,181,363,930,293,284,Excellent,,Personal,Other,,,,,G,,,,,,,,
708045,"CZK 17,000",50.08186,14.41921,"Spálená, Prague - Nové Město",1 bedroom with open-plan kitchen,42 m²,"CZK 1,000",Unfurnished,4,Yes,No,No,No,No,No,No,01. 03. 2022,55,766,79,25,36,129,216,426,136,433,Excellent,"CZK 17,000",Personal,Brick building,,,,,G,,,,,,,,
348494,"CZK 16,500",50.019622,14.4673797,"Muškova, Prague - Kunratice",1 bedroom with open-plan kitchen,60 m²,"CZK 5,000",Partially furnished,1,No,Yes,No,No,No,Yes,Yes,01. 07. 2022,418,"1,389","1,267",212,569,561,"1,500",166,,,,"CZK 30,000",Personal,Brick building,,10 to 30 years years,District heating,Raised ground floor,,,,,,,,,
316188,"CZK 11,900",50.0622893,14.4358679,"Petra Rezka, Prague - Nusle",Studio,32 m²,"CZK 2,000",Furnished,,No,No,No,No,No,No,No,01. 05. 2022,229,592,213,506,104,428,94,423,425,248,,"CZK 12,000",Personal,Brick building,,,Central heating,,F,Standard materials and solutions,,,,,,,
688853,"CZK 7,500",50.07186,14.46305,"Bulharská, Prague - Vršovice",Other,31 m²,"CZK 1,500",Unfurnished,,No,No,No,No,No,No,No,01. 07. 2022,201,860,203,689,182,687,525,419,641,161,Excellent,"CZK 18,000",Personal,Brick building,,,,,G,,,,,,,,
451027,"CZK 19,000",50.0713103,14.4822158,"V Olšinách, Prague - Vršovice",1 bedroom with open-plan kitchen,51 m²,"CZK 4,000",Furnished,2,Yes,No,Yes,No,No,Yes,No,31. 05. 2022,212,485,124,284,224,328,549,388,666,270,Excellent,"CZK 25,000",Personal,Brick building,,,District heating,Middle floor,,Premium materials and solutions,Overall,,,,,,
711808,"CZK 19,500",50.1079,14.54644,"Lehovecká, Prague - Hloubětín",1 bedroom with open-plan kitchen,49 m²,"CZK 4,235",Furnished,6,Yes,No,Yes,No,Yes,Yes,Yes,01. 08. 2022,48,825,83,843,397,816,556,419,"1,060",533,New build,"CZK 19,500",Personal,Brick building,,,,,B,,,,,,,,
713848,"CZK 22,500",50.12666,14.45879,"Pakoměřická, Prague - Kobylisy",3 bedroom,78 m²,"CZK 5,500",Unfurnished,1,Yes,No,Yes,No,No,No,No,01. 05. 2022,159,958,318,610,207,287,456,408,597,428,Excellent,"CZK 45,000",Personal,Brick building,,,Central heating,,C,,Interior,,,,25 m²,,
716384,"CZK 32,000",50.08123,14.42982,"Opletalova, Prague - Nové Město",2 bedroom with open-plan kitchen,77 m²,"CZK 3,000",Partially furnished,7,Yes,No,No,Yes,Yes,Yes,No,02. 05. 2022,333,299,46,200,55,39,271,954,190,583,Excellent,"CZK 50,000",Personal,Brick building,,1 to 10 years years,District heating,Middle floor,G,Premium materials and solutions,Interior,,,,,,
369890,"CZK 15,000",50.107010860053,14.388327912828,"Zelená, Prague - Dejvice",1 bedroom with open-plan kitchen,42 m²,"CZK 3,500",Unfurnished,3,No,No,No,No,No,No,No,,30,"1,308",15,715,145,169,358,259,631,360,Good,"CZK 20,000",Personal,Brick building,,,,,,Premium materials and solutions,,,,,,,
503703,"CZK 14,000",50.0716385,14.4535707,"Estonská, Prague - Vršovice",1 bedroom,34 m²,"CZK 2,006",Unfurnished,5,No,No,No,No,No,No,No,01. 05. 2022,196,708,196,352,163,483,119,252,413,204,Excellent,"CZK 18,000",Personal,Brick building,,1 to 10 years years,Gas boiler,Middle floor,,Standard materials and solutions,Interior,,,,,,
716375,"CZK 25,000",50.0931827,14.5014335,"Učňovská, Prague - Hrdlořezy",2 bedroom with open-plan kitchen,80 m²,"CZK 4,000",Partially furnished,4,Yes,No,No,No,No,Yes,No,01. 05. 2022,257,752,373,"1,102",378,420,608,531,"1,185",363,New build,"CZK 25,000",Personal,Brick building,,,,,A,,,,,,,,
716376,"CZK 9,000",50.0213,14.45822,"Jánošíkova, Prague - Krč",Small studio,27 m²,"CZK 3,500",Partially furnished,3,No,No,No,Yes,No,Yes,No,01. 05. 2022,328,768,645,561,460,509,"1,368",908,667,,Excellent,"CZK 15,000",Personal,Prefab concrete building,,,Central heating,,G,,Overall,,,,,,
474374,"CZK 18,500",50.0895199,14.4891951,"Pod Jarovem, Prague - Žižkov",2 bedroom with open-plan kitchen,72 m²,"CZK 3,000",Partially furnished,3,Yes,No,No,Yes,No,Yes,No,01. 06. 2022,90,422,488,675,266,427,421,594,271,351,,"CZK 30,000",Cooperative,Prefab concrete building,,,,,,,,,,,,,
716373,"CZK 12,800",50.05792,14.49438,"Jetelová, Prague - Záběhlice",1 bedroom,35 m²,"CZK 3,500",Partially furnished,3,No,No,No,No,Yes,Yes,No,01. 06. 2022,99,693,212,968,376,262,392,885,146,206,Excellent,"CZK 15,000",Personal,Prefab concrete building,,,,,G,,,,,,,,
715970,"CZK 15,700",50.067,14.4571,"Minská, Prague - Vršovice",2 bedroom,52 m²,CZK 600,Unfurnished,5,Yes,No,No,No,No,No,No,26. 04. 2022,92,228,89,269,103,360,473,574,389,313,Excellent,"CZK 15,700",Personal,Brick building,,,,,G,,,,,,,,
716372,"CZK 19,000",50.09435,14.49609,"Spojovací, Prague - Žižkov",2 bedroom with open-plan kitchen,60 m²,"CZK 4,000",Partially furnished,4,No,No,Yes,No,No,No,No,01. 07. 2022,128,509,379,828,52,443,416,527,579,176,Excellent,"CZK 25,000",Personal,Brick building,,,,,G,,,,,,,,
680857,"CZK 14,500",50.0698,14.37188,"U Kavalírky, Prague - Košíře",1 bedroom,54 m²,CZK 500,Partially furnished,3,No,No,No,No,No,No,No,01. 02. 2022,37,319,76,51,143,159,418,"1,032",753,86,Excellent,,Personal,Brick building,,,Gas boiler,Top floor,B,,,,,,,,
