Listing ID,Price,Latitude,Longitude,District,Layout,Condition,Floor Space,Fees,Refundable security deposit,Ownership Type,Building Type,Furnishing and Fittings,Balcony,Terrace,Cellar,Loggia,Parking,Lift,Garage,Available from,PENB,Public transport stop,Post office,Shop,Bank,Restaurant,Pharmacy,School,Kindergarten,Sports field,Playground,Floor,New building,Age,Design,Front garden,Heating,Total number of floors,Renovation,Administration fee,Developer name,Project name,Kód jednotky
703807,"CZK 10,500",50.05439,14.44174,"Nad Jezerkou, Prague - Nusle",1 bedroom with open-plan kitchen,Good,43 m²,"CZK 3,600","CZK 14,100",Personal,Brick building,Unfurnished,No,No,No,No,No,No,No,01. 02. 2022,D,66,978,175,413,17,609,314,288,"1,007",262,,,,,,,,,,,,
680095,"CZK 63,113",50.0761284,14.4327244,"Londýnská, Prague - Vinohrady",3 bedroom,,70 m²,"CZK 21,037",,,,Furnished,No,Yes,No,No,No,No,No,27. 01. 2022,,100,264,66,90,3,201,314,391,396,647,3,,,,,,,,,,,
703808,"CZK 46,313",50.0865843,14.4323212,"Dlážděná, Prague - Nové Město",1 bedroom with open-plan kitchen,,60 m²,"CZK 15,437",,,,Furnished,No,No,No,No,No,Yes,No,27. 03. 2022,,110,274,157,129,77,143,300,496,282,367,4,,,,,,,,,,,
680086,"CZK 25,500",50.0901585,14.3426685,"Na Okraji, Prague - Veleslavín",1 bedroom with open-plan kitchen,,90 m²,"CZK 8,500",,,,Furnished,No,No,No,No,No,No,No,27. 01. 2022,,142,547,112,211,216,280,208,0,878,210,1,,,,,,,,,,,
680079,"CZK 56,250",50.0766855,14.4294035,"Sokolská, Prague - Nové Město",1 bedroom with open-plan kitchen,,45 m²,"CZK 18,750",,,,Furnished,No,No,No,No,No,No,No,27. 01. 2022,,212,525,185,151,68,162,317,392,109,262,4,,,,,,,,,,,
700300,"CZK 16,500",50.0266858,14.5304521,"Jurkovičova, Prague - Háje",1 bedroom with open-plan kitchen,New build,52 m²,"CZK 3,000","CZK 20,000",Personal,Brick building,Partially furnished,Yes,No,No,No,Yes,Yes,Yes,24. 01. 2022,B,50,926,334,583,416,657,264,425,717,364,2,,,,,,,,,,,
703802,"CZK 10,500",50.11506,14.56703,"Sicherova, Prague - Kyje",Studio,New build,35 m²,"CZK 2,300","CZK 10,500",Personal,Low-energy building,Partially furnished,Yes,No,No,No,No,Yes,No,25. 01. 2022,B,419,"1,059",834,"1,428","1,337",846,,,,,3,,,,,,,,,,,
703799,"CZK 18,500",50.05919,14.2832,"Milotická, Prague - Zličín",2 bedroom,New build,60 m²,"CZK 4,000","CZK 37,000",Personal,Brick building,Partially furnished,Yes,No,Yes,No,Yes,Yes,No,25. 01. 2022,G,433,756,923,853,710,977,320,"1,022",116,,2,Yes,,,,,,,,,,
703797,"CZK 15,000",50.10727,14.50628,"Za Lidovým domem, Prague - Vysočany",2 bedroom with open-plan kitchen,Excellent,85 m²,"CZK 4,000","CZK 15,000",Personal,Brick building,Furnished,No,Yes,No,No,No,Yes,Yes,01. 02. 2022,C,440,729,431,523,392,688,476,10,804,438,1,,10 to 30 years years,Standard materials and solutions,32 m²,,,,,,,
496946,"CZK 15,000",50.0218224,14.4407186,"Písnická, Prague - Kamýk",2 bedroom,Excellent,66 m²,"CZK 5,000","CZK 20,000",Personal,Prefab concrete building,Unfurnished,No,No,Yes,Yes,No,Yes,No,,,128,674,164,648,722,549,409,412,800,282,4,,,Standard materials and solutions,,District heating,Middle floor,Interior,,,,
703793,"CZK 25,000",50.0556,14.4954,"Hyacintová, Prague - Záběhlice",4 bedroom,Excellent,110 m²,"CZK 6,000","CZK 35,000",Personal,Brick building,Furnished,Yes,No,Yes,No,No,Yes,Yes,01. 02. 2022,G,169,716,288,"1,128",62,189,148,629,204,341,6,,,,,,,,,,,
648799,"CZK 13,800",50.07254,14.394542,"Plzeňská, Prague - Smíchov",1 bedroom,Excellent,34 m²,CZK 700,"CZK 18,000",Personal,Brick building,Partially furnished,No,Yes,No,No,No,No,No,01. 02. 2022,C,105,794,91,485,89,614,235,"1,060",830,357,2,,1 to 10 years years,,,Electric boiler,,Overall,,,,
379118,"CZK 12,100",49.999400230001,14.410353649738,"Benáčanova, Prague - Modřany",Studio,New build,35 m²,"CZK 2,400",,Personal,Brick building,Partially furnished,Yes,No,Yes,No,No,Yes,No,,,61,"1,008",908,"1,103",275,756,893,758,461,221,3,Yes,1 to 10 years years,,,District heating,,,,,,
569427,"CZK 17,000",50.0862158,14.4443522,"Řehořova, Prague - Žižkov",Studio,,34 m²,"CZK 3,000","CZK 17,000",Personal,Brick building,Furnished,No,No,No,No,No,Yes,No,01. 02. 2022,,411,641,400,515,317,608,376,415,469,841,5,,1 to 10 years years,,,Electric boiler,Top floor,Overall,,,,
703788,"CZK 12,941",50.0215761,14.4894951,"Jana Růžičky, Prague - Kunratice",1 bedroom with open-plan kitchen,Good,45 m²,"CZK 3,136","CZK 16,077",Personal,Other,,No,No,No,No,No,No,No,24. 01. 2022,,111,891,165,984,391,184,210,194,471,92,1,,,,,,,,"CZK 1,941",,,
680099,"CZK 29,925",50.0845694,14.4671948,"Pitterova, Prague - Žižkov",1 bedroom with open-plan kitchen,,,"CZK 9,975",,,,Furnished,No,No,No,No,No,Yes,Yes,27. 01. 2022,,221,235,240,630,210,69,520,374,219,292,7,,,,,,,,,,,
688331,"CZK 29,250",50.0830689,14.4668702,"Olšanská d, Prague - Žižkov",1 bedroom with open-plan kitchen,,85 m²,"CZK 9,750",,,,Furnished,No,Yes,No,No,No,Yes,Yes,27. 01. 2022,,213,228,353,747,332,258,643,491,336,409,4,,,,,,,,,,,
703786,"CZK 11,500",50.1057629,14.4769956,"Ronkova, Prague - Libeň",Studio,Good,24 m²,"CZK 1,154","CZK 10,933",Personal,Other,,No,No,No,No,No,No,No,01. 02. 2022,,133,408,192,430,4,361,445,217,434,64,1,,,,,,,,"CZK 1,467",,,
263023,"CZK 12,000",50.0570518499,14.2811066211,"Sazovická, Prague - Zličín",Studio,,33 m²,"CZK 2,500","CZK 14,500",Personal,Brick building,Furnished,Yes,No,No,No,Yes,No,No,,,276,"1,019",939,868,953,993,342,"1,215",175,,4,,,,,,,,,,,
703783,"CZK 18,000",50.0298,14.48466,"Hrabákova, Prague - Chodov",2 bedroom with open-plan kitchen,Excellent,72 m²,"CZK 4,500","CZK 30,000",Cooperative,Prefab concrete building,Partially furnished,No,No,Yes,Yes,No,Yes,No,20. 02. 2022,B,285,465,21,628,245,358,293,666,446,125,5,,,,,,,,,,,
607626,"CZK 35,000",50.10628,14.46818,"Smrčkova, Prague - Libeň",1 bedroom with open-plan kitchen,New build,76 m²,"CZK 4,500","CZK 39,500",Personal,Brick building,Partially furnished,No,Yes,Yes,No,Yes,Yes,Yes,01. 04. 2022,B,608,"1,396",719,810,364,731,571,"1,222",253,367,,Yes,1 to 10 years years,Premium materials and solutions,,,Ground floor,,,,,
688580,"CZK 12,900",50.0378,14.33674,"Bašteckého, Prague - Stodůlky",1 bedroom with open-plan kitchen,Excellent,56 m²,"CZK 4,240","CZK 26,000",Personal,Brick building,Furnished,No,No,Yes,No,No,Yes,No,17. 10. 2021,G,260,630,239,843,103,502,192,564,112,74,1,,,Standard materials and solutions,,Central heating,Raised ground floor,,,,,
695370,"CZK 29,700",50.0739894,14.440101,"Francouzská, Prague - Vinohrady",2 bedroom,,92 m²,"CZK 9,900",,,,Furnished,No,Yes,No,No,No,Yes,No,27. 01. 2022,,149,274,60,441,20,421,59,552,690,457,7,,,,,,,,,,,
703776,"CZK 9,000",50.0384812,14.5624117,"Rezlerova, Prague - Petrovice",2 bedroom with open-plan kitchen,,67 m²,"CZK 3,000",,,,Furnished,No,No,No,No,No,Yes,No,27. 01. 2022,,224,428,391,353,407,414,360,454,764,51,5,,,,,,,,,,,
398657,"CZK 15,900",50.0560071,14.446201,"U Družstva Život, Prague - Nusle",1 bedroom with open-plan kitchen,,56 m²,CZK 927,"CZK 15,900",Personal,Brick building,Partially furnished,No,No,No,No,No,No,No,,,362,967,113,521,349,959,264,180,844,345,3,,1 to 10 years years,Premium materials and solutions,,,,Overall,,,,
672559,"CZK 20,500",50.0477662,14.4642496,Prague - Michle,2 bedroom,New build,61 m²,"CZK 4,000",,Personal,Brick building,Partially furnished,No,Yes,Yes,No,Yes,Yes,No,16. 08. 2021,G,348,764,349,826,340,811,101,136,621,325,1,Yes,,,45 m²,Central heating,Ground floor,,,,,
703772,"CZK 11,000",49.9670426,14.383874,"Tunelářů, Prague - Zbraslav",2 bedroom with open-plan kitchen,Good,68 m²,"CZK 7,000","CZK 20,000",Cooperative,Prefab concrete building,Partially furnished,No,No,Yes,Yes,No,Yes,No,01. 02. 2022,B,200,"1,354",196,129,273,606,468,116,,,2,,,,,,,,,,,
703771,"CZK 13,000",50.0716753,14.3708825,"Nad Buďánkami ​Ⅰ, Prague - Smíchov",1 bedroom with open-plan kitchen,Excellent,40 m²,CZK 450,"CZK 13,000",Personal,Brick building,Furnished,No,No,Yes,No,No,No,No,01. 03. 2022,D,338,546,315,699,567,594,792,"1,073",511,502,1,,,Standard materials and solutions,,Gas boiler,Middle floor,Overall,,,,
703767,"CZK 14,000",50.03565,14.33923,"Janského, Prague - Stodůlky",1 bedroom with open-plan kitchen,Excellent,45 m²,"CZK 3,750","CZK 28,000",Personal,Prefab concrete building,Furnished,No,No,Yes,No,No,Yes,No,01. 02. 2022,G,265,291,238,"1,144",374,251,69,167,383,170,3,,,,,District heating,,Overall,,,,
624657,"CZK 36,000",50.094842,14.464376,"Molákova, Prague - Karlín",4 bedroom with open-plan kitchen,Excellent,110 m²,"CZK 6,000","CZK 30,000",Personal,Prefab concrete building,Furnished,No,No,Yes,No,No,Yes,No,25. 01. 2022,G,348,"1,409",373,"1,019",285,882,160,698,932,329,5,,,Premium materials and solutions,,District heating,,Overall,,,,
690503,"CZK 26,400",50.0779159,14.4375296,"Vinohradská, Prague - Vinohrady",1 bedroom with open-plan kitchen,,40 m²,"CZK 8,800",,,,Furnished,No,No,No,No,No,Yes,No,27. 01. 2022,,75,316,151,67,35,51,260,350,400,731,7,,,,,,,,,,,
690488,"CZK 18,000",50.0820746,14.482309,"Na Třebešíně, Prague - Strašnice",1 bedroom with open-plan kitchen,,46 m²,"CZK 6,000",,,,Furnished,No,No,No,No,No,No,No,27. 01. 2022,,211,"1,258",662,"1,150",181,848,"1,132",609,96,214,1,,,,,,,,,,,
703624,"CZK 13,000",50.1266889,14.505251,"Kytlická, Prague - Prosek",1 bedroom with open-plan kitchen,Excellent,60 m²,"CZK 3,000","CZK 16,000",Personal,Brick building,Partially furnished,No,No,Yes,Yes,No,Yes,No,01. 02. 2022,A,305,926,187,955,395,"1,070",179,601,"1,439",228,1,,,,,,,,,,,
703761,"CZK 12,500",50.03556,14.41117,"Zelinářská, Prague - Braník",1 bedroom with open-plan kitchen,Excellent,44 m²,CZK 800,"CZK 12,000",Personal,Brick building,Partially furnished,No,No,No,No,No,No,No,01. 02. 2022,G,178,359,220,154,278,389,196,"1,176",207,,2,,,,,,,,,,,
703754,"CZK 11,500",50.01114,14.45032,"Smotlachova, Prague - Kamýk",1 bedroom with open-plan kitchen,Excellent,49 m²,"CZK 3,000","CZK 14,500",Personal,Prefab concrete building,Partially furnished,No,No,No,No,No,Yes,No,25. 01. 2022,D,386,"1,062",433,528,"1,113",702,917,568,132,,6,,,,,,,,,,,
700262,"CZK 8,000",50.0830792,14.3637665,"8. listopadu, Prague - Břevnov",Small studio,Good,25 m²,"CZK 2,900","CZK 19,000",Personal,Brick building,Partially furnished,No,No,No,No,No,No,No,20. 01. 2022,G,137,224,88,91,16,259,251,752,169,220,-1,,,,,,,,,,,
700615,"CZK 19,000",50.09525,14.50889,"Mezilehlá, Prague - Hrdlořezy",1 bedroom with open-plan kitchen,New build,55 m²,"CZK 6,700","CZK 20,000",Personal,Brick building,Furnished,Yes,Yes,Yes,No,No,Yes,Yes,01. 03. 2022,G,189,499,654,463,962,728,"1,279","1,091",262,,1,,,,,,,,,,,
700154,"CZK 9,800",50.12683,14.46463,Prague - Kobylisy,Studio,Good,23 m²,"CZK 3,000","CZK 20,000",Personal,Prefab concrete building,Partially furnished,No,No,No,No,No,Yes,No,01. 02. 2022,G,269,510,258,278,243,472,163,205,823,210,13,,,,,District heating,Middle floor,,,,,
681224,"CZK 9,000",50.07048,14.39916,"Mrázovka, Prague - Smíchov",Small studio,Excellent,18 m²,"CZK 2,000","CZK 9,000",Other,Brick building,Furnished,No,No,No,No,No,No,No,01. 09. 2021,G,329,258,251,246,225,307,73,726,713,232,-1,,,,,,,,,,,
703747,"CZK 18,900",50.10102,14.42628,"Veletržní, Prague - Bubeneč",2 bedroom with open-plan kitchen,Excellent,73 m²,"CZK 2,000","CZK 18,900",Personal,Brick building,Partially furnished,No,No,No,No,No,Yes,No,01. 02. 2022,G,251,309,119,188,72,50,302,115,497,,3,,,,,,,,,,,
700259,"CZK 20,000",50.10428,14.45279,"Přístavní, Prague - Holešovice",3 bedroom,Good,98 m²,"CZK 6,000","CZK 40,000",Personal,Brick building,Furnished,No,No,No,No,No,Yes,No,01. 02. 2022,G,126,494,83,189,70,195,635,598,291,363,5,,,,,,,,,,,
680081,"CZK 33,750",50.0800377,14.4184609,"Opatovická, Prague - Nové Město",1 bedroom,,,"CZK 11,250",,,,Furnished,No,No,No,No,No,No,No,27. 01. 2022,,208,625,166,256,8,279,151,489,199,646,3,,,,,,,,,,,
691037,"CZK 41,625",50.0806286,14.4175374,"Ostrovní, Prague - Nové Město",3 bedroom with open-plan kitchen,,112 m²,"CZK 13,875",,,,Furnished,No,Yes,No,No,No,Yes,No,27. 01. 2022,,168,738,31,217,8,217,106,336,114,565,4,,,,,,,,,,,
630075,"CZK 11,900",50.132957,14.434955,"Pekařova, Prague - Bohnice",Studio,New build,36 m²,"CZK 2,100","CZK 24,000",Personal,Brick building,Partially furnished,Yes,Yes,No,No,Yes,No,No,Ihned,B,407,437,262,418,959,836,491,336,310,,3,Yes,1 to 10 years years,Standard materials and solutions,,Gas boiler,Top floor,,,,,
703740,"CZK 12,000",50.06017,14.42715,"Mikuláše z Husi, Prague - Nusle",Studio,Good,29 m²,CZK 500,"CZK 12,000",Personal,Brick building,Partially furnished,No,No,No,No,No,No,No,27. 01. 2022,D,9,649,93,298,53,393,470,139,99,309,2,,,,,,,,,,,
703739,"CZK 18,500",50.05954,14.42121,"Pod Vyšehradem, Prague - Podolí",3 bedroom,Excellent,105 m²,"CZK 7,500","CZK 10,000",Personal,Brick building,Partially furnished,No,No,Yes,No,No,No,No,01. 02. 2022,G,74,128,68,161,122,75,280,570,513,170,5,,,,,,,,,,,
695001,"CZK 16,000",50.101841946188,14.452939237593,"Tusarova, Prague - Holešovice",1 bedroom with open-plan kitchen,New build,45 m²,"CZK 3,000","CZK 16,000",Personal,Brick building,Furnished,No,No,No,No,No,Yes,No,01. 01. 2022,B,181,539,89,261,7,198,400,363,176,277,4,,,,,,,,,,,
696032,"CZK 25,000",50.07848,14.42791,"Krakovská, Prague - Nové Město",1 bedroom with open-plan kitchen,Excellent,58 m²,"CZK 3,800","CZK 50,000",Personal,Brick building,Furnished,No,No,No,No,Yes,Yes,No,04. 01. 2022,G,243,661,215,230,104,322,458,539,202,445,4,,1 to 10 years years,Premium materials and solutions,,Central heating,Middle floor,Overall,,,,
689177,"CZK 19,000",50.07306,14.43085,"Tyršova, Prague - Nové Město",1 bedroom with open-plan kitchen,Excellent,34 m²,"CZK 3,600","CZK 38,000",Personal,Brick building,Furnished,No,No,No,No,No,Yes,No,01. 03. 2022,G,183,529,119,213,30,197,368,453,637,687,4,,,,,,,,,,,
698920,"CZK 15,000",50.04736,14.30975,"Vlachova, Prague - Stodůlky",1 bedroom with open-plan kitchen,Excellent,50 m²,"CZK 3,500",,Cooperative,Prefab concrete building,Furnished,No,No,Yes,Yes,No,Yes,No,11. 01. 2022,G,345,300,195,"1,153",105,612,523,166,278,26,2,,,,,,,,,,,
698562,"CZK 16,500",50.09064,14.47279,"Buchovcova, Prague - Žižkov",1 bedroom with open-plan kitchen,New build,37 m²,"CZK 2,500","CZK 33,000",Personal,Brick building,Furnished,No,No,Yes,No,No,Yes,No,17. 01. 2022,G,227,"1,032",108,296,61,119,353,307,395,321,6,,1 to 10 years years,Standard materials and solutions,,Gas boiler,Top floor,,,,,
664545,"CZK 11,900",50.10117,14.36018,"Tobrucká, Prague - Vokovice",Studio,Excellent,35 m²,"CZK 3,000","CZK 14,900",Personal,Prefab concrete building,Furnished,No,No,No,No,No,Yes,No,01. 10. 2021,G,523,733,612,593,503,623,437,344,"1,218",113,5,,,,,,,,,,,
703728,"CZK 14,500",50.09937,14.43645,"Antonínská, Prague - Holešovice",2 bedroom,Excellent,47 m²,"CZK 3,400","CZK 20,000",Personal,Brick building,Partially furnished,Yes,No,Yes,No,No,Yes,No,01. 03. 2022,G,147,"1,015",165,218,191,127,173,"1,247",540,709,4,,,,,Central heating,Middle floor,,,,,
695878,"CZK 14,000",50.10655,14.44807,"Poupětova, Prague - Holešovice",Studio,Excellent,43 m²,"CZK 4,000","CZK 14,000",Personal,Brick building,Furnished,Yes,No,Yes,No,No,Yes,No,12. 12. 2021,A,227,435,138,327,192,341,357,789,409,342,5,,,,,,,,,,,
434137,"CZK 15,000",50.039087,14.423027,"Zelený pruh, Prague - Braník",1 bedroom with open-plan kitchen,Excellent,77 m²,"CZK 2,000","CZK 20,000",Personal,Brick building,Partially furnished,No,No,No,No,Yes,No,No,01. 01. 2022,D,11,"1,173",709,"1,180",176,"1,119",945,852,"1,241",139,3,,1 to 10 years years,Standard materials and solutions,,Gas boiler,Attic,Interior,,,,
129979,"CZK 18,500",50.0775642,14.4239107,"Školská, Prague - Nové Město",2 bedroom,,70 m²,"CZK 4,000","CZK 37,000",Personal,Brick building,Furnished,No,No,No,No,No,No,No,16. 01. 2022,,173,601,24,304,52,294,218,354,350,291,2,,10 to 30 years years,Standard materials and solutions,,Gas boiler,Middle floor,Interior,,,,
696819,"CZK 27,000",50.10938,14.37939,"Na Zavadilce, Prague - Dejvice",3 bedroom,Excellent,115 m²,CZK 550,"CZK 27,000",Personal,Brick building,Partially furnished,No,No,Yes,Yes,Yes,No,No,01. 01. 1970,G,204,452,"1,443",518,876,531,472,763,482,,1,,,,800 m²,Gas boiler,,Interior,,,,
598101,"CZK 32,000",50.132957,14.434955,"Pekařova, Prague - Bohnice",2 bedroom with open-plan kitchen,New build,85 m²,"CZK 5,000","CZK 50,000",Personal,Brick building,Furnished,Yes,Yes,Yes,No,Yes,No,Yes,01. 04. 2022,A,407,437,262,418,959,836,491,336,310,,1,Yes,,Premium materials and solutions,96 m²,Gas boiler,Ground floor,,,,,
697991,"CZK 20,306",50.0739772,14.4306534,"Legerova, Prague - Vinohrady",Studio,,38 m²,"CZK 6,769",,,,Furnished,No,No,No,No,No,No,No,27. 01. 2022,,132,574,130,206,94,143,358,427,494,560,2,,,,,,,,,,,
694839,"CZK 36,000",50.0940007,14.4535929,"Sokolovská a, Prague - Karlín",1 bedroom with open-plan kitchen,,62 m²,"CZK 12,000",,,,Furnished,Yes,No,No,No,No,Yes,Yes,01. 02. 2022,,109,421,13,160,21,228,518,"1,364",384,467,4,,,,,,,,,,,
703715,"CZK 15,900",50.09219,14.44872,"Karlínské náměstí, Prague - Karlín",1 bedroom,Excellent,59 m²,"CZK 2,400","CZK 16,300",Personal,Brick building,Partially furnished,No,No,No,No,No,Yes,No,25. 01. 2022,D,199,102,64,307,45,331,240,"1,332",358,91,4,,,,,,,,,,,
703714,"CZK 17,000",50.11498,14.62655,"Ve Žlíbku, Prague - Horní Počernice",2 bedroom with open-plan kitchen,Excellent,80 m²,"CZK 5,000","CZK 17,000",Personal,Brick building,Furnished,Yes,Yes,No,No,No,No,No,01. 02. 2022,B,206,"1,466",533,785,229,901,423,639,,,2,,,,,,,,,,,
699862,"CZK 25,000",50.11031,14.38019,"Na Špitálce, Prague - Dejvice",2 bedroom with open-plan kitchen,Good,78 m²,"CZK 1,547","CZK 25,000",Personal,Brick building,Unfurnished,No,No,Yes,No,No,No,No,18. 01. 2022,G,150,283,348,940,595,303,709,651,,,2,,,Standard materials and solutions,,Gas boiler,Top floor,,,,,
465579,"CZK 19,000",50.0887865,14.4671627,"Žerotínova, Prague - Žižkov",2 bedroom,Excellent,70 m²,CZK 550,"CZK 30,000",Personal,Brick building,Furnished,Yes,No,No,No,No,Yes,No,01. 01. 2022,B,165,729,52,150,161,178,401,424,370,262,2,,,,,Other,,Overall,,,,
703712,"CZK 17,500",50.06745,14.40788,"Na Valentince, Prague - Smíchov",1 bedroom with open-plan kitchen,New build,"4,783 m²","CZK 2,500","CZK 35,000",Personal,Other,Unfurnished,No,Yes,No,No,No,Yes,No,01. 02. 2022,G,132,600,326,571,182,496,845,"1,083",589,338,4,,,,,,,,,,,
314904,"CZK 16,000",50.1016462,14.4183555,"Jana Zajíce, Prague - Bubeneč",2 bedroom with open-plan kitchen,,78 m²,"CZK 6,700",,Personal,Brick building,Partially furnished,No,No,No,No,No,Yes,No,,,114,449,111,328,101,534,199,153,309,,2,,,,,Gas boiler,Middle floor,,,,,
222235,"CZK 7,000",50.0989676,14.3460997,"V středu, Prague - Vokovice",1 bedroom,,23 m²,"CZK 2,000","CZK 10,000",Personal,Brick building,Furnished,No,No,No,No,No,No,No,,D,308,"1,320",222,"1,005",86,469,301,347,207,125,1,,,Standard materials and solutions,,Central heating,Ground floor,,,,,
543569,"CZK 12,900",50.0704284,14.4512084,"Košická, Prague - Vršovice",Studio,Excellent,45 m²,"CZK 1,600","CZK 25,800",Personal,Brick building,Unfurnished,No,No,Yes,No,No,Yes,No,01. 03. 2022,,126,555,100,102,59,417,178,355,334,272,3,,1 to 10 years years,Standard materials and solutions,,Gas boiler,Middle floor,Overall,,,,
680045,"CZK 32,250",50.079465,14.4353199,"Mánesova, Prague - Vinohrady",1 bedroom,,57 m²,"CZK 10,750",,,,Furnished,No,No,No,No,No,Yes,No,27. 01. 2022,,156,408,244,342,59,242,281,281,533,788,5,,,,,,,,,,,
703707,"CZK 10,000",50.02978,14.44976,"Štúrova, Prague - Krč",Studio,Excellent,26 m²,"CZK 2,800","CZK 10,000",Personal,Prefab concrete building,Furnished,No,No,No,No,No,No,No,26. 01. 2022,G,124,"1,295",188,113,701,843,"1,175",560,381,,1,,,,,,,,,,,
644492,"CZK 9,450",50.101787,14.507409,"Poděbradská, Prague - Vysočany",Studio,New build,35 m²,"CZK 3,450","CZK 16,350",Personal,Brick building,Furnished,No,No,No,No,Yes,Yes,No,20. 01. 2022,G,86,"1,261",369,860,414,742,371,"1,187","1,377",781,2,Yes,1 to 10 years years,Premium materials and solutions,,Central heating,Middle floor,Overall,,,,
703700,"CZK 17,500",50.10811,14.44456,"Plynární, Prague - Holešovice",1 bedroom with open-plan kitchen,Excellent,57 m²,"CZK 4,000","CZK 17,500",Personal,Brick building,Partially furnished,No,No,Yes,No,No,No,No,25. 01. 2022,C,168,658,261,670,72,147,351,"1,013",379,279,2,,,,,,,,,,,
696244,"CZK 49,000",50.07906,14.44976,"Laubova, Prague - Vinohrady",3 bedroom,Excellent,118 m²,"CZK 6,000","CZK 55,000",Personal,Brick building,Partially furnished,No,Yes,No,No,Yes,Yes,No,01. 01. 2022,D,209,273,39,272,113,301,142,267,694,169,4,,,,,,,,,,,
630457,"CZK 9,000",50.071753,14.431997,"Lublaňská, Prague - Nové Město",Small studio,Good,25 m²,"CZK 3,000",,Other,Brick building,Furnished,No,No,No,No,No,No,No,12. 10. 2020,E,216,344,70,346,22,280,306,274,647,724,2,,,,,,,,,,,
616136,"CZK 13,000",50.061735,14.362174,"Naskové, Prague - Košíře",Small studio,New build,30 m²,"CZK 2,000","CZK 15,000",Personal,Brick building,Unfurnished,No,Yes,No,No,No,Yes,No,01. 02. 2022,B,268,"1,191","1,185",882,"1,278",546,388,811,250,,,,1 to 10 years years,Premium materials and solutions,39 m²,District heating,Ground floor,,,,,
703693,"CZK 32,000",50.05779,14.45373,"Týmlova, Prague - Michle",3 bedroom with open-plan kitchen,Excellent,121 m²,"CZK 3,600","CZK 60,000",Personal,Brick building,Partially furnished,No,No,No,No,No,No,No,15. 03. 2022,G,336,697,550,366,114,"1,160",343,643,229,299,2,Yes,,,,,,,,,,
700313,"CZK 17,500",50.0905,14.47422,"Biskupcova, Prague - Žižkov",1 bedroom with open-plan kitchen,Excellent,45 m²,"CZK 1,000","CZK 25,000",Personal,Brick building,Furnished,No,No,Yes,No,No,Yes,No,24. 01. 2022,G,169,"1,035",158,235,39,140,297,356,334,397,4,,,,,,,,,,,
703690,"CZK 32,000",50.10432,14.44973,"Komunardů, Prague - Holešovice",2 bedroom with open-plan kitchen,New build,106 m²,"CZK 3,700","CZK 71,400",Personal,Other,Partially furnished,No,Yes,No,No,Yes,Yes,No,01. 02. 2022,B,51,136,81,98,51,102,448,410,288,391,4,,,,,,,,,,,
703689,"CZK 8,000",50.07485,14.49166,"Nad Primaskou, Prague - Strašnice",Small studio,Excellent,19 m²,"CZK 1,800","CZK 9,800",Personal,Brick building,Unfurnished,No,No,Yes,No,No,No,No,01. 03. 2022,G,145,226,123,194,139,170,134,452,649,183,3,,,,,,,,,,,
623917,"CZK 9,950",50.071962,14.432714,"Koubkova, Prague - Vinohrady",Small studio,New build,20 m²,"CZK 2,950","CZK 12,900",Personal,Brick building,Furnished,Yes,No,No,No,No,Yes,Yes,05. 07. 2021,G,155,283,79,285,75,329,300,213,645,732,3,,1 to 10 years years,Premium materials and solutions,,Central heating,Middle floor,Overall,,,,
3423,"CZK 24,000",50.066621,14.434258,"Rejskova, Prague - Vinohrady",3 bedroom,Excellent,110 m²,"CZK 4,000","CZK 35,000",Personal,Brick building,Furnished,No,No,Yes,Yes,No,Yes,No,01. 01. 2022,,310,586,307,720,267,522,375,428,293,413,5,,1 to 10 years years,Standard materials and solutions,20 m²,Gas boiler,Middle floor,Overall,,,,
699629,"CZK 12,000",50.1072,14.43865,"Za Papírnou, Prague - Holešovice",Studio,Excellent,34 m²,"CZK 2,000","CZK 12,000",Personal,Brick building,Partially furnished,No,No,Yes,No,No,No,No,01. 02. 2022,G,199,"1,081",449,"1,119",289,398,231,"1,289",452,383,5,,,,,,,,,,,
695957,"CZK 13,900",50.04257,14.44224,"Krčská, Prague - Krč",2 bedroom,Excellent,67 m²,"CZK 1,400","CZK 27,800",Personal,Brick building,Partially furnished,No,No,Yes,No,No,No,No,01. 01. 1970,G,240,223,273,437,194,256,488,269,737,273,4,,,,,District heating,Top floor,,,,,
703686,"CZK 14,800",50.0852,14.37356,"Mládeže, Prague - Břevnov",1 bedroom with open-plan kitchen,Excellent,60 m²,"CZK 3,600","CZK 28,000",Personal,Brick building,Partially furnished,No,No,No,No,No,Yes,No,01. 02. 2022,G,176,793,266,456,252,159,187,292,464,347,4,,,Standard materials and solutions,,Central heating,Middle floor,,,,,
699775,"CZK 18,500",50.10432,14.44973,"Komunardů, Prague - Holešovice",Studio,New build,48 m²,"CZK 2,785","CZK 42,570",Personal,Other,Furnished,No,Yes,No,No,Yes,Yes,No,01. 02. 2022,B,51,136,81,98,51,102,448,410,288,391,2,,1 to 10 years years,Premium materials and solutions,,,,,,,,
489262,"CZK 14,000",50.0214212,14.3597803,"Dominínská, Prague - Slivenec",2 bedroom,Excellent,83 m²,"CZK 4,000","CZK 20,000",Personal,Brick building,Furnished,No,No,No,No,No,No,No,01. 01. 2022,C,115,640,294,228,534,455,,,,,2,,1 to 10 years years,Standard materials and solutions,,Geothermal heat pump,Top floor,Overall,,,,
613482,"CZK 13,000",50.069526,14.369954,"Pod Kavalírkou, Prague - Košíře",1 bedroom,Excellent,62 m²,"CZK 3,000","CZK 13,000",Personal,Brick building,Partially furnished,No,No,No,No,No,No,No,04. 04. 2022,G,125,488,133,221,31,118,264,"1,202",584,120,5,,,Standard materials and solutions,,,Attic,,,,,
694841,"CZK 26,078",50.0940007,14.4535929,"Sokolovská a, Prague - Karlín",Studio,,34 m²,"CZK 8,693",,,,Furnished,Yes,No,No,No,No,Yes,Yes,01. 02. 2022,,109,421,13,160,21,228,518,"1,364",384,467,6,,,,,,,,,,,
537847,"CZK 8,500",50.1504574,14.5846082,"Krasnická, Prague - Vinoř",Small studio,Excellent,21 m²,CZK 1,"CZK 8,500",Personal,Brick building,Furnished,No,No,No,No,Yes,No,No,01. 01. 2022,,286,"1,197",851,"1,236",947,697,637,"1,026",709,,,,,Standard materials and solutions,,Other,Ground floor,Overall,,,,
572011,"CZK 16,500",50.0796951,14.4226227,"Vodičkova, Prague - Nové Město",Studio,Excellent,35 m²,"CZK 1,500","CZK 18,000",Personal,Brick building,Furnished,No,No,No,No,No,Yes,No,01. 02. 2022,D,32,662,17,27,49,163,134,701,448,424,4,,,,,,,,,,,
537551,"CZK 7,500",50.109462,14.5024246,Prague - Vysočany,Studio,,31 m²,"CZK 3,500","CZK 11,000",Cooperative,Brick building,Partially furnished,No,No,No,No,No,No,No,15. 02. 2022,G,194,280,118,125,234,239,169,364,339,324,1,,,,,,,,,,,
703677,"CZK 18,000",50.10831,14.48244,"Nad Kolčavkou, Prague - Libeň",2 bedroom with open-plan kitchen,Good,70 m²,"CZK 4,000","CZK 22,000",Personal,Brick building,Partially furnished,No,No,No,No,No,Yes,No,01. 02. 2022,G,454,862,459,529,6,865,319,722,575,399,4,,,,,,,,,,,
545404,"CZK 21,500",50.0723281,14.4350983,"Londýnská, Prague - Vinohrady",2 bedroom with open-plan kitchen,,87 m²,"CZK 3,500",,Personal,Brick building,Partially furnished,No,Yes,No,No,No,No,No,04. 01. 2022,D,169,130,65,316,9,306,144,93,829,910,2,,,,,Central heating,Middle floor,Interior,,,,
703659,"CZK 15,000",50.08293,14.42064,"Národní, Prague - Staré Město",Studio,Excellent,55 m²,"CZK 3,000","CZK 15,000",Personal,Other,Partially furnished,No,No,No,No,No,Yes,No,25. 01. 2022,B,117,691,113,149,0,66,155,535,209,341,5,,,,,,,,,,,
703675,"CZK 22,990",50.09054,14.42611,"Dlouhá, Prague - Staré Město",1 bedroom with open-plan kitchen,Excellent,49 m²,"CZK 1,800","CZK 49,580",Personal,Brick building,Furnished,No,No,Yes,No,No,Yes,No,01. 02. 2022,G,77,200,48,62,30,211,200,222,145,196,1,,,,,,,,,,,
700227,"CZK 16,000",50.079,14.42528,"Štěpánská, Prague - Nové Město",1 bedroom with open-plan kitchen,Excellent,42 m²,"CZK 1,779","CZK 18,000",Other,Brick building,Partially furnished,Yes,No,No,No,No,No,No,01. 02. 2022,G,314,807,157,289,3,288,326,476,580,413,3,,over 50 years years,Premium materials and solutions,,Central heating,Middle floor,Interior,,,,
691841,"CZK 16,000",50.07776,14.46294,"Vinohradská, Prague - Vinohrady",2 bedroom,Excellent,63 m²,"CZK 4,480","CZK 25,000",Personal,Brick building,Partially furnished,Yes,No,No,No,No,Yes,No,01. 12. 2021,G,46,118,107,77,41,153,378,558,423,253,3,,,,,,,,,,,
696736,"CZK 16,000",50.07776,14.46294,"Vinohradská, Prague - Vinohrady",1 bedroom with open-plan kitchen,Excellent,55 m²,"CZK 3,780","CZK 25,000",Personal,Brick building,Partially furnished,No,No,No,No,No,Yes,No,01. 01. 2022,G,46,118,107,77,41,153,378,558,423,253,2,,,,,,,,,,,
698884,"CZK 27,500",50.07758,14.4459,"U Kanálky, Prague - Vinohrady",3 bedroom,Excellent,87 m²,CZK 500,"CZK 27,500",Personal,Brick building,Partially furnished,No,No,No,No,No,Yes,No,25. 01. 2022,E,256,553,74,361,6,244,328,140,375,258,5,,,,,,,,,,,
703670,"CZK 12,800",50.1035754,14.5757951,"Ocelkova, Prague - Černý Most",1 bedroom with open-plan kitchen,Excellent,44 m²,"CZK 3,300","CZK 12,800",Personal,Prefab concrete building,Furnished,Yes,No,No,No,No,Yes,No,26. 01. 2022,G,0,"1,184",338,735,340,612,633,516,433,,7,,,,,,,,,,,
684713,"CZK 32,000",50.0762,14.45144,"Slezská, Prague - Vinohrady",2 bedroom with open-plan kitchen,Excellent,70 m²,"CZK 1,500","CZK 50,000",Other,Brick building,Partially furnished,Yes,No,Yes,No,No,Yes,No,01. 01. 2022,G,183,249,190,183,58,185,229,295,673,271,3,,over 50 years years,Premium materials and solutions,,Gas boiler,Middle floor,Overall,,,,
177850,"CZK 14,400",50.055162,14.4410036,"Spolupráce, Prague - Nusle",2 bedroom,Excellent,52 m²,"CZK 3,600","CZK 20,000",Personal,Brick building,Partially furnished,Yes,No,Yes,No,No,Yes,No,26. 02. 2022,,170,"1,082",272,518,148,532,411,385,707,268,4,,,,,Central heating,Middle floor,,,,,
700216,"CZK 32,000",50.07162,14.40618,"Na Bělidle, Prague - Smíchov",1 bedroom with open-plan kitchen,Excellent,75 m²,"CZK 3,000","CZK 32,000",Personal,Brick building,Furnished,No,No,Yes,No,No,Yes,Yes,01. 02. 2022,G,152,499,49,172,34,250,593,"1,073","1,203",601,5,,,,,,,,,,,
700345,"CZK 20,000",50.083958,14.420392780518,Prague - Staré Město,1 bedroom with open-plan kitchen,Excellent,47 m²,"CZK 5,000","CZK 20,000",Personal,Brick building,Unfurnished,No,Yes,No,No,No,No,No,01. 02. 2022,G,273,569,38,200,48,127,61,664,302,361,3,,,,,,,,,,,
671688,"CZK 14,000",50.12485,14.53217,"Mladoboleslavská, Prague - Kbely",1 bedroom with open-plan kitchen,Excellent,50 m²,"CZK 3,500","CZK 20,000",Personal,Brick building,Furnished,No,No,Yes,No,Yes,No,No,01. 02. 2022,G,70,"1,307",,,,,,,,,1,,1 to 10 years years,Premium materials and solutions,,Central heating,Middle floor,Interior,,,,
325575,"CZK 16,500",50.020505,14.4661497,"Za valem, Prague - Kunratice",1 bedroom with open-plan kitchen,Excellent,54 m²,"CZK 3,000",,Personal,Brick building,Partially furnished,Yes,No,Yes,No,No,No,Yes,,C,282,"1,238","1,115",60,418,652,160,,,,2,,,,,Central heating,,,,,,
657007,"CZK 11,000",50.0291787,14.4506539,Prague - Krč,Studio,Excellent,27 m²,"CZK 3,200","CZK 20,000",Personal,Prefab concrete building,Partially furnished,No,No,No,No,Yes,Yes,No,01. 03. 2022,C,69,"1,240",280,57,704,788,"1,119",504,325,,10,,,,,District heating,,Interior,,,,
628513,"CZK 17,500",50.105935,14.448337,"U Měšťanského pivovaru, Prague - Holešovice",Studio,Excellent,54 m²,"CZK 2,500","CZK 35,000",Personal,Other,Furnished,No,No,No,No,Yes,Yes,Yes,01. 04. 2022,G,227,372,155,229,114,233,419,691,402,508,,,10 to 30 years years,Premium materials and solutions,,District heating,Raised ground floor,Interior,,,,
703657,"CZK 14,000",50.10818,14.50386,"U Vysočanského pivovaru, Prague - Vysočany",2 bedroom,Excellent,54 m²,"CZK 5,000","CZK 19,000",Personal,Brick building,Partially furnished,Yes,No,No,No,No,No,No,01. 02. 2022,G,359,445,284,215,165,405,168,143,500,320,3,,,,,,,,,,,
630680,"CZK 12,000",50.066011,14.358758,"Nad Zámečkem, Prague - Košíře",Studio,Excellent,33 m²,"CZK 1,900",,Personal,Brick building,Partially furnished,No,Yes,Yes,No,No,No,No,01. 02. 2022,G,247,"1,001","1,157",324,"1,050",872,463,348,576,,,,,,25 m²,,Ground floor,Overall,,,,
699206,"CZK 16,000",50.11047,14.45104,"Jankovcova, Prague - Holešovice",Studio,New build,34 m²,"CZK 2,100","CZK 18,100",Personal,Other,Furnished,No,No,No,No,Yes,No,No,01. 02. 2022,G,20,950,490,763,452,549,406,"1,225",679,370,2,,,,,,,,,,,
346444,"CZK 12,600",50.0478658367,14.5569324349,"Boloňská, Prague - Horní Měcholupy",Studio,Excellent,33 m²,"CZK 3,000","CZK 20,000",Personal,Brick building,Partially furnished,Yes,No,Yes,No,No,Yes,No,,C,35,844,178,921,286,988,492,344,633,275,5,,,,,District heating,Top floor,,,,,
700101,"CZK 5,950",49.98491,14.36412,"Vrážská, Prague - Radotín",Small studio,Excellent,19 m²,"CZK 1,950","CZK 7,900",Personal,Other,Furnished,No,No,No,No,Yes,Yes,No,19. 01. 2022,G,40,616,32,26,160,36,571,607,424,338,1,,1 to 10 years years,Standard materials and solutions,,Central heating,Ground floor,Bathroom unit,,,,
681607,"CZK 24,500",50.04595,14.32223,"Mukařovského, Prague - Stodůlky",2 bedroom with open-plan kitchen,New build,67 m²,CZK 133,"CZK 49,000",Personal,Other,Furnished,No,Yes,Yes,No,Yes,Yes,No,01. 12. 2021,A,,,,,,,,,,,1308,Yes,1 to 10 years years,Premium materials and solutions,,District heating,Middle floor,,,Luka Residential s.r.o.,Luka Living Rental apartments,1308
440606,"CZK 13,800",50.1304875,14.4503029,"Balabánova, Prague - Kobylisy",1 bedroom with open-plan kitchen,,50 m²,"CZK 2,700","CZK 12,000",Personal,Prefab concrete building,Furnished,Yes,No,No,Yes,No,No,No,01. 01. 2022,,204,224,875,465,514,781,424,"1,336",132,,7,,,,,District heating,Top floor,Overall,,,,
703651,"CZK 13,000",50.09295,14.44927,"Sokolovská, Prague - Karlín",1 bedroom with open-plan kitchen,Excellent,40 m²,"CZK 2,900","CZK 14,900",Personal,Brick building,Partially furnished,No,No,No,No,Yes,Yes,No,25. 01. 2022,B,112,91,156,174,7,276,433,"1,408",432,137,4,,,,,,,,,,,
688231,"CZK 12,900",50.07568,14.48993,"Kralická, Prague - Strašnice",1 bedroom with open-plan kitchen,Excellent,51 m²,"CZK 1,050","CZK 20,000",Personal,Brick building,Unfurnished,Yes,No,No,No,No,No,No,01. 02. 2022,G,34,234,64,150,8,192,154,585,671,199,3,,,,,,,,,,,
703629,"CZK 16,500",50.08154,14.44702,"Kubelíkova, Prague - Žižkov",2 bedroom,Excellent,48 m²,"CZK 3,000","CZK 25,000",Personal,Brick building,Partially furnished,No,No,No,No,No,Yes,No,01. 02. 2022,G,558,407,42,501,6,75,304,289,615,381,2,,,,,,,,,,,
695853,"CZK 15,000",50.098175,14.4055829,"Muchova, Prague - Dejvice",Studio,Excellent,35 m²,"CZK 3,900","CZK 18,900",Personal,Brick building,Furnished,No,No,No,No,No,No,No,17. 01. 2022,G,49,770,106,189,97,190,340,993,128,458,3,,,,,Gas boiler,Middle floor,,,,,
399585,"CZK 13,500",50.1457833,14.4415677,"Spořická, Prague - Dolní Chabry",Studio,,39 m²,"CZK 2,334","CZK 13,500",Personal,Prefab concrete building,Furnished,No,No,Yes,No,Yes,No,Yes,,,23,870,89,339,930,91,599,118,,,1,,,,,,,,,,,
694677,"CZK 37,365",50.0907943,14.427063,"Dlouhá, Prague - Staré Město",2 bedroom,,46 m²,"CZK 12,455",,,,Furnished,No,No,No,No,No,Yes,No,28. 02. 2022,,2,191,16,48,1,127,128,306,209,259,2,,,,,,,,,,,
694835,"CZK 26,078",50.0940007,14.4535929,"Sokolovská a, Prague - Karlín",Studio,,30 m²,"CZK 8,693",,,,Furnished,No,No,No,No,No,Yes,Yes,01. 02. 2022,,109,421,13,160,21,228,518,"1,364",384,467,5,,,,,,,,,,,
703548,"CZK 16,000",50.04705,14.46074,"Michelská, Prague - Michle",2 bedroom with open-plan kitchen,Excellent,65 m²,"CZK 4,000","CZK 16,000",Personal,Brick building,Partially furnished,No,No,No,No,No,No,No,25. 01. 2022,B,223,574,79,636,3,634,385,392,351,249,3,,,,,,,,,,,
669336,"CZK 20,300",50.04595,14.32223,"Mukařovského, Prague - Stodůlky",1 bedroom with open-plan kitchen,Excellent,50 m²,CZK 133,"CZK 40,600",Personal,Other,Furnished,No,Yes,Yes,No,Yes,Yes,No,07. 02. 2022,A,,,,,,,,,,,13,Yes,1 to 10 years years,Premium materials and solutions,,,Middle floor,,,Luka Residential s.r.o.,Luka Living Rental apartments,1304
700382,"CZK 18,500",50.0204964,14.4029624,"Šífařská, Prague - Hodkovičky",1 bedroom with open-plan kitchen,New build,55 m²,"CZK 3,500","CZK 35,000",Personal,Other,Partially furnished,Yes,No,Yes,Yes,No,Yes,Yes,01. 02. 2022,C,456,622,"1,217",407,"1,143",,,,,,1,,,,,,,,,,,
696837,"CZK 32,063",50.0877117,14.4091678,"U Lužického semináře, Prague - Malá Strana",2 bedroom,,56 m²,"CZK 10,687",,,,Furnished,No,Yes,No,No,No,No,No,13. 02. 2022,,337,356,19,335,43,634,392,362,865,215,1,,,,,,,,,,,
239222,"CZK 13,000",50.1450753,14.4498921,"Prunéřovská, Prague - Dolní Chabry",1 bedroom,Good,37 m²,"CZK 1,100","CZK 15,000",Personal,Brick building,Furnished,No,Yes,No,No,No,No,No,28. 02. 2022,C,191,274,226,123,203,"1,035",970,340,,,,,1 to 10 years years,Standard materials and solutions,500 m²,Central heating,Ground floor,,,,,
657850,"CZK 9,000",50.05177,14.45294,"Ohradní, Prague - Michle",1 bedroom with open-plan kitchen,Excellent,45 m²,"CZK 4,500","CZK 30,000",Cooperative,Prefab concrete building,Partially furnished,No,No,Yes,No,No,Yes,No,14. 02. 2022,C,155,521,169,782,159,743,198,218,844,543,5,,,,,District heating,,,,,,
464320,"CZK 8,000",50.035795,14.4152888,"Na Vinohradu, Prague - Braník",Studio,,25 m²,"CZK 4,500","CZK 16,000",Personal,Brick building,Furnished,No,No,No,No,No,No,No,17. 12. 2021,,201,453,103,198,139,225,243,516,,,1,,,,,,,,,,,
700316,"CZK 15,675",50.0911536,14.4863128,"Pod Lipami, Prague - Žižkov",1 bedroom with open-plan kitchen,,42 m²,"CZK 5,225",,,,Furnished,No,Yes,No,No,No,Yes,No,27. 01. 2022,,190,536,174,198,224,241,65,241,332,349,7,,,,,,,,,,,
695336,"CZK 18,926",50.0668274,14.3966153,"U Nikolajky, Prague - Smíchov",Studio,,35 m²,"CZK 6,309",,,,Furnished,Yes,Yes,No,No,No,Yes,Yes,01. 03. 2022,,234,341,228,706,128,428,324,536,546,328,1,,,,,,,,,,,
696751,"CZK 12,495",50.0855201,14.4494539,"Štítného, Prague - Žižkov",Studio,,25 m²,"CZK 4,165",,,,Furnished,No,No,No,No,No,No,No,21. 02. 2022,,273,239,86,246,43,207,26,255,111,588,1,,,,,,,,,,,
697467,"CZK 19,594",50.073131,14.3495147,"Weberova, Prague - Motol",2 bedroom with open-plan kitchen,,88 m²,"CZK 6,531",,,,Furnished,Yes,No,No,No,No,No,No,01. 03. 2022,,119,339,291,422,812,875,662,,,,2,,,,,,,,,,,
682341,"CZK 21,000",50.0729545,14.4412201,"Jana Masaryka, Prague - Vinohrady",1 bedroom,,45 m²,"CZK 7,000",,,,Furnished,No,No,No,No,No,Yes,Yes,27. 01. 2022,,41,255,33,612,69,567,246,441,558,371,4,,,,,,,,,,,
316708,"CZK 11,000",50.0244951,14.4545258,"Hurbanova, Prague - Krč",1 bedroom with open-plan kitchen,,36 m²,"CZK 2,500","CZK 13,000",Cooperative,Prefab concrete building,Partially furnished,Yes,No,No,No,No,No,No,,,353,863,339,419,398,595,"1,304",362,311,,6,,,,,District heating,Middle floor,Overall,,,,
682349,"CZK 37,500",50.0372353,14.482405,"Hněvkovská, Prague - Chodov",3 bedroom,,80 m²,"CZK 12,500",,,,Furnished,Yes,No,No,No,No,No,No,27. 01. 2022,,469,"1,480",408,"1,340",370,"1,305",889,"1,194",334,309,2,,,,,,,,,,,
688966,"CZK 18,900",50.0723321,14.4399493,"Jana Masaryka, Prague - Vinohrady",1 bedroom,,49 m²,"CZK 6,300",,,,Furnished,No,No,No,No,No,Yes,No,27. 01. 2022,,155,369,147,651,45,545,205,328,671,484,3,,,,,,,,,,,
690577,"CZK 22,500",50.0633339,14.4440155,"Mečislavova, Prague - Nusle",1 bedroom with open-plan kitchen,,56 m²,"CZK 7,500",,,,Furnished,No,No,No,No,No,Yes,No,27. 01. 2022,,243,541,100,272,177,315,457,820,635,594,5,,,,,,,,,,,
703632,"CZK 15,990",50.03329555555,14.52759111111,"Emilie Hyblerové, Prague - Háje",3 bedroom,Excellent,70 m²,"CZK 3,698","CZK 19,688",Personal,Prefab concrete building,Unfurnished,Yes,No,No,No,No,Yes,No,,C,88,557,244,251,134,46,365,187,195,134,2,,,,,,,,"CZK 19,688

                                
                                
                
i",,,
680016,"CZK 24,750",50.0771423,14.417396,"Na Zbořenci, Prague - Nové Město",1 bedroom,,35 m²,"CZK 8,250",,,,Furnished,No,No,No,No,No,No,No,27. 01. 2022,,127,382,112,188,72,409,281,298,590,484,1,,,,,,,,,,,
700311,"CZK 33,000",50.0626569,14.3913498,"Xaveriova, Prague - Smíchov",4 bedroom,,102 m²,"CZK 11,000",,,,Furnished,Yes,No,No,No,No,No,No,27. 01. 2022,,188,955,416,742,203,"1,118",820,240,504,294,2,,,,,,,,,,,
703630,"CZK 18,990",50.14239166666,14.43428722222,"Žalovská, Prague - Čimice",3 bedroom,Excellent,75 m²,"CZK 5,565","CZK 24,555",Cooperative,Prefab concrete building,Unfurnished,Yes,No,No,No,No,Yes,No,,G,367,571,605,285,589,694,641,190,,,2,,,,,,,,"CZK 24,555

                                
                                
                
i",,,
703618,"CZK 13,000",50.14038,14.51949,"Škrábkových, Prague - Letňany",Studio,New build,42 m²,"CZK 3,000","CZK 25,000",Personal,Brick building,Furnished,Yes,No,No,No,Yes,Yes,No,01. 02. 2022,B,414,586,"1,083","1,173",264,710,986,"1,017","1,220",258,3,,1 to 10 years years,Standard materials and solutions,,District heating,Middle floor,,,,,
699667,"CZK 34,500",50.08581,14.46733,"Pitterova, Prague - Žižkov",1 bedroom with open-plan kitchen,New build,106 m²,"CZK 7,500","CZK 35,000",Personal,Other,Furnished,No,Yes,No,No,Yes,Yes,No,01. 03. 2022,C,414,428,459,605,193,334,656,302,197,59,13,,,,,,,,,,,
700192,"CZK 7,000",50.06046,14.40131,"Nad Koulkou, Prague - Smíchov",Small studio,Excellent,15 m²,CZK 750,"CZK 14,000",Personal,Brick building,Partially furnished,No,No,No,No,No,No,No,01. 02. 2022,G,147,824,190,"1,078",134,327,754,875,816,693,3,,,,,,,,,,,
677254,"CZK 10,000",50.10648,14.47317,"náměstí Dr. Václava Holého, Prague - Libeň",Small studio,New build,20 m²,"CZK 2,600","CZK 12,600",Personal,Brick building,Furnished,No,No,Yes,No,No,Yes,No,28. 02. 2022,G,127,682,73,167,115,185,141,485,288,263,4,Yes,,,,Central heating,Middle floor,Overall,,,,
680006,"CZK 60,000",50.0822886,14.4155231,"Karoliny Světlé, Prague - Staré Město",2 bedroom with open-plan kitchen,,90 m²,"CZK 20,000",,,,Furnished,No,No,No,No,No,Yes,No,27. 01. 2022,,462,817,70,468,89,510,489,683,411,400,3,,,,,,,,,,,
703621,"CZK 21,000",50.07136,14.34778,"Kudrnova, Prague - Motol",1 bedroom with open-plan kitchen,Excellent,87 m²,"CZK 6,000","CZK 42,000",Personal,Brick building,Partially furnished,No,Yes,Yes,No,No,Yes,Yes,14. 02. 2022,C,397,30,36,442,"1,023",677,642,,,,4,,,,,,,,,,,
703620,"CZK 14,000",50.00346,14.46193,"Výletní, Prague - Písnice",1 bedroom with open-plan kitchen,Excellent,44 m²,"CZK 3,300","CZK 42,000",Personal,Prefab concrete building,Partially furnished,No,No,No,No,No,Yes,No,24. 01. 2022,D,243,794,174,156,421,425,888,,,,1,,,,,,,,,,,
311099,"CZK 10,700",50.0733438,14.3949207,"Grafická, Prague - Smíchov",Studio,Excellent,36 m²,"CZK 3,000","CZK 13,000",Personal,Brick building,Partially furnished,No,No,No,No,No,Yes,No,24. 01. 2022,,203,842,95,533,75,624,17,"1,048",891,349,2,,,Standard materials and solutions,,Central heating,Middle floor,,,,,
703607,"CZK 11,200",50.0550346,14.4913301,"V Korytech, Prague - Záběhlice",1 bedroom with open-plan kitchen,Excellent,33 m²,CZK 700,"CZK 11,900",Personal,Brick building,Partially furnished,No,No,No,No,No,No,No,25. 01. 2022,G,165,916,184,"1,271",354,389,382,864,206,285,3,,,,,,,,,,,
703615,"CZK 12,990",50.1101475,14.44603222222,"Jankovcova, Prague - Holešovice",Studio,New build,34 m²,"CZK 1,883","CZK 14,873",Personal,Other,Unfurnished,Yes,No,No,No,No,Yes,No,,B,174,972,361,905,423,507,345,"1,333",738,313,2,Yes,,,,,,,"CZK 14,873

                                
                                
                
i",,,
703610,"CZK 14,900",50.07828,14.5085,"Limuzská, Prague - Strašnice",1 bedroom with open-plan kitchen,New build,42 m²,"CZK 3,000","CZK 15,000",Personal,Prefab concrete building,Partially furnished,Yes,No,Yes,No,No,Yes,No,10. 02. 2022,G,53,915,509,892,124,768,934,"1,058","1,195",526,1,,,,,,,,,,,
625021,"CZK 12,500",50.043126,14.324921,"Bellušova, Prague - Stodůlky",1 bedroom with open-plan kitchen,Excellent,43 m²,"CZK 3,500","CZK 25,000",Personal,Prefab concrete building,Partially furnished,No,No,No,No,No,Yes,No,14. 02. 2022,G,292,684,322,271,425,287,513,307,300,232,12,,,,,District heating,Top floor,Overall,,,,
703606,"CZK 13,000",50.0396,14.55988,"Lessnerova, Prague - Petrovice",1 bedroom with open-plan kitchen,Excellent,43 m²,"CZK 2,500","CZK 39,000",Personal,Prefab concrete building,Partially furnished,No,No,Yes,No,Yes,Yes,No,01. 02. 2022,A,95,196,132,161,230,141,304,398,759,126,6,,,,,,,,,,,
647732,"CZK 6,500",50.066928,14.450498,"Sámova, Prague - Vršovice",Studio,Good,28 m²,CZK 800,"CZK 7,300",Personal,Brick building,Partially furnished,No,Yes,No,No,No,No,No,01. 02. 2022,D,270,493,217,344,168,115,226,275,264,350,1,,1 to 10 years years,,,District heating,Middle floor,,,,,
703604,"CZK 24,500",50.13726,14.5225,"Nepomuckých, Prague - Letňany",2 bedroom with open-plan kitchen,New build,76 m²,"CZK 3,500","CZK 25,000",Personal,Brick building,Furnished,Yes,No,Yes,No,Yes,Yes,Yes,01. 03. 2022,A,183,549,"1,204","1,116",611,653,942,"1,466","1,204",394,1,,,,,,,,,,,
703601,"CZK 8,000",50.1388568,14.505870185587,"Křivoklátská, Prague - Letňany",Studio,Good,28 m²,"CZK 2,500","CZK 8,000",Personal,Prefab concrete building,Partially furnished,No,No,Yes,Yes,No,Yes,No,25. 01. 2022,B,101,828,3,578,368,225,233,588,555,47,9,,,,,,,,,,,
690086,"CZK 12,000",50.00216,14.43193,"Urbánkova, Prague - Modřany",1 bedroom with open-plan kitchen,Excellent,46 m²,"CZK 4,200","CZK 24,000",Personal,Prefab concrete building,Partially furnished,No,No,Yes,Yes,Yes,Yes,No,01. 02. 2022,E,485,"1,473","1,304",715,220,161,"1,069",144,,,9,,,,,,,,,,,
693716,"CZK 24,750",50.0778888,14.4403889,"Mánesova, Prague - Vinohrady",Studio,,60 m²,"CZK 8,250",,,,Furnished,No,No,No,No,No,Yes,No,19. 02. 2022,,229,544,212,97,87,308,108,378,237,578,7,,,,,,,,,,,
703595,"CZK 15,000",50.1040152,14.5088524,"Pod Harfou, Prague - Vysočany",1 bedroom with open-plan kitchen,New build,67 m²,"CZK 4,700","CZK 30,000",Personal,Brick building,Furnished,Yes,No,No,No,Yes,Yes,Yes,24. 01. 2022,C,436,134,"1,215",709,"1,038","1,351","1,074",162,,,1,,1 to 10 years years,Standard materials and solutions,,Central heating,Middle floor,,,,,
652153,"CZK 7,900",50.071528,14.430216,"Fügnerovo náměstí, Prague - Nové Město",Studio,Excellent,25 m²,"CZK 4,100","CZK 3,000",Personal,Brick building,Furnished,No,No,No,No,Yes,Yes,Yes,13. 01. 2022,C,210,499,175,346,159,239,220,429,661,519,3,,1 to 10 years years,Premium materials and solutions,,Central heating,Middle floor,Overall,,,,
700479,"CZK 15,500",50.14011,14.44645,"U Traktorky, Prague - Dolní Chabry",Studio,New build,40 m²,"CZK 2,000",,Personal,Brick building,Partially furnished,No,No,No,No,No,No,No,22. 01. 2022,B,451,"1,030",,,,,,,,,,Yes,1 to 10 years years,Standard materials and solutions,40 m²,Central heating,Ground floor,,,,,
204133,"CZK 16,000",50.0341378,14.3201522,"Koterovská, Prague - Řeporyje",1 bedroom with open-plan kitchen,Excellent,56 m²,"CZK 2,500","CZK 32,000",Personal,Brick building,Furnished,No,Yes,No,No,Yes,No,No,01. 03. 2022,,547,655,"1,295",697,581,"1,307","1,463","1,229",711,,,,1 to 10 years years,,25 m²,Geothermal heat pump,Ground floor,,,,,
699644,"CZK 18,800",50.09638,14.36052,"Kladenská, Prague - Vokovice",2 bedroom,Excellent,60 m²,"CZK 3,250","CZK 37,600",Personal,Brick building,Partially furnished,No,No,No,No,No,No,No,01. 02. 2022,G,247,161,21,236,45,78,314,458,"1,260",300,2,,,,,,,,,,,
700158,"CZK 30,000",50.07441,14.40607,"Matoušova, Prague - Smíchov",3 bedroom with open-plan kitchen,Excellent,144 m²,"CZK 1,000","CZK 40,000",Personal,Brick building,Partially furnished,No,No,No,No,No,Yes,No,20. 01. 2022,G,244,165,123,219,36,346,256,"1,101","1,023",476,7,,,,,,,,,,,
680054,"CZK 36,000",50.079465,14.4353199,"Mánesova, Prague - Vinohrady",Studio,,45 m²,"CZK 12,000",,,,Furnished,No,No,No,No,No,Yes,No,27. 01. 2022,,156,408,244,342,59,242,281,281,533,788,1,,,,,,,,,,,
703587,"CZK 17,000",50.08688,14.46863,"Malešická, Prague - Žižkov",1 bedroom with open-plan kitchen,Excellent,43 m²,CZK 785,"CZK 34,000",Personal,Brick building,Furnished,No,Yes,No,No,No,No,No,01. 02. 2022,G,147,436,80,227,105,370,403,349,368,388,4,,,,,,,,,,,
646231,"CZK 15,000",50.077868,14.498054,"Vrátkovská, Prague - Strašnice",2 bedroom,Excellent,52 m²,"CZK 4,500","CZK 14,000",Personal,Prefab concrete building,Partially furnished,Yes,No,No,No,No,No,No,01. 02. 2022,B,297,594,183,534,274,488,587,574,"1,296",195,2,,,,,District heating,,Bathroom unit,,,,
703584,"CZK 14,000",50.01262,14.40006,"Vorařská, Prague - Modřany",Studio,Excellent,48 m²,"CZK 4,000","CZK 14,000",Personal,Other,Furnished,No,No,No,Yes,Yes,Yes,No,25. 01. 2022,G,226,"1,106",443,"1,350",768,"1,411","1,360",690,,,5,,,,,,,,,,,
539021,"CZK 24,900",50.1092799,14.4747869,Prague - Libeň,3 bedroom,Excellent,80 m²,"CZK 2,950","CZK 28,000",Personal,Brick building,Furnished,Yes,No,No,No,No,No,No,25. 01. 2019,C,215,918,187,537,407,265,316,650,283,166,5,,,Premium materials and solutions,,Gas boiler,Middle floor,Overall,,,,
543330,"CZK 20,000",50.1181974,14.4896202,Prague - Prosek,3 bedroom,Excellent,77 m²,"CZK 3,500","CZK 35,000",Personal,Brick building,Partially furnished,No,Yes,No,No,No,No,No,01. 03. 2022,,129,968,313,872,432,567,206,336,747,93,1,,1 to 10 years years,,,District heating,Middle floor,,,,,
683482,"CZK 15,000",50.07496,14.45826,"Korunní, Prague - Vinohrady",Studio,Excellent,34 m²,"CZK 2,447",,Personal,Low-energy building,Partially furnished,Yes,No,No,No,No,Yes,No,24. 01. 2022,B,426,877,458,761,164,705,649,264,915,528,5,,1 to 10 years years,Premium materials and solutions,,Central heating,,,,,,
365933,"CZK 11,000",50.0701958,14.4617404,"Kodaňská, Prague - Vršovice",1 bedroom with open-plan kitchen,,41 m²,"CZK 2,450","CZK 11,000",Personal,Brick building,Furnished,No,No,No,No,No,No,No,05. 02. 2022,C,126,727,145,409,139,544,178,223,772,427,3,,,Standard materials and solutions,,,,,,,,
703579,"CZK 18,750",50.0829631,14.4479332,"Bořivojova, Prague - Žižkov",2 bedroom,,74 m²,"CZK 6,250",,,,Furnished,No,No,No,No,No,Yes,No,01. 02. 2022,,434,296,137,323,76,146,181,288,456,478,4,,,,,,,,,,,
181848,"CZK 10,000",50.0558028,14.4213572,"Levá, Prague - Podolí",Studio,,35 m²,"CZK 3,950","CZK 15,000",Personal,Brick building,Furnished,No,No,No,No,No,No,No,,,259,493,319,266,305,490,205,787,328,168,,,,,,,,,,,,
451899,"CZK 14,800",50.0772723,14.4690776,"Kouřimská, Prague - Vinohrady",1 bedroom with open-plan kitchen,,55 m²,"CZK 3,200","CZK 20,000",Personal,Brick building,,No,No,No,No,No,No,No,01. 04. 2020,,193,504,71,161,196,145,160,921,282,176,2,,,,,District heating,,,,,,
698066,"CZK 1,200",50.08159,14.42553,"Vodičkova, Prague - Nové Město",Other,Good,20 m²,CZK 300,,Other,Other,Partially furnished,No,No,No,No,No,No,No,12. 01. 2022,G,16,375,196,0,13,11,256,877,148,402,5,,1 to 10 years years,Standard materials and solutions,,District heating,Top floor,,,,,
693515,"CZK 14,219",50.046684,14.4391279,"Na Strži, Prague - Krč",1 bedroom with open-plan kitchen,Good,43 m²,"CZK 2,935","CZK 17,000",Personal,Other,,No,No,No,No,No,No,No,16. 11. 2021,,65,417,271,541,289,567,274,397,344,83,1,,,,,,,,,,,
691990,"CZK 16,600",50.05393,14.44023,"5. května, Prague - Nusle",1 bedroom with open-plan kitchen,Good,47 m²,"CZK 3,823","CZK 21,000",,Other,,No,No,No,No,Yes,No,No,01. 12. 2021,,40,177,122,399,130,154,109,657,647,271,1,,,,,,,,,,,
691991,"CZK 18,000",50.05393,14.44023,"5. května, Prague - Nusle",1 bedroom with open-plan kitchen,Good,65 m²,"CZK 4,927","CZK 25,000",,Other,,No,No,No,No,Yes,No,No,24. 11. 2021,,40,177,122,399,130,154,109,657,647,271,1,,,,,,,,,,,
667571,"CZK 15,294",50.068,14.49942,"Dubečská, Prague - Strašnice",2 bedroom,Good,72 m²,"CZK 3,350","CZK 18,500",Personal,Brick building,Partially furnished,No,No,Yes,No,No,No,No,13. 01. 2022,B,340,"1,260",145,"1,049",285,141,374,200,827,72,5,,,,,,,,,,,
693750,"CZK 8,500",50.0596988,14.4971062,"Narcisová, Prague - Záběhlice",Small studio,Good,21 m²,"CZK 2,146","CZK 11,200",Personal,Other,,No,No,No,No,No,No,No,18. 11. 2021,,367,700,403,739,645,431,561,761,501,235,1,,,,,,,,,,,
691965,"CZK 19,000",50.0112896,14.5466177,"Formanská, Prague - Újezd u Průhonic",1 bedroom with open-plan kitchen,Good,52 m²,"CZK 3,224","CZK 23,224",,Other,,No,No,No,No,No,No,No,05. 11. 2021,,175,142,219,762,188,,,,,,1,,,,,,,,,,,
699396,"CZK 21,176",50.1044198,14.5680273,"Jíchova, Prague - Černý Most",3 bedroom with open-plan kitchen,Good,98 m²,"CZK 3,416","CZK 24,592",Cooperative,Other,,No,No,No,No,No,No,No,01. 12. 2021,,333,897,185,"1,034",681,418,284,229,"1,200",300,1,,,,,,,,"CZK 3,176",,,
694790,"CZK 23,000",50.0529129,14.3417717,"Dominova, Prague - Stodůlky",4 bedroom with open-plan kitchen,Good,119 m²,"CZK 5,000","CZK 30,605",Personal,Other,,No,No,No,No,No,No,No,01. 11. 2021,,298,375,408,381,384,372,264,129,"1,127",15,1,,,,,,,,,,,
690798,"CZK 15,882",50.0857,14.46994,"Jana Želivského, Prague - Žižkov",2 bedroom,Good,77 m²,"CZK 3,908","CZK 19,790",Personal,Brick building,Furnished,Yes,No,No,No,No,Yes,No,25. 01. 2022,B,49,265,93,323,123,403,499,427,464,489,1,,,,,,,,,,,
694143,"CZK 14,118",50.0812798,14.4589888,"Křišťanova, Prague - Žižkov",1 bedroom with open-plan kitchen,Good,48 m²,"CZK 1,998","CZK 16,116",Personal,Other,,No,No,No,No,No,No,No,30. 11. 2021,,150,606,253,208,189,649,384,209,457,460,1,,,,,,,,,,,
698757,"CZK 11,800",50.0485817,14.4886408,"Bojanovická, Prague - Záběhlice",1 bedroom,Good,38 m²,"CZK 3,157","CZK 15,000",Personal,Other,,No,No,No,No,No,No,No,01. 02. 2022,,134,343,229,284,106,"1,370",82,352,926,354,1,,,,,,,,,,,
700623,"CZK 13,141",50.048449,14.425548,"Pod Pekařkou, Prague - Podolí",1 bedroom with open-plan kitchen,Good,48 m²,"CZK 2,404","CZK 15,545",Personal,Other,,No,No,No,No,No,No,No,10. 01. 2022,,433,"1,385",535,837,304,976,603,707,"1,128",584,1,,,,,,,,"CZK 1,971",,,
182372,"CZK 9,000",50.1131897,14.4753639,Prague - Libeň,Studio,,36 m²,"CZK 2,288","CZK 13,000",Personal,Brick building,Partially furnished,No,No,No,No,No,Yes,No,24. 01. 2022,C,147,82,"1,034",185,543,277,"1,232",680,144,,3,Yes,,,,District heating,,,,,,
699392,"CZK 25,834",50.0372335,14.5076748,"Donovalská, Prague - Chodov",3 bedroom,Good,90 m²,"CZK 3,251","CZK 29,085",Personal,Other,,Yes,No,Yes,No,No,No,No,10. 01. 2022,,91,842,183,263,420,425,414,258,142,,3,,,,,,,,"CZK 3,875",,,
703566,"CZK 10,000",50.1353406,14.5094973,"Bohumínská, Prague - Letňany",Studio,Excellent,41 m²,"CZK 3,000","CZK 13,000",Personal,Prefab concrete building,Furnished,No,No,No,No,No,No,No,01. 02. 2022,C,83,698,254,510,233,176,256,512,155,253,1,,,,,,,,,,,
703544,"CZK 19,000",50.08467,14.3721,"Pod Drinopolem, Prague - Břevnov",2 bedroom,Excellent,65 m²,"CZK 2,000","CZK 19,000",Personal,Brick building,Furnished,Yes,No,No,No,Yes,Yes,No,31. 01. 2022,G,243,579,310,393,239,203,231,258,508,391,3,,,,,,,,,,,
703564,"CZK 12,500",50.0404355,14.5687256,"Modenská, Prague - Horní Měcholupy",Studio,New build,30 m²,"CZK 2,500","CZK 15,000",Personal,Brick building,Furnished,Yes,No,Yes,Yes,Yes,Yes,No,01. 03. 2022,G,284,930,537,742,610,445,496,601,"1,296",405,12,,,,,,,,,,,
703565,"CZK 11,500",50.05894,14.4527,"Magistrů, Prague - Michle",Studio,New build,30 m²,"CZK 3,000","CZK 14,500",Personal,Brick building,Furnished,Yes,No,No,No,No,Yes,No,24. 01. 2022,G,227,724,358,306,137,950,151,421,496,246,2,,,,,,,,,,,
700464,"CZK 17,400",50.0628,14.44798,"U Křížku, Prague - Nusle",2 bedroom with open-plan kitchen,Good,70 m²,"CZK 2,500","CZK 28,000",Personal,Brick building,Partially furnished,No,No,No,No,No,Yes,No,01. 02. 2022,G,240,797,280,508,255,547,693,566,837,624,2,,,,,,,,,,,
543101,"CZK 17,000",50.130119640622,14.49470390318,"Zakšínská, Prague - Střížkov",1 bedroom with open-plan kitchen,,52 m²,"CZK 3,500","CZK 34,000",Personal,Brick building,Partially furnished,Yes,No,No,No,No,No,No,01. 03. 2022,B,392,"1,016",268,990,627,527,516,441,"1,208",60,2,Yes,1 to 10 years years,Standard materials and solutions,,District heating,Middle floor,,,,,
602076,"CZK 9,500",50.074975,14.41715,"Václavská, Prague - Nové Město",Studio,Excellent,17 m²,"CZK 2,000","CZK 11,500",Personal,Brick building,Furnished,No,No,No,No,No,Yes,No,01. 02. 2022,C,206,205,78,167,108,180,117,461,855,306,2,,1 to 10 years years,Standard materials and solutions,,Gas boiler,Middle floor,Interior,,,,
696820,"CZK 13,500",50.02495,14.42391,"Údolní, Prague - Braník",2 bedroom,Good,66 m²,"CZK 4,500","CZK 20,000",Cooperative,Prefab concrete building,Furnished,Yes,No,Yes,No,No,Yes,No,22. 12. 2021,C,127,851,331,844,213,286,412,450,"1,288",365,9,,,,,,,,,,,
703478,"CZK 17,500",50.10533,14.50202,Prague - Vysočany,1 bedroom with open-plan kitchen,New build,62 m²,"CZK 5,000","CZK 15,000",Personal,Other,Furnished,Yes,No,No,No,Yes,No,No,15. 03. 2022,B,430,815,371,484,356,768,498,612,692,308,17,,,,,,,,,,,
699001,"CZK 14,900",50.07087,14.46352,"28. pluku, Prague - Vršovice",1 bedroom with open-plan kitchen,Excellent,50 m²,"CZK 1,000","CZK 20,000",Personal,Brick building,Partially furnished,No,No,No,No,No,Yes,No,01. 02. 2022,G,18,752,74,650,226,635,414,315,784,293,1,,1 to 10 years years,Standard materials and solutions,,,Middle floor,Overall,,,,
690507,"CZK 101,363",50.0915501,14.4268683,"Hradební, Prague - Staré Město",5 bedroom,,160 m²,"CZK 33,787",,,,Furnished,No,Yes,No,No,No,Yes,No,27. 01. 2022,,102,183,98,123,98,108,208,406,183,306,6,,,,,,,,,,,
680012,"CZK 45,000",50.0822886,14.4155231,"Karoliny Světlé, Prague - Staré Město",2 bedroom,,80 m²,"CZK 15,000",,,,Furnished,No,No,No,No,No,Yes,No,09. 02. 2022,,462,817,70,468,89,510,489,683,411,400,3,,,,,,,,,,,
686749,"CZK 37,050",50.0865843,14.4323212,"Dlážděná, Prague - Nové Město",1 bedroom with open-plan kitchen,,64 m²,"CZK 12,350",,,,Furnished,Yes,Yes,No,No,No,Yes,No,28. 02. 2022,,110,274,157,129,77,143,300,496,282,367,3,,,,,,,,,,,
690538,"CZK 12,900",50.04595,14.32223,"Mukařovského, Prague - Stodůlky",Studio,New build,27 m²,CZK 133,"CZK 25,800",Personal,Other,Partially furnished,No,No,Yes,No,Yes,Yes,No,26. 11. 2021,A,,,,,,,,,,,7,Yes,,,,,,,,Luka Residential s.r.o.,Luka Living Rental apartments,708
698442,"CZK 26,500",50.04595,14.32223,"Mukařovského, Prague - Stodůlky",2 bedroom with open-plan kitchen,Excellent,88 m²,CZK 133,"CZK 53,000",Personal,Other,Furnished,No,Yes,Yes,No,Yes,Yes,No,26. 01. 2022,A,,,,,,,,,,,8,Yes,1 to 10 years years,Premium materials and solutions,,,Middle floor,,,Luka Residential s.r.o.,Luka Living Rental apartments,808
570798,"CZK 13,000",50.0562229,14.3687818,"U Waltrovky, Prague - Jinonice",1 bedroom with open-plan kitchen,Excellent,45 m²,"CZK 3,500","CZK 15,000",Personal,Brick building,Furnished,No,Yes,No,No,No,No,No,05. 02. 2022,C,100,388,245,491,339,594,319,"1,058",436,,,,1 to 10 years years,Standard materials and solutions,,Central heating,Ground floor,Overall,,,,
693967,"CZK 23,900",50.04595,14.32223,"Mukařovského, Prague - Stodůlky",3 bedroom,New build,79 m²,CZK 133,"CZK 47,800",Personal,Other,Furnished,No,Yes,Yes,No,Yes,Yes,No,20. 01. 2022,A,,,,,,,,,,,4,Yes,1 to 10 years years,Premium materials and solutions,,,Middle floor,,,Luka Residential s.r.o.,Luka Living Rental apartments,418
703549,"CZK 20,000",50.0464,14.32166,"Kettnerova, Prague - Stodůlky",2 bedroom with open-plan kitchen,Excellent,80 m²,"CZK 4,000","CZK 40,000",Personal,Prefab concrete building,Partially furnished,No,No,Yes,Yes,No,Yes,No,24. 01. 2022,G,44,979,214,225,411,217,552,110,473,101,4,,,Premium materials and solutions,,District heating,Middle floor,Interior,,,,
700132,"CZK 15,000",50.04182,14.44444,"Antala Staška, Prague - Krč",2 bedroom,Excellent,56 m²,"CZK 5,000","CZK 20,000",Personal,Brick building,Furnished,No,No,Yes,No,No,No,No,01. 02. 2022,C,51,442,87,372,217,273,323,238,955,240,3,,,,,,,,,,,
627227,"CZK 11,950",50.076033,14.434163,"Anglická, Prague - Vinohrady",Studio,Excellent,31 m²,"CZK 3,950","CZK 15,900",Personal,Brick building,Furnished,No,Yes,No,No,Yes,Yes,No,06. 12. 2021,G,132,87,158,41,94,282,369,485,488,641,2,Yes,1 to 10 years years,Premium materials and solutions,,Central heating,Middle floor,Overall,,,,
697903,"CZK 17,000",50.05208,14.33443,"Wiedermannova, Prague - Stodůlky",1 bedroom with open-plan kitchen,New build,64 m²,"CZK 4,000","CZK 17,000",Personal,Brick building,Partially furnished,Yes,No,No,No,No,Yes,No,03. 01. 2022,G,379,234,713,,,,,,,,1,,,,,,,,,,,
703547,"CZK 19,000",50.10028,14.48845,"Novovysočanská, Prague - Vysočany",2 bedroom with open-plan kitchen,Excellent,71 m²,CZK 850,"CZK 38,000",Personal,Brick building,Unfurnished,No,No,No,No,No,No,No,01. 02. 2022,G,73,"1,080",70,932,50,"1,223",152,145,465,184,1,,,,,,,,,,,
463122,"CZK 12,000",50.127698864913,14.460002664587,"Čumpelíkova, Prague - Kobylisy",Studio,New build,33 m²,"CZK 2,000","CZK 20,000",Personal,Low-energy building,Furnished,Yes,Yes,Yes,No,Yes,Yes,Yes,15. 04. 2021,B,106,909,53,676,23,195,506,228,584,333,2,Yes,1 to 10 years years,Premium materials and solutions,,District heating,Middle floor,,,,,
699590,"CZK 27,255",50.0928722,14.4500782,"Křižíkova a, Prague - Karlín",2 bedroom with open-plan kitchen,,95 m²,"CZK 9,085",,,,Furnished,No,Yes,No,No,No,Yes,Yes,01. 03. 2022,,123,293,167,222,66,246,411,"1,258",283,254,3,,,,,,,,,,,
679948,"CZK 18,428",50.0830187,14.4654473,"Olšanská, Prague - Žižkov",Studio,,30 m²,"CZK 6,142",,,,Furnished,No,No,No,No,No,No,Yes,27. 01. 2022,,99,368,492,556,426,352,496,585,430,491,3,,,,,,,,,,,
703538,"CZK 13,000",50.0762823,14.4923576,"Saratovská, Prague - Strašnice",2 bedroom,Good,70 m²,CZK 800,"CZK 26,000",Personal,Brick building,Unfurnished,No,No,No,No,No,No,No,24. 01. 2022,G,165,17,142,288,51,366,343,445,806,269,2,,,,,,,,,,,
703540,"CZK 12,500",50.06408,14.44495,"Čestmírova, Prague - Nusle",1 bedroom with open-plan kitchen,Excellent,40 m²,"CZK 3,000","CZK 15,500",Personal,Brick building,Partially furnished,No,No,No,No,No,No,No,25. 01. 2022,G,318,507,5,250,258,257,548,786,753,659,3,,,,,,,,,,,
700121,"CZK 25,000",50.0525289,14.5116808,"Mattioliho, Prague - Záběhlice",1 bedroom with open-plan kitchen,New build,70 m²,"CZK 4,000","CZK 75,000",Personal,Brick building,Furnished,Yes,No,Yes,No,No,Yes,Yes,19. 01. 2022,G,225,508,498,551,257,504,945,874,761,446,1,,,,,,,,,,,
703536,"CZK 15,200",50.11716,14.49221,"Na Vyhlídce, Prague - Prosek",1 bedroom with open-plan kitchen,New build,56 m²,"CZK 2,000","CZK 15,000",Personal,Brick building,Partially furnished,No,No,Yes,No,No,No,No,01. 01. 1970,G,99,"1,039",567,615,240,576,182,79,842,167,2,,,,,,,,,,,
696797,"CZK 15,000",50.06184,14.44442,"Svatoslavova, Prague - Nusle",3 bedroom,Excellent,80 m²,"CZK 2,400","CZK 15,000",Personal,Brick building,Partially furnished,No,No,No,No,No,No,No,15. 01. 2022,G,137,691,109,397,161,420,540,730,476,584,3,,,,,,,,,,,
627249,"CZK 18,000",50.074737,14.424037,"Lípová, Prague - Nové Město",1 bedroom with open-plan kitchen,Excellent,45 m²,"CZK 4,000","CZK 22,000",Personal,Other,,No,No,No,No,No,No,No,01. 02. 2022,E,120,534,86,337,47,344,183,196,544,342,3,,,,,,,,,,,
703534,"CZK 13,600",50.10583,14.39269,"Nikoly Tesly, Prague - Dejvice",1 bedroom with open-plan kitchen,Good,46 m²,CZK 850,"CZK 13,600",Personal,Brick building,Partially furnished,No,No,No,No,No,Yes,No,29. 01. 2022,G,230,"1,012",219,407,140,320,396,580,793,300,4,,,,,,,,,,,
690884,"CZK 73,500",50.0805317,14.4221981,"Jungmannova, Prague - Nové Město",3 bedroom with open-plan kitchen,,150 m²,"CZK 24,500",,,,Furnished,No,Yes,No,No,No,Yes,No,27. 01. 2022,,169,732,178,131,123,203,271,773,414,383,7,,,,,,,,,,,
703533,"CZK 12,825",50.1020189,14.4261163,"U Studánky, Prague - Bubeneč",Studio,,23 m²,"CZK 4,275",,,,Furnished,No,No,No,No,No,No,No,24. 02. 2022,,275,429,25,276,159,275,174,64,403,,1,,,,,,,,,,,
690498,"CZK 21,304",50.0840733,14.5137237,"Niederleho, Prague - Malešice",3 bedroom with open-plan kitchen,,85 m²,"CZK 7,101",,,,Furnished,Yes,No,No,No,No,No,No,27. 01. 2022,,324,"1,262",554,"1,172",336,576,910,"1,176",353,189,2,,,,,,,,,,,
295666,"CZK 25,000",50.0744824852,14.4432953153,"Moravská, Prague - Vinohrady",2 bedroom,Excellent,78 m²,"CZK 1,400","CZK 40,000",Personal,Brick building,Partially furnished,No,No,Yes,No,No,Yes,No,01. 03. 2022,G,160,35,113,541,94,396,214,276,514,268,1,,over 50 years years,Standard materials and solutions,,Gas boiler,Middle floor,Overall,,,,
699584,"CZK 14,957",50.0945763,14.4951344,"U Kněžské louky, Prague - Žižkov",1 bedroom with open-plan kitchen,,50 m²,"CZK 4,986",,,,Furnished,Yes,No,No,No,No,No,No,27. 01. 2022,,131,383,269,715,80,405,303,544,447,208,4,,,,,,,,,,,
703532,"CZK 13,000",50.08796,14.30556,"Ciolkovského, Prague - Ruzyně",1 bedroom with open-plan kitchen,Excellent,42 m²,CZK 1,"CZK 12,000",Personal,Prefab concrete building,Furnished,No,No,No,No,No,Yes,No,25. 01. 2022,G,262,505,484,471,483,528,488,"1,295",34,,13,,,,,,,,,,,
699751,"CZK 11,400",50.04146,14.56731,"Hornoměcholupská, Prague - Horní Měcholupy",Studio,New build,36 m²,"CZK 3,600","CZK 15,000",Personal,Brick building,Furnished,Yes,No,Yes,No,Yes,Yes,No,17. 01. 2022,B,36,766,373,578,497,281,428,437,"1,161",364,2,Yes,1 to 10 years years,Premium materials and solutions,,District heating,Middle floor,,,,,
703526,"CZK 14,500",50.0241,14.49608,"Nechvílova, Prague - Chodov",1 bedroom with open-plan kitchen,Excellent,47 m²,"CZK 3,000","CZK 17,500",Personal,Prefab concrete building,Partially furnished,No,No,No,No,No,Yes,No,01. 02. 2022,G,381,612,204,711,391,578,395,373,390,133,4,,,,,,,,,,,
685308,"CZK 16,000",50.12184,14.47035,"Nad Okrouhlíkem, Prague - Libeň",1 bedroom with open-plan kitchen,Excellent,80 m²,"CZK 4,200","CZK 20,000",Personal,Brick building,Partially furnished,No,Yes,Yes,No,Yes,Yes,No,06. 12. 2021,B,573,902,578,995,759,"1,033","1,095",935,"1,086",502,1,,,,,District heating,Middle floor,,,,,
456763,"CZK 19,000",50.0786,14.4237301,"Navrátilova, Prague - Nové Město",1 bedroom with open-plan kitchen,,42 m²,"CZK 6,000","CZK 38,000",Personal,Brick building,Unfurnished,No,No,No,No,No,No,No,01. 02. 2022,,181,650,164,189,30,299,194,515,511,452,2,,,,,,,,,,,
665623,"CZK 12,900",50.0561958,14.2908562,Prague - Třebonice,Studio,New build,30 m²,"CZK 2,500","CZK 20,000",Personal,Brick building,Furnished,Yes,No,Yes,No,Yes,Yes,Yes,01. 06. 2021,A,125,"1,041",399,366,679,477,476,701,317,,3,Yes,1 to 10 years years,Premium materials and solutions,,,Middle floor,,,,,
694156,"CZK 28,000",50.08239,14.43829,"Italská, Prague - Vinohrady",1 bedroom with open-plan kitchen,New build,85 m²,"CZK 4,000","CZK 32,000",Personal,Brick building,Furnished,No,Yes,No,No,No,Yes,Yes,01. 12. 2021,B,378,887,621,280,89,362,595,421,692,541,,,,,53 m²,,,,,,,
700104,"CZK 12,000",50.03154,14.51594,"Bachova, Prague - Chodov",Small studio,Excellent,25 m²,"CZK 2,000","CZK 14,000",Personal,Prefab concrete building,Furnished,Yes,No,Yes,No,No,Yes,No,19. 01. 2022,G,152,157,197,"1,012",350,274,321,145,675,251,7,,,,,,,,,,,
461857,"CZK 9,000",50.0577254,14.4701381,"Brtnická, Prague - Michle",Small studio,Good,25 m²,"CZK 3,500","CZK 20,000",Personal,Brick building,Partially furnished,No,No,No,No,No,No,No,,,175,"1,208",227,"1,253",601,231,"1,461",701,"1,187",135,2,,,,,,,,,,,
703512,"CZK 13,000",50.10545,14.52977,"Na Obrátce, Prague - Hloubětín",1 bedroom with open-plan kitchen,Excellent,43 m²,"CZK 2,500","CZK 28,000",Personal,Brick building,Partially furnished,No,No,No,No,No,No,No,24. 01. 2022,G,122,759,149,740,459,686,689,680,622,466,3,,,,,,,,,,,
620328,"CZK 21,000",50.08553055,14.410704804813,Prague - Staré Město,1 bedroom with open-plan kitchen,Excellent,74 m²,"CZK 3,800","CZK 42,000",Personal,Brick building,Furnished,Yes,No,No,No,No,Yes,No,01. 02. 2022,G,532,419,209,398,87,805,455,567,735,178,3,,,Premium materials and solutions,,Gas boiler,Middle floor,Overall,,,,
699715,"CZK 17,925",50.0643299,14.4102127,"Strakonická, Prague - Smíchov",Studio,,30 m²,"CZK 5,975",,,,Furnished,No,No,No,No,No,Yes,No,27. 01. 2022,,211,382,250,989,170,745,812,"1,050",387,543,3,,,,,,,,,,,
703510,"CZK 12,000",50.04375,14.49582,"Klapálkova, Prague - Chodov",Studio,New build,30 m²,"CZK 3,000","CZK 15,000",Personal,Other,Partially furnished,No,No,No,No,No,No,No,01. 02. 2022,B,305,"1,007",332,"1,052",538,"1,308",505,"1,263",930,254,,Yes,1 to 10 years years,Standard materials and solutions,30 m²,Central heating,Ground floor,,,,,
703508,"CZK 33,000",50.07423,14.44072,"Sázavská, Prague - Vinohrady",2 bedroom,Excellent,100 m²,"CZK 3,400","CZK 33,000",Personal,Brick building,Partially furnished,Yes,No,No,No,No,Yes,No,25. 01. 2022,G,164,172,115,409,97,498,44,465,609,471,2,,,,,,,,,,,
698310,"CZK 29,000",50.07766,14.43357,"Římská, Prague - Vinohrady",1 bedroom with open-plan kitchen,New build,50 m²,"CZK 6,000","CZK 58,000",Personal,Brick building,Furnished,No,No,No,No,No,Yes,No,10. 01. 2022,G,183,233,230,245,81,172,512,512,508,662,4,,,,,,,,,,,
700091,"CZK 29,000",50.07892,14.42461,"Školská, Prague - Nové Město",2 bedroom,Excellent,58 m²,"CZK 5,000","CZK 30,000",Personal,Brick building,Furnished,No,Yes,No,No,No,Yes,No,01. 03. 2022,G,314,728,111,153,17,229,173,508,491,445,3,,,,,,,,,,,
601637,"CZK 22,900",50.0897977,14.4323326,"Zlatnická, Prague - Nové Město",3 bedroom with open-plan kitchen,Excellent,130 m²,"CZK 3,950","CZK 19,500",Personal,Brick building,Partially furnished,Yes,No,No,No,No,Yes,No,01. 02. 2022,C,191,195,120,110,28,61,300,128,271,500,4,,,Standard materials and solutions,,Gas boiler,Top floor,,,,,
698129,"CZK 14,000",50.12534,14.49732,"Českolipská, Prague - Střížkov",3 bedroom,Excellent,56 m²,"CZK 3,800","CZK 25,000",Personal,Prefab concrete building,Unfurnished,No,No,Yes,No,No,Yes,No,19. 01. 2022,G,181,329,349,280,272,434,355,201,"1,151",146,2,,,,,,,,,,,
629527,"CZK 8,000",50.120753,14.454948,"Kubišova, Prague - Libeň",Small studio,New build,18 m²,"CZK 1,000","CZK 5,000",Personal,Prefab concrete building,,No,No,No,No,No,Yes,No,Ihned,F,334,537,254,239,330,413,514,678,"1,191",542,,,,,,,,,,,,
629305,"CZK 8,000",50.0835476,14.452254,"Bořivojova, Prague - Žižkov",Small studio,Excellent,20 m²,"CZK 1,000","CZK 5,000",Personal,Other,Furnished,No,No,No,No,No,Yes,No,14. 12. 2021,F,133,201,140,183,62,218,296,428,484,436,,,1 to 10 years years,Standard materials and solutions,,Central heating,,Overall,,,,
696165,"CZK 8,000",50.08601,14.45086,"Cimburkova, Prague - Žižkov",Small studio,Excellent,18 m²,"CZK 1,000","CZK 5,000",Personal,Brick building,Furnished,No,No,No,No,No,Yes,No,14. 12. 2021,G,136,323,154,330,115,290,27,379,27,661,1,,,,,,,,,,,
703504,"CZK 19,000",50.07111,14.40743,"Vrázova, Prague - Smíchov",2 bedroom,Excellent,97 m²,"CZK 3,000","CZK 19,000",Personal,Brick building,Unfurnished,No,Yes,No,No,No,Yes,No,01. 03. 2022,G,191,538,79,149,120,345,631,"1,071",998,484,5,,,,,,,,,,,
703503,"CZK 12,000",50.12617,14.42044,"Hnězdenská, Prague - Troja",Studio,Excellent,47 m²,"CZK 3,000","CZK 15,000",Personal,Brick building,Furnished,No,No,No,No,No,No,No,07. 02. 2022,C,206,279,292,349,143,293,800,990,"1,268",421,3,,,,,,,,,,,
406938,"CZK 14,000",50.0568155,14.3279016,"Za Mototechnou, Prague - Stodůlky",2 bedroom with open-plan kitchen,Good,70 m²,"CZK 4,000","CZK 16,000",Other,Other,Partially furnished,No,No,No,Yes,No,No,No,,G,307,502,"1,494",815,"1,162","1,461","1,139",739,418,,2,,10 to 30 years years,,,Other,,,,,,
126475,"CZK 13,900",50.07318,14.43887,"Varšavská, Prague - Vinohrady",1 bedroom,,48 m²,"CZK 1,250","CZK 27,800",Personal,Brick building,Furnished,No,No,No,No,No,No,No,,,218,316,150,504,126,407,218,361,801,614,3,,over 50 years years,,100 m²,,,,,,,
700093,"CZK 11,000",50.13717,14.51767,Prague - Letňany,1 bedroom,Excellent,42 m²,CZK 860,"CZK 11,000",Personal,Brick building,Furnished,No,No,No,No,No,No,No,01. 03. 2022,G,147,202,857,723,320,282,571,"1,120",815,264,2,,,,,,,,,,,
694519,"CZK 37,500",50.0916806,14.4282136,"Klimentská, Prague - Nové Město",3 bedroom with open-plan kitchen,,120 m²,"CZK 12,500",,,,Furnished,No,No,No,No,No,Yes,No,01. 03. 2022,,148,292,154,129,85,207,183,424,376,309,3,,,,,,,,,,,
476246,"CZK 12,000",50.0763304,14.4690282,"Šrobárova, Prague - Vinohrady",Studio,Excellent,23 m²,"CZK 1,500","CZK 12,000",Cooperative,Brick building,Furnished,No,No,No,No,No,No,No,01. 02. 2022,B,325,675,245,406,122,458,158,785,144,296,2,,,,,District heating,Middle floor,,,,,
700087,"CZK 20,000",50.07173,14.41968,"Na Hrádku, Prague - Nové Město",2 bedroom,Excellent,50 m²,"CZK 4,000","CZK 20,000",Personal,Brick building,Furnished,No,No,Yes,No,No,No,No,19. 01. 2022,G,138,519,100,168,160,80,339,287,459,360,,,,,,,,,,,,
175403,"CZK 15,000",50.1071221,14.4458563,"U městských domů, Prague - Holešovice",1 bedroom with open-plan kitchen,Excellent,49 m²,"CZK 2,400",,Personal,Brick building,Partially furnished,Yes,No,Yes,No,No,Yes,No,ihned,C,165,615,255,628,292,307,346,971,421,273,2,,1 to 10 years years,,,Gas boiler,Middle floor,Overall,,,,
699622,"CZK 22,000",50.06523,14.37678,"Pod Šmukýřkou, Prague - Košíře",1 bedroom with open-plan kitchen,New build,62 m²,"CZK 1,100","CZK 44,000",Personal,Other,Furnished,No,Yes,No,No,No,Yes,Yes,19. 02. 2022,B,648,650,545,669,693,750,397,"1,053",914,382,1,,,,,,,,,,,
577130,"CZK 8,500",50.0217183,14.4147271,"Pod Lysinami, Prague - Hodkovičky",Studio,Excellent,29 m²,"CZK 3,000","CZK 20,000",Personal,Prefab concrete building,Unfurnished,No,No,No,No,No,Yes,No,03. 10. 2019,A,206,"1,277","1,230","1,388",442,"1,444",136,,,,4,,10 to 30 years years,Standard materials and solutions,,Central heating,Middle floor,Interior,,,,
633374,"CZK 9,000",50.126922,14.464589,"Kyselova, Prague - Kobylisy",Small studio,Excellent,24 m²,"CZK 2,500","CZK 12,000",Personal,Prefab concrete building,Partially furnished,No,No,No,No,No,Yes,No,06. 02. 2022,D,269,510,258,278,243,472,163,205,823,210,1,,,,,,,,,,,
652889,"CZK 17,500",50.06268,14.442082,"Táborská, Prague - Nusle",1 bedroom with open-plan kitchen,Excellent,53 m²,"CZK 4,400","CZK 17,500",Personal,Brick building,Furnished,Yes,No,No,No,No,No,No,01. 02. 2022,D,0,488,0,188,158,79,221,639,420,359,2,,,,,,,,,,,
703487,"CZK 8,000",50.09941,14.42315,"Jirečkova, Prague - Holešovice",1 bedroom,Excellent,37 m²,CZK 500,"CZK 8,000",Personal,Brick building,Partially furnished,No,No,No,No,No,No,No,25. 01. 2022,G,176,183,192,138,76,172,313,516,412,,-1,,,,,,,,,,,
641544,"CZK 13,000",50.104841,14.488342,"Kurta Konráda, Prague - Libeň",Studio,New build,42 m²,"CZK 2,000",,Personal,Brick building,Furnished,No,No,Yes,No,No,Yes,No,01. 03. 2022,B,195,105,145,78,192,251,362,575,206,16,4,,,,,District heating,,,,,,
320443,"CZK 11,500",50.0686216,14.4010469,"Ostrovského, Prague - Smíchov",1 bedroom,,57 m²,CZK 420,"CZK 23,000",Personal,Brick building,Unfurnished,No,No,No,No,No,No,No,27. 01. 2022,,27,143,131,267,20,45,347,591,853,149,1,,,,,,,,,,,
699626,"CZK 16,500",50.08294,14.50018,"Káranská, Prague - Malešice",3 bedroom,Excellent,74 m²,"CZK 1,500","CZK 16,500",Personal,Prefab concrete building,Unfurnished,No,No,Yes,Yes,No,No,No,17. 01. 2022,G,238,148,208,195,298,388,254,385,785,285,1,,,,,,,,,,,
703481,"CZK 27,200",50.07345,14.43326,"Bělehradská, Prague - Vinohrady",2 bedroom with open-plan kitchen,Excellent,107 m²,CZK 920,"CZK 27,200",Personal,Brick building,Unfurnished,No,No,No,No,No,Yes,No,28. 02. 2022,G,51,343,14,58,5,131,164,263,682,770,3,,,,,,,,,,,
452087,"CZK 13,000",50.0485532,14.5241392,Prague - Hostivař,1 bedroom with open-plan kitchen,Good,40 m²,"CZK 3,000","CZK 20,000",Personal,Prefab concrete building,Partially furnished,Yes,No,No,No,No,Yes,No,Ihned,,253,"1,054",508,"1,017",56,739,454,449,635,314,2,,,,,Central heating,,,,,,
700075,"CZK 12,000",50.0281737,14.4530613,"Zálesí, Prague - Krč",1 bedroom,Excellent,35 m²,"CZK 3,100","CZK 12,000",Personal,Prefab concrete building,Partially furnished,No,No,Yes,Yes,No,Yes,No,20. 01. 2022,G,75,"1,244",326,365,503,757,"1,198",419,108,,5,,,,,,,,,,,
699368,"CZK 9,800",50.0449099,14.4214217,"Jeremenkova, Prague - Braník",1 bedroom,Excellent,34 m²,"CZK 3,500","CZK 22,000",Personal,Brick building,Furnished,No,No,No,No,No,No,No,01. 02. 2022,G,150,329,"1,308",455,"1,447",959,"1,152","1,140",907,,2,,,,,,,,,,,
703477,"CZK 12,500",50.06876,14.45754,"Moskevská, Prague - Vršovice",1 bedroom with open-plan kitchen,Excellent,38 m²,CZK 775,"CZK 25,000",Personal,Brick building,Partially furnished,No,No,No,No,No,No,No,01. 03. 2022,G,133,355,12,18,43,130,213,366,429,233,2,,,,,,,,,,,
703476,"CZK 26,300",50.08291,14.37907,"Nad Závěrkou, Prague - Břevnov",3 bedroom with open-plan kitchen,Excellent,78 m²,"CZK 3,314","CZK 40,000",Personal,Brick building,Furnished,Yes,No,Yes,No,No,No,No,24. 01. 2022,G,342,951,339,847,169,652,572,549,350,232,4,,,,,,,,,,,
696054,"CZK 16,000",50.06312,14.40452,"Radlická, Prague - Smíchov",Studio,Excellent,42 m²,"CZK 3,500","CZK 18,000",Personal,Brick building,Furnished,No,No,No,No,No,No,No,01. 01. 1970,E,25,450,75,856,15,203,647,619,790,542,1,,,,,,,,,,,
699089,"CZK 14,500",50.0694218,14.3759387,"Pod Klamovkou, Prague - Košíře",1 bedroom with open-plan kitchen,New build,42 m²,"CZK 3,500","CZK 25,000",Personal,Brick building,Furnished,No,No,No,No,No,No,Yes,12. 01. 2022,C,118,183,324,399,354,506,309,871,875,346,4,,,,,Central heating,Middle floor,,,,,
650830,"CZK 10,000",50.139787,14.548685,"Herlíkovická, Prague - Kbely",Studio,Excellent,32 m²,"CZK 2,000","CZK 20,000",Personal,Brick building,Partially furnished,No,Yes,No,No,No,Yes,Yes,15. 02. 2021,G,184,982,854,835,"1,190","1,065",793,"1,153",224,,1,,10 to 30 years years,Standard materials and solutions,32 m²,Central heating,Ground floor,,,,,
703473,"CZK 11,500",50.12212,14.45149,"Trojská, Prague - Kobylisy",1 bedroom with open-plan kitchen,Excellent,40 m²,"CZK 2,000","CZK 15,000",Personal,Brick building,Unfurnished,No,No,No,No,No,No,No,27. 01. 2022,C,93,765,2,323,69,51,497,701,"1,111",388,3,,,,,,,,,,,
703471,"CZK 15,000",50.0848,14.36507,"Slavníkova, Prague - Břevnov",1 bedroom with open-plan kitchen,Excellent,54 m²,"CZK 3,000","CZK 15,000",Personal,Brick building,Partially furnished,No,No,No,No,No,Yes,No,01. 02. 2022,G,65,105,143,191,128,99,182,534,160,342,,,,,,,,,,,,
685106,"CZK 16,500",50.06662,14.42307,"Horská, Prague - Nové Město",Studio,New build,33 m²,"CZK 4,000","CZK 20,500",Personal,Brick building,Furnished,Yes,No,No,No,No,No,No,01. 02. 2022,B,114,989,23,10,23,31,353,549,399,398,5,,,,,,,,,,,
685115,"CZK 22,000",50.06636,14.42333,"Horská, Prague - Nové Město",1 bedroom with open-plan kitchen,New build,50 m²,"CZK 5,700","CZK 27,700",Personal,Brick building,Furnished,No,No,No,Yes,Yes,Yes,Yes,01. 02. 2022,B,165,981,117,149,162,109,492,669,487,409,4,,,,,,,,,,,
700321,"CZK 15,750",50.0862376,14.4435427,"Řehořova, Prague - Žižkov",2 bedroom with open-plan kitchen,,90 m²,"CZK 5,250",,,,Furnished,No,No,No,No,No,No,No,01. 03. 2022,,482,754,346,457,298,741,433,473,526,783,2,,,,,,,,,,,
696907,"CZK 15,375",50.0236328,14.420109,"Na Výspě, Prague - Hodkovičky",Studio,,40 m²,"CZK 5,125",,,,Furnished,No,Yes,No,No,No,No,No,21. 02. 2022,,205,"1,125",579,"1,118",554,629,856,827,"1,391",591,2,,,,,,,,,,,
531724,"CZK 15,000",50.1064556,14.4471687,"Osadní, Prague - Holešovice",Studio,Excellent,49 m²,"CZK 3,000","CZK 30,000",Personal,Brick building,Partially furnished,Yes,No,Yes,No,Yes,Yes,No,01. 06. 2021,,163,331,175,344,88,237,352,691,345,279,2,,,,,,,,,,,
641458,"CZK 13,100",50.068618,14.401038,"Ostrovského, Prague - Smíchov",Studio,Excellent,45 m²,"CZK 2,500","CZK 15,600",Personal,Brick building,Partially furnished,No,No,No,No,No,No,No,01. 02. 2022,C,27,143,131,268,19,44,346,591,852,149,2,,,,,Central heating,Middle floor,,,,,
370515,"CZK 23,000",50.0379571,14.4178782,"Mezivrší, Prague - Braník",2 bedroom with open-plan kitchen,,140 m²,"CZK 5,000",,Personal,Brick building,Furnished,No,Yes,No,No,No,No,No,15. 02. 2022,B,556,607,452,427,552,379,289,617,,,1,,,,,,,,,,,
693718,"CZK 15,000",50.1401161,14.5074049,"Místecká, Prague - Letňany",1 bedroom with open-plan kitchen,New build,60 m²,"CZK 2,000","CZK 30,000",Personal,Brick building,Furnished,No,No,No,No,No,Yes,No,Ihned,G,245,774,94,784,270,100,302,359,458,179,8,,,Premium materials and solutions,,,Middle floor,Overall,,,,
383036,"CZK 12,000",50.0664599,14.3106597,"Zrzavého, Prague - Řepy",Small studio,Excellent,30 m²,"CZK 2,500","CZK 20,000",Personal,Brick building,Furnished,No,No,No,No,No,Yes,No,25. 11. 2021,G,62,409,306,476,517,533,380,404,"1,178",213,5,,10 to 30 years years,,,,,,,,,
622317,"CZK 11,000",50.093192,14.448883,"Sokolovská, Prague - Karlín",Studio,Good,60 m²,"CZK 3,210","CZK 22,000",Cooperative,Brick building,,No,No,No,No,No,No,No,15. 02. 2022,C,130,73,174,192,10,293,415,"1,390",449,120,5,,,,,Gas boiler,Top floor,,,,,
697268,"CZK 17,483",50.0747395,14.424046,"Lípová, Prague - Nové Město",1 bedroom with open-plan kitchen,,45 m²,"CZK 5,827",,,,Furnished,No,No,No,No,No,No,No,15. 02. 2022,,120,534,85,337,48,344,183,195,543,341,5,,,,,,,,,,,
685604,"CZK 33,750",50.0865843,14.4323212,"Dlážděná, Prague - Nové Město",1 bedroom with open-plan kitchen,,45 m²,"CZK 11,250",,,,Furnished,No,No,No,No,No,Yes,No,11. 02. 2022,,110,274,157,129,77,143,300,496,282,367,2,,,,,,,,,,,
698395,"CZK 20,175",50.0564738,14.5142373,"Švehlova, Prague - Záběhlice",1 bedroom with open-plan kitchen,,65 m²,"CZK 6,725",,,,Furnished,No,Yes,No,No,No,Yes,Yes,08. 03. 2022,,88,519,253,482,504,524,542,798,830,228,4,,,,,,,,,,,
699549,"CZK 26,250",50.0905181,14.4322974,"Zlatnická, Prague - Nové Město",1 bedroom with open-plan kitchen,,60 m²,"CZK 8,750",,,,Furnished,No,Yes,No,No,No,Yes,No,17. 03. 2022,,140,262,117,176,89,151,218,24,337,419,2,,,,,,,,,,,
699079,"CZK 33,750",50.0790219,14.4245347,"Školská, Prague - Nové Město",Studio,,26 m²,"CZK 11,250",,,,Furnished,Yes,No,No,No,No,Yes,No,13. 03. 2022,,326,716,122,141,29,217,161,519,502,456,1,,,,,,,,,,,
700062,"CZK 12,675",50.0710373,14.4466006,"Kozácká, Prague - Vršovice",Studio,,28 m²,"CZK 4,225",,,,Furnished,No,No,No,No,No,No,No,20. 03. 2022,,139,664,133,528,69,638,497,450,315,216,2,,,,,,,,,,,
700400,"CZK 18,000",50.09058,14.47011,"Koněvova, Prague - Žižkov",1 bedroom with open-plan kitchen,Excellent,60 m²,"CZK 4,500","CZK 40,000",Personal,Brick building,Partially furnished,Yes,No,No,No,No,Yes,No,01. 04. 2022,G,25,923,31,238,79,210,444,398,523,394,4,,,,,,,,,,,
680047,"CZK 39,750",50.079465,14.4353199,"Mánesova, Prague - Vinohrady",1 bedroom with open-plan kitchen,,73 m²,"CZK 13,250",,,,Furnished,No,No,No,No,No,Yes,No,27. 01. 2022,,156,408,244,342,59,242,281,281,533,788,5,,,,,,,,,,,
680048,"CZK 39,750",50.079465,14.4353199,"Mánesova, Prague - Vinohrady",1 bedroom with open-plan kitchen,,75 m²,"CZK 13,250",,,,Furnished,No,No,No,No,No,Yes,No,27. 01. 2022,,156,408,244,342,59,242,281,281,533,788,4,,,,,,,,,,,
694734,"CZK 21,000",50.1057314,14.44422,"U Průhonu b, Prague - Holešovice",Studio,,32 m²,"CZK 7,000",,,,Furnished,No,Yes,No,No,No,Yes,Yes,27. 01. 2022,,299,437,281,449,312,304,607,789,18,459,1,,,,,,,,,,,
700640,"CZK 9,000",50.0654699,14.5093862,"Královická, Prague - Strašnice",1 bedroom with open-plan kitchen,Excellent,40 m²,"CZK 2,500","CZK 11,500",Personal,Brick building,Partially furnished,No,Yes,No,No,No,No,No,01. 02. 2022,G,381,"1,461",379,"1,136",260,370,374,385,649,287,-1,,,,,,,,,,,
699855,"CZK 24,750",50.0720218,14.4618189,"Bulharská, Prague - Vršovice",1 bedroom with open-plan kitchen,,54 m²,"CZK 8,250",,,,Furnished,No,No,No,No,No,No,No,11. 03. 2022,,222,829,176,605,99,603,417,336,724,245,5,,,,,,,,,,,
700638,"CZK 15,500",50.0124216,14.4017606,"Vrátnická, Prague - Modřany",Studio,New build,41 m²,"CZK 2,000","CZK 15,500",Personal,Low-energy building,Unfurnished,No,Yes,Yes,No,No,Yes,No,01. 03. 2022,A,79,953,290,"1,197",615,"1,258","1,259",537,,,5,,,,,,,,,,,
700639,"CZK 41,850",50.0883535,14.4185437,"Maiselova, Prague - Josefov",2 bedroom,,89 m²,"CZK 13,950",,,,Furnished,No,No,No,No,No,No,No,19. 02. 2022,,190,239,178,330,3,452,307,572,33,553,3,,,,,,,,,,,
700051,"CZK 18,000",50.1067399,14.4855219,"Podvinný mlýn, Prague - Libeň",3 bedroom,Good,81 m²,"CZK 4,500","CZK 30,000",Personal,Prefab concrete building,Partially furnished,No,No,Yes,Yes,No,Yes,No,18. 01. 2022,G,222,368,51,403,183,587,365,407,292,302,6,,,,,,,,,,,
536552,"CZK 15,000",50.0792201,14.4563816,Prague - Žižkov,1 bedroom with open-plan kitchen,,45 m²,"CZK 4,500","CZK 15,000",Personal,Brick building,Furnished,No,No,No,No,No,No,No,01. 02. 2022,,196,434,66,214,58,411,494,479,805,102,-1,,,Standard materials and solutions,,Electric boiler,,,,,,
700637,"CZK 16,000",50.12828,14.49326,"Lovosická, Prague - Střížkov",2 bedroom with open-plan kitchen,Excellent,60 m²,"CZK 4,000","CZK 15,000",Cooperative,Prefab concrete building,Partially furnished,No,No,No,Yes,No,No,No,23. 01. 2022,C,101,890,117,790,348,259,387,259,931,203,1,,,,,,,,,,,
651316,"CZK 16,000",50.056161,14.292234,"Do Zahrádek I, Prague - Třebonice",1 bedroom with open-plan kitchen,New build,51 m²,"CZK 4,500","CZK 20,000",Personal,Brick building,Partially furnished,No,Yes,No,No,No,Yes,Yes,01. 03. 2022,B,269,"1,137",519,463,776,574,573,797,414,,4,Yes,1 to 10 years years,Premium materials and solutions,,District heating,Middle floor,,,,,
680018,"CZK 33,750",50.0710929,14.4032595,"Stroupežnického, Prague - Smíchov",3 bedroom with open-plan kitchen,,90 m²,"CZK 11,250",,,,Furnished,No,No,No,No,No,Yes,No,27. 01. 2022,,140,528,224,126,38,67,511,"1,001","1,181",559,2,,,,,,,,,,,
699037,"CZK 17,100",50.0717643,14.4385436,"Americká, Prague - Vinohrady",Studio,,27 m²,"CZK 5,700",,,,Furnished,No,No,No,No,No,Yes,No,27. 01. 2022,,272,322,70,607,60,509,83,250,792,565,4,,,,,,,,,,,
693259,"CZK 23,250",50.0795659,14.4357789,"Balbínova, Prague - Vinohrady",1 bedroom with open-plan kitchen,,48 m²,"CZK 7,750",,,,Furnished,No,No,No,No,No,Yes,No,01. 02. 2022,,134,417,252,351,68,251,205,205,457,712,2,,,,,,,,,,,
535800,"CZK 23,000",50.0662716,14.370693,"Na Stárce, Prague - Košíře",3 bedroom,,75 m²,"CZK 3,000","CZK 23,000",Personal,Brick building,Partially furnished,Yes,No,Yes,Yes,No,No,No,10. 02. 2022,,320,844,479,653,626,684,383,"1,151",838,157,2,,,Standard materials and solutions,,Gas boiler,Middle floor,Overall,,,,
700041,"CZK 25,000",50.07825,14.40628,"V Lesíčku, Prague - Smíchov",3 bedroom,Excellent,78 m²,"CZK 4,500","CZK 30,000",Personal,Brick building,Furnished,No,No,No,No,No,No,No,01. 02. 2022,G,242,357,225,316,15,400,287,927,747,432,4,,,,,,,,,,,
700043,"CZK 16,500",50.08013,14.45882,"Sudoměřská, Prague - Žižkov",1 bedroom with open-plan kitchen,Excellent,50 m²,"CZK 3,500","CZK 19,000",Personal,Brick building,Furnished,No,No,No,No,No,Yes,No,01. 03. 2022,D,292,578,395,418,20,396,577,454,619,207,2,,,,,,,,,,,
700626,"CZK 11,000",50.069,14.50991,"Dürerova, Prague - Strašnice",1 bedroom with open-plan kitchen,Excellent,41 m²,"CZK 2,900","CZK 20,000",Cooperative,Prefab concrete building,Partially furnished,No,No,Yes,No,No,Yes,No,01. 03. 2022,G,201,199,"1,361",276,235,444,313,"1,190",208,,6,,,,,,,,,,,
402217,"CZK 13,000",50.0425742,14.5016512,"Divišovská, Prague - Chodov",1 bedroom with open-plan kitchen,Excellent,58 m²,"CZK 4,500","CZK 13,000",Cooperative,Brick building,Furnished,No,No,No,No,Yes,Yes,No,01. 01. 2022,,209,"1,240",737,"1,495",273,717,640,671,490,151,2,,10 to 30 years years,Standard materials and solutions,,District heating,Middle floor,,,,,
524549,"CZK 9,000",50.0696439,14.4963818,"Voděradská, Prague - Strašnice",Small studio,,27 m²,"CZK 2,500","CZK 7,000",Personal,Brick building,Partially furnished,No,No,No,No,No,No,No,14. 02. 2022,D,369,966,109,755,89,304,364,467,533,392,2,,,,,,,,,,,
700625,"CZK 16,000",50.09662,14.35652,"Africká, Prague - Vokovice",2 bedroom,Excellent,54 m²,"CZK 3,500","CZK 32,000",Personal,Prefab concrete building,Partially furnished,Yes,No,No,No,No,Yes,No,01. 02. 2022,G,272,396,253,278,303,251,319,467,"1,010",103,6,,,,,,,,,,,
696507,"CZK 9,000",50.09004,14.4675,"Koněvova, Prague - Žižkov",Studio,Good,30 m²,CZK 480,"CZK 18,000",Personal,Brick building,Partially furnished,No,No,No,No,No,Yes,No,20. 12. 2021,G,62,793,5,91,38,122,453,562,485,204,3,,,,,,,,,,,
680059,"CZK 60,289",50.0821872,14.4175604,"Národní, Prague - Staré Město",2 bedroom,,,"CZK 20,096",,,,Furnished,No,No,No,No,No,No,No,27. 01. 2022,,198,801,15,163,39,141,121,304,55,465,1,,,,,,,,,,,
696583,"CZK 15,300",50.0236328,14.420109,"Na Výspě, Prague - Hodkovičky",1 bedroom,,50 m²,"CZK 5,100",,,,Furnished,No,No,No,No,No,No,No,15. 03. 2022,,205,"1,125",579,"1,118",554,629,856,827,"1,391",591,1,,,,,,,,,,,
616364,"CZK 17,000",50.071255,14.487999,"Průběžná, Prague - Strašnice",1 bedroom with open-plan kitchen,Excellent,60 m²,"CZK 2,100","CZK 20,000",Personal,Brick building,,No,No,No,No,No,No,No,13. 07. 2020,G,111,886,395,519,168,154,320,636,296,216,3,,,,,,,,,,,
700035,"CZK 18,500",50.013,14.40077,"Pískařská, Prague - Modřany",1 bedroom with open-plan kitchen,New build,50 m²,"CZK 2,800","CZK 18,500",Personal,Brick building,Furnished,No,No,No,No,No,Yes,Yes,21. 01. 2022,D,147,"1,079",416,"1,323",741,"1,384","1,245",663,,,7,,,,,,,,,,,
700619,"CZK 19,000",50.10071,14.52764,"Nademlejnská, Prague - Hloubětín",1 bedroom with open-plan kitchen,Excellent,47 m²,"CZK 4,000","CZK 28,500",Personal,Brick building,Furnished,Yes,No,Yes,No,No,Yes,Yes,24. 01. 2022,G,643,"1,292",777,"1,274",510,999,855,970,629,317,3,,1 to 10 years years,,,District heating,Middle floor,,,,,
680050,"CZK 39,750",50.079465,14.4353199,"Mánesova, Prague - Vinohrady",1 bedroom with open-plan kitchen,,75 m²,"CZK 13,250",,,,Furnished,No,No,No,No,No,Yes,No,27. 01. 2022,,156,408,244,342,59,242,281,281,533,788,2,,,,,,,,,,,
644381,"CZK 9,000",50.068795,14.416542,"Na Výtoni, Prague - Nové Město",Studio,Excellent,32 m²,"CZK 2,000","CZK 9,000",Personal,Brick building,Partially furnished,No,No,No,No,No,Yes,No,01. 02. 2022,G,211,889,124,347,97,306,201,239,254,118,1,,,,,Central heating,Ground floor,,,,,
644385,"CZK 17,000",50.07184,14.429817,Prague - Nové Město,1 bedroom,Excellent,52 m²,"CZK 2,500","CZK 17,000",Personal,Brick building,Partially furnished,No,Yes,No,No,No,Yes,No,01. 02. 2022,G,210,480,156,340,181,149,276,410,716,539,7,,,Standard materials and solutions,,Central heating,Top floor,Overall,,,,
700608,"CZK 14,000",50.09963,14.37406,"Evropská, Prague - Dejvice",1 bedroom with open-plan kitchen,Excellent,40 m²,"CZK 2,500","CZK 14,000",Cooperative,Brick building,Partially furnished,Yes,No,No,No,No,No,No,01. 02. 2022,G,142,"1,080",203,693,340,272,848,512,881,303,3,,,,,,,,,,,
700605,"CZK 11,000",50.13512,14.51009,"Třinecká, Prague - Letňany",Studio,Excellent,40 m²,"CZK 3,800","CZK 15,000",Personal,Prefab concrete building,Partially furnished,No,No,No,No,No,No,No,01. 03. 2022,D,125,722,292,570,257,201,278,688,331,429,5,,,,,,,,,,,
694515,"CZK 9,400",50.07075,14.36128,"Pod Kotlářkou, Prague - Smíchov",Studio,Excellent,22 m²,"CZK 1,500","CZK 10,000",Personal,Brick building,Furnished,Yes,No,No,No,No,No,No,01. 12. 2021,A,13,"1,118",639,820,556,713,932,"1,187",378,632,2,,,,,,,,,,,
679995,"CZK 28,500",50.0643299,14.4102127,"Strakonická, Prague - Smíchov",1 bedroom,,43 m²,"CZK 9,500",,,,Furnished,No,No,No,No,No,Yes,No,27. 01. 2022,,211,382,250,989,170,745,812,"1,050",387,543,7,,,,,,,,,,,
680007,"CZK 45,000",50.082182161145,14.415757035582,"Karoliny Světlé, Prague - Staré Město",2 bedroom,,72 m²,"CZK 15,000",,,,Furnished,No,No,No,No,No,Yes,No,27. 01. 2022,,186,811,109,132,85,110,274,275,231,398,3,,,,,,,,,,,
700528,"CZK 15,000",50.09452,14.34869,"Veleslavínská, Prague - Veleslavín",1 bedroom with open-plan kitchen,Excellent,45 m²,CZK 400,"CZK 15,000",Personal,Brick building,Partially furnished,No,No,No,No,No,No,No,24. 01. 2022,G,164,896,219,925,253,171,374,482,684,401,2,,,,,,,,,,,
700594,"CZK 16,000",50.05446,14.48328,"Podle Náhonu, Prague - Záběhlice",1 bedroom with open-plan kitchen,New build,50 m²,"CZK 3,000","CZK 20,000",Personal,Brick building,Partially furnished,Yes,No,No,No,No,Yes,Yes,24. 01. 2022,B,118,"1,266",479,"1,207",316,"1,104","1,104",852,457,276,2,,,,,,,,,,,
696707,"CZK 12,000",50.04813,14.48751,"Dunická, Prague - Záběhlice",1 bedroom,Good,53 m²,"CZK 2,000","CZK 15,000",Personal,Prefab concrete building,Furnished,No,No,No,Yes,No,No,No,01. 01. 2022,G,209,233,160,175,72,68,293,916,296,,5,,,,,,,,,,,
446124,"CZK 16,500",50.0058372,14.4149292,"Soukalova, Prague - Modřany",1 bedroom with open-plan kitchen,,49 m²,"CZK 3,500","CZK 16,500",Personal,Brick building,Unfurnished,Yes,No,Yes,No,Yes,No,Yes,01. 02. 2022,B,246,257,379,339,405,40,617,740,869,72,2,Yes,1 to 10 years years,Premium materials and solutions,,District heating,Middle floor,,,,,
621284,"CZK 17,500",50.096293,14.451753,"Za Karlínským přístavem, Prague - Karlín",Studio,New build,38 m²,"CZK 2,500","CZK 20,000",Personal,Brick building,,Yes,No,No,No,No,Yes,Yes,01. 09. 2020,B,293,598,273,266,168,410,831,566,644,,5,,,,,,,,,,,
395770,"CZK 14,900",50.071136,14.4595507,Prague - Vršovice,1 bedroom with open-plan kitchen,Excellent,36 m²,"CZK 1,400","CZK 30,000",Personal,Brick building,Furnished,No,No,No,No,No,Yes,No,15. 01. 2022,,105,627,88,397,55,401,215,265,701,238,2,,,,,Gas boiler,Middle floor,,,,,
515752,"CZK 12,000",50.0730017,14.3941452,"Grafická, Prague - Smíchov",Studio,,38 m²,"CZK 4,000","CZK 29,000",Personal,Brick building,Unfurnished,No,No,Yes,No,No,Yes,No,24. 01. 2022,,141,905,33,596,12,687,46,985,953,287,4,,,,,Central heating,,,,,,
699995,"CZK 11,200",50.086174,14.563533,"U Hostavického potoka, Prague - Hostavice",Studio,Excellent,38 m²,"CZK 2,300","CZK 20,000",Personal,Brick building,Partially furnished,No,No,No,No,No,No,No,,C,225,232,568,133,,,,,,,1,,,,,,,,,,,
696459,"CZK 15,000",50.0763,14.42761,"Hálkova, Prague - Nové Město",Small studio,Excellent,29 m²,"CZK 4,000","CZK 30,000",Personal,Brick building,Furnished,No,No,Yes,No,No,Yes,No,01. 03. 2022,G,196,679,169,101,77,170,168,242,235,148,2,,,Premium materials and solutions,,Central heating,Middle floor,Interior,,,,
633108,"CZK 16,500",50.07051,14.398989,"Mrázovka, Prague - Smíchov",1 bedroom with open-plan kitchen,Excellent,58 m²,CZK 830,"CZK 16,500",Personal,Brick building,Furnished,No,No,No,No,No,Yes,No,01. 03. 2022,G,341,270,263,258,237,319,83,738,701,220,2,,,,,,,,,,,
699995,"CZK 11,200",50.086174,14.563533,"U Hostavického potoka, Prague - Hostavice",Studio,Excellent,38 m²,"CZK 2,300","CZK 20,000",Personal,Brick building,Partially furnished,No,No,No,No,No,No,No,,C,225,232,568,133,,,,,,,1,,,,,,,,,,,
696459,"CZK 15,000",50.0763,14.42761,"Hálkova, Prague - Nové Město",Small studio,Excellent,29 m²,"CZK 4,000","CZK 30,000",Personal,Brick building,Furnished,No,No,Yes,No,No,Yes,No,01. 03. 2022,G,196,679,169,101,77,170,168,242,235,148,2,,,Premium materials and solutions,,Central heating,Middle floor,Interior,,,,
633108,"CZK 16,500",50.07051,14.398989,"Mrázovka, Prague - Smíchov",1 bedroom with open-plan kitchen,Excellent,58 m²,CZK 830,"CZK 16,500",Personal,Brick building,Furnished,No,No,No,No,No,Yes,No,01. 03. 2022,G,341,270,263,258,237,319,83,738,701,220,2,,,,,,,,,,,
700590,"CZK 22,000",50.09611,14.40308,"Tychonova, Prague - Hradčany",2 bedroom with open-plan kitchen,Good,86 m²,"CZK 3,000","CZK 22,000",Personal,Brick building,Partially furnished,Yes,No,No,No,No,Yes,No,01. 03. 2022,G,173,922,221,182,83,262,104,"1,263",46,394,3,,,Standard materials and solutions,,District heating,Middle floor,,,,,
686085,"CZK 27,000",50.0723321,14.4399493,"Jana Masaryka, Prague - Vinohrady",2 bedroom,,82 m²,"CZK 9,000",,,,Furnished,No,No,No,No,No,Yes,No,27. 01. 2022,,155,369,147,651,45,545,205,328,671,484,3,,,,,,,,,,,
700587,"CZK 14,000",50.00484,14.4155,"Soukalova, Prague - Modřany",Studio,New build,40 m²,"CZK 2,800","CZK 14,000",Personal,Brick building,Furnished,Yes,No,No,No,No,Yes,Yes,01. 03. 2022,B,129,181,444,300,329,166,737,805,778,152,5,,1 to 10 years years,Premium materials and solutions,,District heating,Middle floor,,,,,
557770,"CZK 18,000",50.04573,14.30168,"Medunova, Prague - Stodůlky",1 bedroom with open-plan kitchen,New build,59 m²,"CZK 3,000","CZK 36,000",Personal,Low-energy building,Furnished,Yes,No,No,No,No,No,No,24. 01. 2022,A,324,194,220,27,"1,095","1,192",797,958,182,,4,Yes,,,,,,Overall,,,,
580408,"CZK 9,500",50.076402,14.431207,"Mikovcova, Prague - Vinohrady",Small studio,New build,20 m²,"CZK 2,300","CZK 12,000",Personal,Brick building,Furnished,No,No,No,No,No,No,No,05. 11. 2019,D,106,404,68,93,28,193,418,558,282,519,,,1 to 10 years years,Standard materials and solutions,,Central heating,,Interior,,,,
700579,"CZK 21,000",50.0985,14.43179,"Veverkova, Prague - Holešovice",2 bedroom,Excellent,77 m²,"CZK 4,300","CZK 40,000",Cooperative,Brick building,Partially furnished,Yes,No,Yes,No,No,Yes,No,01. 02. 2022,G,119,654,116,91,153,173,177,"1,451",122,338,6,,,Premium materials and solutions,,District heating,,,,,,
565798,"CZK 10,990",50.1043332,14.4510465,"Přístavní, Prague - Holešovice",Studio,,24 m²,"CZK 1,790","CZK 15,000",Personal,Brick building,Unfurnished,No,No,No,No,No,No,No,,,125,223,118,177,14,161,522,484,352,425,1,,,,,Central heating,,,,,,
565798,"CZK 10,990",50.1043332,14.4510465,"Přístavní, Prague - Holešovice",Studio,,24 m²,"CZK 1,790","CZK 15,000",Personal,Brick building,Unfurnished,No,No,No,No,No,No,No,,,125,223,118,177,14,161,522,484,352,425,1,,,,,Central heating,,,,,,
699978,"CZK 11,200",50.08685,14.46044,"Jeseniova, Prague - Žižkov",Studio,Good,37 m²,"CZK 3,200","CZK 11,000",Personal,Prefab concrete building,Partially furnished,No,No,No,Yes,No,No,No,20. 01. 2022,C,47,403,75,572,264,376,309,355,477,197,1,,,Standard materials and solutions,,,Middle floor,Interior,,,,
680093,"CZK 32,400",50.091319,14.4234523,"U Obecního dvora, Prague - Staré Město",2 bedroom,,62 m²,"CZK 10,800",,,,Furnished,No,No,No,No,No,Yes,No,27. 01. 2022,,116,432,102,253,102,270,297,393,201,165,2,,,,,,,,,,,
690504,"CZK 19,425",50.084008861001,14.414631128311,"Boršov, Prague - Staré Město",Studio,,25 m²,"CZK 6,475",,,,Furnished,No,No,No,No,No,No,No,27. 01. 2022,,151,761,53,417,7,404,559,561,517,251,2,,,,,,,,,,,
680075,"CZK 37,500",50.0372353,14.482405,"Hněvkovská, Prague - Chodov",1 bedroom with open-plan kitchen,,40 m²,"CZK 12,500",,,,Furnished,No,Yes,No,No,No,No,No,27. 01. 2022,,469,"1,480",408,"1,340",370,"1,305",889,"1,194",334,309,-1,,,,,,,,,,,
680056,"CZK 36,000",50.079465,14.4353199,"Mánesova, Prague - Vinohrady",1 bedroom with open-plan kitchen,,59 m²,"CZK 12,000",,,,Furnished,No,No,No,No,No,No,No,27. 01. 2022,,156,408,244,342,59,242,281,281,533,788,-1,,,,,,,,,,,
679998,"CZK 37,500",50.0932606,14.457484,"Lyčkovo náměstí, Prague - Karlín",1 bedroom,,46 m²,"CZK 12,500",,,,Furnished,No,No,No,No,No,Yes,No,27. 01. 2022,,254,835,179,436,125,299,66,"1,356",350,193,3,,,,,,,,,,,
679997,"CZK 37,500",50.073194,14.4364932,"Uruguayská, Prague - Vinohrady",2 bedroom,,65 m²,"CZK 12,500",,,,Furnished,No,No,No,No,No,Yes,No,27. 01. 2022,,271,101,117,353,35,204,64,230,885,796,4,,,,,,,,,,,
697278,"CZK 19,875",50.0643299,14.4102127,"Strakonická, Prague - Smíchov",2 bedroom,,50 m²,"CZK 6,625",,,,Furnished,No,No,No,No,No,No,No,27. 01. 2022,,211,382,250,989,170,745,812,"1,050",387,543,-1,,,,,,,,,,,
574721,"CZK 13,500",50.0564901,14.3741029,"Kačírkova, Prague - Jinonice",Studio,New build,32 m²,"CZK 1,500","CZK 13,500",Personal,Brick building,Furnished,Yes,No,Yes,No,Yes,Yes,Yes,01. 02. 2022,B,166,109,260,"1,261",69,170,681,162,"1,173",120,4,Yes,,,,,,,,,,
450463,"CZK 7,402",50.058202,14.5205966,"Na Groši, Prague - Hostivař",Small studio,Excellent,27 m²,"CZK 2,598","CZK 10,000",Personal,Prefab concrete building,Partially furnished,No,No,No,No,No,No,No,01. 02. 2022,B,53,916,152,879,900,920,848,"1,195",950,217,2,,10 to 30 years years,Standard materials and solutions,,District heating,Middle floor,,,,,
404507,"CZK 13,500",50.0561286,14.4214707,Prague - Podolí,1 bedroom with open-plan kitchen,Excellent,44 m²,"CZK 2,500",,Personal,Brick building,Partially furnished,Yes,No,Yes,No,Yes,Yes,No,01. 03. 2022,,314,461,345,234,292,458,173,781,390,136,3,,,,,Central heating,Middle floor,Overall,,,,
599085,"CZK 17,000",50.073142,14.317896,"Krolmusova, Prague - Řepy",3 bedroom,Excellent,61 m²,"CZK 3,500","CZK 30,000",Personal,Brick building,Partially furnished,No,No,Yes,No,No,No,No,01. 03. 2022,,321,"1,410",537,"1,477",394,"1,224","1,044",99,272,88,2,,30 to 50 years years,Standard materials and solutions,2000 m²,District heating,Middle floor,Interior,,,,
542713,"CZK 17,000",50.1006358,14.3617215,"Tobrucká, Prague - Vokovice",1 bedroom with open-plan kitchen,Excellent,54 m²,"CZK 3,500","CZK 34,000",Personal,Prefab concrete building,Furnished,No,No,Yes,No,No,Yes,No,24. 01. 2022,,340,539,625,475,516,636,460,200,303,,7,,1 to 10 years years,Premium materials and solutions,,District heating,Middle floor,Overall,,,,
693758,"CZK 13,000",50.10778,14.47439,"Andrštova, Prague - Libeň",Studio,Good,48 m²,"CZK 3,000","CZK 15,000",Personal,Brick building,Partially furnished,No,No,Yes,No,No,Yes,No,01. 02. 2022,G,311,762,258,352,250,361,291,585,379,318,2,,,,,,,,,,,
699968,"CZK 13,000",50.12371,14.49601,"Jablonecká, Prague - Střížkov",1 bedroom with open-plan kitchen,Excellent,42 m²,"CZK 3,000","CZK 13,000",Personal,Prefab concrete building,Furnished,No,No,Yes,Yes,No,Yes,No,01. 02. 2022,B,277,188,128,127,103,281,572,335,936,11,7,,,,,,,,,,,
700542,"CZK 15,000",50.08692,14.46883,"Malešická, Prague - Žižkov",1 bedroom with open-plan kitchen,Good,44 m²,"CZK 3,600","CZK 30,000",Personal,Brick building,Partially furnished,No,Yes,Yes,No,No,Yes,No,01. 03. 2022,C,121,421,49,195,73,338,372,380,336,419,5,,,,,,,,,,,
588123,"CZK 24,500",50.075306,14.41547,"Dittrichova, Prague - Nové Město",1 bedroom with open-plan kitchen,Excellent,69 m²,"CZK 4,000","CZK 28,500",Cooperative,Brick building,Furnished,No,No,No,No,No,No,No,01. 02. 2022,G,117,263,234,291,45,337,175,523,739,462,,,30 to 50 years years,Standard materials and solutions,,Gas boiler,Ground floor,Interior,,,,
700562,"CZK 23,000",50.078878,14.4537574,"Lucemburská, Prague - Vinohrady",1 bedroom with open-plan kitchen,Excellent,68 m²,"CZK 4,000","CZK 23,000",Personal,Brick building,Furnished,No,Yes,No,No,No,Yes,No,24. 01. 2022,G,362,243,112,186,75,454,329,497,916,191,6,,,,,,,,,,,
