Price,Fees,Listing ID,Layout,Avaliable from,Floor space,Fully furnished,Floor,Lift,public_transport,post,shop,bank,restaurant,pharmacy,school,kindergarten,sports_field,playground,District,Latitude,Longitude,Refundable security deposit,Building type,Age,Reconstruction,Condition,Ownership,EPC,Heating,Designe,Terrace,Balcony,New-build,Garage,Parking,Enclosed balcony,Domácí mazlíčci vítáni,Cellar,Administrative fee
"CZK 52,500","CZK 17,500",731817,2+kk,10/30/2022,80 m²,Fully furnished,3,1.0,281.86,547.59,69.97,211.73,9.84,221.9,245.36,614.41,367.39,520.5,"Ve Smečkách, Prague - Nové Město",50.0795975,14.4273504,,,,,,,,,,,,,,,,,,
"CZK 55,000","CZK 12,000",600532,4+1,8/26/2022,165 m²,Partly,6,1.0,281.19,218.92,349.21,355.1,68.81,419.51,195.94,539.69,525.15,308.24,"Janáčkovo Nábřeží, Prague - Smíchov",50.0756819,14.4085242,"CZK 60,000",Brick,Up to 10 years,Interior,Very good,Personal,G,Central,Luxurious,1.0,,,,,,,,
"CZK 17,120","CZK 5,000",509997,2+kk,9/1/2022,56 m²,Fully furnished,1,,742.13,400.25,652.82,1532.69,674.16,440.63,311.54,533.65,806.07,419.78,"Klausova, Prague - Stodůlky",50.0370525,14.3446198,"CZK 20,000",Brick,10 to 30 years,Interior,Very good,Personal,,Gas boiler,Standard,,,,,,,,,
"CZK 30,000","CZK 9,000",606435,3+1,9/12/2022,136 m²,Unfurnished,2,1.0,281.19,218.92,349.21,355.1,68.81,419.51,195.94,539.69,525.15,308.24,"Janáčkovo Nábřeží, Prague - Smíchov",50.075681,14.408523,"CZK 30,000",Brick,,,Good,Personal,G,,,,,,,,,,,
"CZK 14,500","CZK 3,000",731806,Studio,9/1/2022,45 m²,Partly,3,1.0,192.27,910.61,150.25,326.7,59.39,306.72,360.7,594.12,374.26,65.73,Prague - Libeň,50.10481,14.488,"CZK 20,000",Brick,,,New-build,,G,,,,1.0,1.0,1.0,,,,,
"CZK 10,000","CZK 4,500",532966,1 bedroom,9/15/2022,50 m²,Fully furnished,,,42.39,900.33,776.91,1023.52,561.54,907.81,1006.95,861.82,711.36,235.65,Prague - Modřany,49.9991704,14.4145554,"CZK 10,000",Brick,Up to 10 years,Complete,Very good,Personal,C,Electric boiler,Luxurious,,,,,,,,,
"CZK 17,000","CZK 3,500",731795,2+kk,9/1/2022,40 m²,Fully furnished,1,,240.07,1265.84,601.84,894.93,796.68,1344.68,1267.55,1254.31,1267.28,235.71,Prague - Suchdol,50.13334,14.36768,"CZK 17,000",Brick,,,Very good,,G,,,1.0,,,1.0,1.0,,,,
"CZK 14,300","CZK 4,500",570939,2+kk,10/1/2022,51 m²,Partly,4,1.0,255.25,900.9,507.92,712.89,632.52,415.84,496.78,572.0,1241.58,406.47,"U Továren, Prague - Horní Měcholupy",50.040586,14.568464,"CZK 25,000",Brick,,,New-build,Personal,B,Distance,,,1.0,1.0,1.0,,,,,
"CZK 19,000","CZK 5,000",731794,3+1,8/30/2022,85 m²,Partly,4,,167.55,1458.44,212.29,1498.41,144.74,133.82,626.74,223.89,1153.45,11.8,Prague - Hostivař,50.04536,14.51707,"CZK 24,000",Prefab concrete,,,Very good,,G,,,,,,,,1.0,,,
"CZK 12,000","CZK 6,000",588580,1 bedroom,6/1/2022,40 m²,Fully furnished,1,,87.62,199.98,94.39,16.26,97.48,177.74,263.1,459.6,475.82,231.83,"Boleslavova, Prague - Nusle",50.064228,14.439752,"CZK 20,000",Brick,Over 50 years,Complete,Very good,Personal,D,Electric boiler,Standard,,,,,,,,,
"CZK 19,000","CZK 6,000",731788,3+1,8/30/2022,77 m²,Partly,4,1.0,13.57,1392.96,35.73,1389.9,261.6,953.76,555.19,848.41,333.67,442.66,Prague - Chodov,50.03738,14.4776,"CZK 25,000",Prefab concrete,,,Very good,,G,,,,,,,,1.0,1.0,,
"CZK 13,000","CZK 3,600",394108,Studio,2/14/2022,38 m²,Partly,2,1.0,397.48,1157.97,524.03,810.7,282.3,556.98,243.15,618.05,949.96,157.32,"Jurkovičova, Prague - Háje",50.025085,14.526786,"CZK 30,000",Brick,Up to 10 years,,New-build,Personal,C,Distance,Standard,,1.0,1.0,1.0,,,,1.0,
"CZK 18,000","CZK 5,500",731786,2+kk,8/30/2022,66 m²,Fully furnished,1,1.0,223.14,396.36,386.08,380.82,166.66,392.32,871.88,943.9,697.12,319.69,Prague - Záběhlice,50.05328,14.5131,"CZK 36,000",Other,,,Very good,,G,,,,1.0,,1.0,1.0,,,,
"CZK 14,000","CZK 3,500",695310,Studio,10/1/2022,40 m²,Fully furnished,1,,394.49,1024.78,403.26,1011.66,597.66,653.23,690.05,512.4,182.93,374.21,"Za Stadionem, Prague - Strašnice",50.08465,14.49003,"CZK 25,000",Brick,,,Very good,Personal,E,Central,,,,,,,1.0,,1.0,
"CZK 19,000","CZK 5,000",680619,2+kk,9/1/2022,42 m²,Fully furnished,4,1.0,366.0,749.46,232.71,850.17,282.07,440.67,709.99,695.67,470.69,307.11,"U Hranic, Prague - Strašnice",50.06921075,14.484043897371,"CZK 24,000",Brick,Up to 10 years,,New-build,Personal,G,Central,,,1.0,,,,,,1.0,
"CZK 28,000","CZK 5,500",731257,2+kk,9/12/2022,65 m²,Fully furnished,3,1.0,317.17,621.5,297.62,296.86,195.97,433.63,686.66,1053.07,567.17,521.88,Prague - Karlín,50.09598,14.45293,"CZK 56,000",Low-energy,,,New-build,,B,,,1.0,,1.0,1.0,1.0,1.0,,,
"CZK 16,000","CZK 4,700",731783,2+kk,10/1/2022,45 m²,Fully furnished,2,1.0,87.46,291.02,164.85,573.95,23.76,280.13,390.41,427.27,175.63,261.32,Prague - Žižkov,50.08749,14.4538,"CZK 20,000",Brick,,,Very good,,B,,,,1.0,,,,,,1.0,
"CZK 18,000",CZK 0,730625,2 bedroom,8/20/2022,70 m²,Partly,1,,116.18,1129.79,507.6,1052.84,342.54,826.51,467.99,680.11,864.92,474.26,Prague - Řepy,50.07081,14.30226,"CZK 16,000",Brick,Over 50 years,Interior,Good,,G,,,,,,,1.0,,1.0,,
"CZK 12,000","CZK 2,000",425445,Small studio,10/10/2022,22 m²,Fully furnished,1,,96.37,1112.27,342.53,720.59,185.54,791.77,490.82,465.42,674.92,179.97,"Na Jezerce, Prague - Nusle",50.0582532,14.44353,"CZK 14,000",Brick,Up to 10 years,Complete,Very good,Personal,,,,,,,,,,,,
"CZK 12,000","CZK 1,000",731777,Studio,9/1/2022,49 m²,Fully furnished,3,1.0,406.44,1042.14,249.25,1071.49,759.39,1028.76,543.05,720.52,1724.73,169.88,Prague - Letňany,50.12864,14.50206,"CZK 31,000",Other,10 to 30 years,,Very good,,B,Central,Standard,,,1.0,,,1.0,,,
"CZK 10,000","CZK 2,200",731776,Studio,10/1/2022,25 m²,Fully furnished,13,1.0,90.35,334.37,180.12,161.08,60.98,190.91,204.53,131.75,1042.05,295.0,Prague - Vokovice,50.0981,14.35827,"CZK 20,000",Prefab concrete,,,Very good,,G,,,,,,,,1.0,,1.0,
"CZK 20,000","CZK 4,343",731129,2+kk,9/5/2022,55 m²,Fully furnished,3,1.0,225.8,186.58,162.91,156.93,59.19,229.02,808.23,113.99,1814.25,141.14,Prague - Jinonice,50.05661,14.3731,"CZK 30,000",Brick,Up to 10 years,,New-build,Personal,B,Distance,Luxurious,,1.0,1.0,1.0,,,,1.0,
"CZK 29,925","CZK 9,975",731240,1 bedroom,9/1/2022,30 m²,Fully furnished,2,1.0,22.29,481.37,107.82,95.32,6.34,158.39,351.4,425.94,380.79,468.94,"Legerova, Prague - Vinohrady",50.0749602,14.4305105,,,,,,,,,,,,,,,,,,
"CZK 23,000","CZK 5,000",639729,2+kk,8/5/2021,40 m²,Fully furnished,1,,63.42,536.25,170.33,317.15,153.02,375.33,210.02,451.41,358.31,265.66,"Jilemnického, Prague - Bubeneč",50.100138,14.401621,"CZK 23,000",Brick,,Complete,Very good,Personal,D,Electric boiler,,,,,,,,,,
"CZK 24,500","CZK 3,900",647743,2+kk,9/1/2022,52 m²,Fully furnished,6,1.0,321.74,272.42,32.18,227.85,42.93,69.06,244.65,812.35,163.33,572.38,"Opletalova, Prague - Nové Město",50.0814214,14.4299039,"CZK 28,400",Brick,,Complete,Very good,Personal,D,Central,Luxurious,1.0,,,,1.0,,,,
"CZK 16,000","CZK 7,300",708480,2 bedroom,11/1/2022,53 m²,Unfurnished,3,1.0,102.94,180.37,269.43,254.61,232.0,280.22,515.14,307.34,1413.59,372.74,"Súdánská, Prague - Vokovice",50.09793,14.3627,"CZK 25,000",Prefab concrete,,Complete,Very good,Personal,G,Distance,,,,,,,1.0,,1.0,
"CZK 12,000","CZK 3,000",645239,Small studio,10/1/2022,33 m²,Partly,3,1.0,144.37,1519.12,831.87,2175.27,613.06,1565.58,1200.65,1702.47,1184.09,625.33,"Sicherova, Prague - Kyje",50.115288,14.562752,"CZK 15,000",Brick,Up to 10 years,,New-build,Personal,B,Distance,Standard,,1.0,1.0,,1.0,,,,
"CZK 26,000","CZK 6,300",549924,3+1,10/1/2022,80 m²,Fully furnished,3,,217.06,836.0,532.68,1632.55,390.74,731.29,193.67,639.92,883.9,714.81,"Nová Šárka, Prague - Liboc",50.092312,14.3189191,"CZK 50,000",Brick,,Interior,Very good,Cooperative,,Distance,Luxurious,,1.0,,1.0,1.0,,,1.0,
"CZK 9,800",CZK 0,731767,2 bedroom,9/15/2022,63 m²,Fully furnished,2,1.0,141.3,356.04,135.26,687.52,94.88,543.66,183.66,98.76,642.78,455.58,Prague - Vinohrady,50.07231,14.44043,"CZK 8,500",Brick,,,Good,,E,,,,,,,,,,,
"CZK 20,500","CZK 3,600",731765,2+kk,10/1/2022,42 m²,Partly,2,,191.47,877.18,113.29,595.83,91.16,183.52,272.02,494.55,359.42,223.04,Prague - Libeň,50.10712,14.49347,"CZK 30,000",Brick,,,Very good,,G,,,,,,,,,,1.0,
"CZK 18,250","CZK 1,500",720582,1 bedroom,7/1/2022,34 m²,Fully furnished,2,,394.31,376.95,228.04,349.35,34.98,624.43,381.88,610.55,688.95,233.34,Prague - Malá Strana,50.08608290623,14.407474153125,"CZK 19,750",Brick,Over 50 years,Bathroom unit,Good,,G,,Standard,,,,,,,1.0,,
"CZK 13,000","CZK 3,500",409950,Studio,9/1/2022,30 m²,Partly,1,,408.49,947.86,441.84,918.42,430.3,926.26,700.91,1117.13,453.39,125.52,"Jaroslava Foglara, Prague - Stodůlky",50.0387763,14.3310056,"CZK 14,000",Brick,,,Very good,Personal,,Central,Standard,,,,,1.0,,,,
"CZK 27,000","CZK 2,000",731105,2+kk,8/24/2022,57 m²,Unfurnished,2,,123.88,389.44,377.0,355.55,47.68,331.61,357.79,654.7,1031.57,800.55,Prague - Malá Strana,50.09046,14.40395,CZK 0,Brick,,,Very good,,G,Electric boiler,Standard,,,,,,,1.0,,
"CZK 22,500","CZK 4,200",671251,2+kk,10/1/2022,73 m²,Unfurnished,3,1.0,422.58,1854.97,1714.61,2090.14,503.48,1958.45,1226.98,1964.17,708.64,1134.59,"Mezi Vodami, Prague - Hodkovičky",50.018801138595,14.400669513707,"CZK 22,500",Other,,,New-build,Personal,B,,Luxurious,1.0,1.0,1.0,1.0,1.0,1.0,,1.0,
"CZK 14,500","CZK 4,500",247725,2+kk,9/15/2022,42 m²,Partly,8,,148.89,722.0,290.75,457.7,331.86,343.41,213.6,366.3,871.84,97.64,Prague - Prosek,50.1190881,14.4943656,"CZK 20,000",Other,,,,Personal,,Central,,,,,,,,,,
"CZK 22,000","CZK 6,000",716761,3+1,5/9/2022,75 m²,Fully furnished,7,1.0,69.61,506.32,83.14,1497.66,725.41,563.08,613.34,646.45,1092.89,385.31,"Cíglerova, Prague - Černý Most",50.1069,14.56511,"CZK 40,000",Prefab concrete,,Complete,Very good,Personal,C,Central,Standard,,,,,,,,,
"CZK 18,000","CZK 4,000",731757,2+kk,10/1/2022,55 m²,Fully furnished,3,,468.59,1241.86,951.29,1305.67,645.67,1041.78,759.61,531.43,557.17,272.68,Prague - Řepy,50.06951,14.31854,"CZK 20,000",Brick,,,Very good,,G,,,,,,,,,,1.0,
"CZK 19,990","CZK 2,000",731755,2+kk,9/15/2022,50 m²,Fully furnished,2,,125.84,1198.46,131.49,189.69,56.43,51.08,248.92,471.55,288.57,351.12,Prague - Žižkov,50.09098,14.47381,"CZK 30,000",Brick,Up to 10 years,Interior,Very good,,G,Electric boiler,,,,,,,,,,
"CZK 17,900","CZK 3,500",496763,2+kk,10/1/2022,57 m²,Partly,7,1.0,276.39,226.65,74.03,1574.47,223.18,1030.5,998.89,625.56,805.85,142.05,"Svitákova, Prague - Stodůlky",50.0473402,14.3031131,"CZK 30,000",Brick,Up to 10 years,,New-build,Personal,B,Distance,Standard,,1.0,1.0,,,,,,
"CZK 30,000","CZK 9,000",731752,3+kk,10/1/2022,120 m²,Fully furnished,10,1.0,338.16,922.53,683.97,787.42,808.57,379.1,480.13,748.05,1280.49,389.82,Prague - Horní Měcholupy,50.04028,14.56921,"CZK 60,000",Other,,,New-build,,C,,,,1.0,1.0,,1.0,1.0,,1.0,
"CZK 19,000","CZK 5,120",652836,Studio,10/1/2022,59 m²,Fully furnished,2,1.0,62.53,1099.2,686.55,791.19,452.69,772.93,906.21,844.17,329.03,496.04,"Radičova, Prague - Břevnov",50.08058,14.3746,"CZK 38,000",Brick,Up to 10 years,,New-build,Personal,A,Distance,Luxurious,1.0,1.0,1.0,1.0,1.0,,,1.0,
"CZK 30,000","CZK 6,000",641531,3+kk,2/1/2021,85 m²,Fully furnished,4,1.0,130.93,1007.1,37.48,465.02,115.5,445.04,247.78,438.88,274.05,99.72,"U Svobodárny, Prague - Libeň",50.105646,14.48901,"CZK 60,000",Prefab concrete,Up to 10 years,,New-build,Personal,A,Distance,Luxurious,,1.0,1.0,1.0,1.0,,,1.0,
"CZK 11,152","CZK 5,437",660740,Studio,9/1/2022,34 m²,Fully furnished,7,1.0,346.04,675.47,41.4,613.85,582.24,291.72,312.09,235.57,525.82,149.18,"Veltruská, Prague - Prosek",50.12094,14.4904,"CZK 18,000",Prefab concrete,30 - 50 years,Complete,Very good,Cooperative,C,Distance,Standard,,,,,1.0,1.0,,,
"CZK 13,990","CZK 2,000",690553,Small studio,8/31/2022,30 m²,Fully furnished,2,1.0,173.2,143.72,55.5,115.32,75.38,164.5,161.13,377.97,198.6,457.31,"Štítného, Prague - Žižkov",50.0851483,14.4512417,"CZK 25,000",Brick,Up to 10 years,Complete,Very good,Personal,B,Electric boiler,Standard,,,,,,,,,
"CZK 20,000","CZK 3,500",731205,Studio,10/1/2022,38 m²,Partly,8,1.0,406.29,744.63,290.7,539.71,319.88,734.62,509.68,1006.76,121.55,355.04,Prague - Strašnice,50.0802779,14.4893397,"CZK 47,000",Low-energy,,,New-build,Personal,B,Central,Luxurious,1.0,1.0,1.0,1.0,1.0,,,1.0,
"CZK 13,000","CZK 6,000",681499,Studio,10/1/2022,40 m²,Fully furnished,1,,153.1,467.97,106.55,224.73,285.57,487.53,190.0,338.31,720.17,416.19,"Jerevanská, Prague - Vršovice",50.0705441,14.4709632,"CZK 19,000",Brick,,,Very good,Personal,F,Distance,,,,,,,,,1.0,
"CZK 12,000","CZK 2,500",589202,1 bedroom,12/1/2020,33 m²,Fully furnished,1,1.0,157.47,762.22,118.45,398.18,134.53,331.3,560.26,232.14,154.43,271.77,"Biskupcova, Prague - Žižkov",50.091711,14.482038,"CZK 12,000",Brick,,Complete,Very good,Cooperative,G,Distance,,,,,,,,,,
"CZK 16,000","CZK 2,000",681228,2 bedroom,9/1/2022,66 m²,Partly,,,157.9,165.01,122.59,129.53,12.48,115.97,408.42,228.56,453.02,120.59,"Slezská, Prague - Vinohrady",50.0768057,14.4613696,"CZK 20,000",Brick,,Complete,Very good,Personal,G,Electric boiler,,,,,,,,,,
"CZK 18,000","CZK 3,500",337275,2+kk,10/31/2022,67 m²,Partly,3,1.0,35.96,485.23,26.24,261.89,27.42,260.23,74.83,206.37,549.07,277.91,"Žitomírská, Prague - Vršovice",50.0709555,14.4578324,"CZK 20,000",Brick,,,Very good,Personal,,Central,,,1.0,,,,,,,
"CZK 11,500","CZK 2,500",731747,Studio,8/30/2022,18 m²,Partly,2,,611.24,780.27,433.45,420.1,219.24,740.32,581.38,100.21,449.61,338.75,Prague - Vysočany,50.10672,14.50538,"CZK 14,000",Other,,,New-build,,B,,,,,1.0,,,,,,
"CZK 32,000","CZK 4,000",731196,Studio,10/10/2022,50 m²,Fully furnished,1,1.0,203.59,507.92,184.04,131.46,104.78,320.04,818.18,896.49,475.93,304.76,Prague - Karlín,50.09559,14.45041,"CZK 32,000",Low-energy,,,New-build,,G,,,1.0,,,1.0,1.0,,1.0,,
"CZK 20,000","CZK 3,500",731189,3+kk,8/25/2022,74 m²,Fully furnished,3,1.0,229.91,1113.04,519.35,817.69,31.77,459.1,564.26,341.15,1210.19,261.87,Prague - Smíchov,50.07301,14.39351,"CZK 30,000",Brick,,,Very good,,D,,,,,,,,,,,
"CZK 13,000",CZK 0,731744,1 bedroom,8/30/2022,25 m²,Partly,-2,1.0,526.23,1761.75,670.71,1678.77,518.16,1314.39,103.82,711.14,1340.53,1014.3,Prague - Smíchov,50.05165,14.40599,"CZK 13,000",Brick,,,Very good,,G,,,,,,,1.0,,1.0,,
"CZK 25,808","CZK 8,602",731741,Studio,9/5/2022,35 m²,Fully furnished,1,1.0,237.21,722.71,270.23,1114.48,162.06,485.4,549.42,612.82,571.2,287.12,"U Nikolajky, Prague - Smíchov",50.0656652,14.3917771,,,,,,,,,,1.0,1.0,,1.0,,,,,
"CZK 31,000","CZK 6,000",628613,3+1,9/1/2022,89 m²,Fully furnished,1,1.0,167.95,912.97,160.16,349.44,164.94,418.89,576.42,448.95,290.35,341.84,"Slavojova, Prague - Nusle",50.064215,14.424948,"CZK 31,000",Brick,30 - 50 years,Complete,Very good,Personal,G,Electric boiler,Standard,,,,,,,,,
"CZK 21,000","CZK 5,000",647821,4+kk,9/1/2022,74 m²,Partly,2,,224.24,379.42,248.66,1352.86,116.55,873.14,768.84,820.64,670.01,63.64,Prague - Krč,50.0211,14.4525,"CZK 25,000",Prefab concrete,,,Good,Personal,B,,,,,,,,1.0,,,
"CZK 13,500","CZK 3,000",673636,Studio,11/1/2022,25 m²,Fully furnished,4,,704.85,817.97,596.7,877.75,624.34,856.57,654.27,604.3,753.2,903.88,"Perucká, Prague - Vinohrady",50.06918,14.43767,"CZK 16,000",Brick,,,New-build,Personal,G,,,,,,,,,,,
"CZK 12,000","CZK 3,600",629000,Studio,9/1/2022,36 m²,Fully furnished,1,,153.57,1893.59,1056.27,1652.45,259.8,1300.11,747.91,1361.25,1126.04,670.04,"Mezi vodami, Prague - Modřany",50.01361,14.401305,"CZK 24,000",Other,,,New-build,Personal,B,Distance,,,,,,,,,1.0,
"CZK 25,000","CZK 3,500",731053,3+1,1/15/2023,80 m²,Partly,2,,163.29,926.49,454.19,902.87,485.67,704.88,995.26,691.9,560.36,279.85,Prague - Dejvice,50.09722,14.37377,"CZK 25,000",Brick,,,Very good,,G,,,,1.0,,,,,,1.0,
"CZK 13,500",CZK 0,731728,2+kk,8/30/2022,42 m²,Partly,6,,305.27,730.44,204.38,440.06,215.35,355.2,355.33,555.91,337.08,262.6,Prague - Libeň,50.10809,14.47559,"CZK 20,000",Brick,,,Very good,,E,,,,,,,,,,1.0,
"CZK 15,000","CZK 3,000",731719,2+kk,9/5/2022,39 m²,Fully furnished,2,1.0,112.71,680.29,98.55,583.99,92.22,493.64,176.53,500.12,341.52,268.34,Prague - Nusle,50.06146,14.43617,"CZK 30,000",Brick,,,Good,,C,,,,,,,,,,,
"CZK 15,500","CZK 4,000",731640,2 bedroom,9/15/2022,57 m²,Partly,1,,42.28,1333.45,38.11,1050.56,53.56,352.31,487.68,225.33,739.54,307.67,Prague - Strašnice,50.06666,14.49611,"CZK 19,500",Brick,,,Good,,B,Central,,,,,,1.0,,,,
"CZK 37,500","CZK 12,500",728060,1 bedroom,9/24/2022,50 m²,Fully furnished,2,,187.82,338.29,111.0,241.4,39.4,347.76,25.85,486.49,569.58,575.91,"Karmelitská, Prague - Malá Strana",50.08657,14.4033198,,,,,,,,,,,,,,,,,,
"CZK 12,999","CZK 2,999",661680,Studio,10/1/2022,34 m²,Fully furnished,3,,426.94,712.38,385.38,392.11,337.62,363.52,409.86,737.2,814.72,12.05,"Kvestorská, Prague - Michle",50.04843,14.44784,"CZK 26,000",Other,,Complete,Very good,Personal,D,Distance,Luxurious,,,,,1.0,1.0,,1.0,
"CZK 22,500","CZK 4,281",728700,3+kk,8/5/2022,68 m²,Partly,4,1.0,227.19,694.52,292.56,947.84,372.07,273.0,572.29,459.35,1024.68,123.64,Prague - Chodov,50.02741,14.5197,"CZK 45,000",Prefab concrete,,,Very good,Personal,G,Central,,,,,,,1.0,,1.0,
"CZK 15,500","CZK 5,000",704676,Studio,9/1/2022,25 m²,Fully furnished,1,1.0,258.87,1176.88,518.78,460.6,457.79,197.31,707.5,932.29,451.17,572.73,"Lisabonská, Prague - Libeň",50.10365925,14.496393654922,"CZK 20,500",Brick,,Complete,New-build,Personal,G,Central,,,,,,,,,,
"CZK 24,000","CZK 4,000",624407,2+kk,10/1/2022,56 m²,Partly,3,1.0,113.45,1478.64,27.42,1518.61,75.78,86.71,646.95,252.43,1173.65,178.35,"Bratislavská, Prague - Hostivař",50.044404,14.518172,"CZK 28,000",Prefab concrete,Up to 10 years,Interior,Very good,Personal,G,Distance,Standard,,1.0,,,1.0,,,,
"CZK 18,500",CZK 0,127984,2 bedroom,8/31/2022,75 m²,Partly,1,,377.86,952.52,268.88,785.46,427.06,919.2,278.57,123.86,840.54,359.97,"Zdařilá, Prague - Nusle",50.0551428,14.4464394,"CZK 25,000",Brick,Over 50 years,Complete,Very good,Personal,G,Gas boiler,Standard,,,,,,,,,
"CZK 13,900","CZK 2,500",731265,Studio,8/27/2022,32 m²,Partly,4,1.0,80.58,970.2,288.35,326.95,469.13,383.3,436.86,1714.08,660.71,182.37,Prague - Třebonice,50.05601,14.29032,"CZK 16,400",Brick,,,New-build,,B,,,,1.0,,1.0,,,,,
"CZK 16,000","CZK 4,000",588117,1 bedroom,10/1/2022,33 m²,Fully furnished,3,1.0,80.93,772.53,296.07,305.04,11.12,272.3,712.28,491.69,107.1,150.48,"Na Dolinách, Prague - Nusle",50.057065,14.430227,"CZK 20,000",Brick,30 - 50 years,Interior,Very good,Personal,,Central,Standard,,,,,1.0,,,,
"CZK 12,000","CZK 3,500",731716,Small studio,8/30/2022,27 m²,Fully furnished,11,1.0,136.06,726.01,218.73,718.67,65.95,178.47,358.47,369.3,1202.72,252.72,Prague - Braník,50.02487,14.42535,"CZK 36,000",Prefab concrete,,,Very good,,G,,,,,,,,,,,
"CZK 12,500","CZK 3,500",731165,Studio,8/25/2022,33 m²,Partly,4,1.0,182.11,1074.41,283.25,1012.79,371.69,350.69,363.12,206.49,164.67,174.46,Prague - Střížkov,50.12414,14.48686,"CZK 12,500",Prefab concrete,,,Good,,G,,,,1.0,,,,,,,
"CZK 19,500","CZK 5,365",711808,2+kk,10/1/2022,49 m²,Fully furnished,6,1.0,47.78,826.64,80.43,845.07,369.97,226.1,585.05,391.79,530.72,483.78,"Lehovecká, Prague - Hloubětín",50.1079,14.54644,"CZK 39,000",Brick,,,New-build,Personal,B,,,,1.0,,1.0,1.0,,,1.0,
"CZK 20,000","CZK 3,500",730536,2+kk,9/1/2022,65 m²,Fully furnished,1,,467.09,1003.0,522.43,1785.3,521.26,624.12,460.18,394.67,481.92,205.34,Prague - Libuš,50.01273,14.44535,"CZK 40,000",Brick,,,Very good,,D,,,1.0,,,,,,,,
"CZK 23,000","CZK 3,500",730684,3+1,8/21/2022,90 m²,Partly,1,,277.75,748.23,269.12,722.31,157.77,746.58,201.36,325.29,680.02,360.28,Prague - Strašnice,50.07413,14.49928,"CZK 46,000",Brick,,,Good,,G,,,1.0,,,,,,,,
"CZK 13,500",CZK 800,731707,Studio,8/30/2022,40 m²,Partly,4,1.0,192.27,910.61,150.25,326.7,59.39,306.72,360.7,594.12,374.26,65.73,Prague - Libeň,50.10481,14.488,"CZK 10,000",Brick,,,New-build,,G,,,,1.0,1.0,1.0,1.0,,,1.0,
"CZK 14,000","CZK 4,000",731706,Studio,9/1/2022,36 m²,Fully furnished,6,1.0,98.94,212.38,336.44,633.84,282.69,200.56,528.97,374.06,286.17,183.52,Prague - Žižkov,50.08344,14.4666,"CZK 20,000",Low-energy,,,New-build,,B,,,1.0,,1.0,,,,,1.0,
"CZK 14,500","CZK 1,800",627404,Studio,8/30/2022,23 m²,Fully furnished,2,,362.81,259.2,126.77,286.13,118.18,279.99,159.44,215.84,295.88,466.72,"Vlkova, Prague - Žižkov",50.083992,14.448523,"CZK 20,000",Brick,Up to 10 years,Complete,Very good,Personal,A,Central,Standard,,,,,,,,,
"CZK 17,000","CZK 3,500",724007,2 bedroom,10/1/2022,50 m²,Partly,7,1.0,389.25,774.13,323.7,739.31,727.09,294.3,706.95,822.24,966.06,553.44,Prague - Stodůlky,50.05252,14.33426,"CZK 25,000",Prefab concrete,,,Good,,F,,,,1.0,,,,,,,
"CZK 23,000","CZK 3,000",731488,3+1,8/29/2022,82 m²,Partly,9,1.0,40.25,379.85,352.39,131.89,402.17,378.41,131.15,375.26,314.93,334.06,Prague - Vršovice,50.06931,14.46582,"CZK 46,000",Prefab concrete,,,Good,,D,Central,Standard,,,,,,1.0,,,
"CZK 18,000","CZK 1,600",671891,2+kk,10/1/2022,65 m²,Unfurnished,6,1.0,99.38,619.05,58.38,314.47,74.91,323.02,637.72,719.51,315.15,363.17,"V Háji, Prague - Holešovice",50.10461,14.45394,"CZK 30,000",Brick,Up to 10 years,Complete,Very good,Personal,G,Gas boiler,Standard,,,,,,,,1.0,
"CZK 14,000","CZK 3,000",731675,Studio,9/10/2022,34 m²,Fully furnished,4,1.0,159.96,318.63,144.94,410.41,117.64,270.71,737.06,831.3,943.97,238.54,Prague - Uhříněves,50.03064,14.59533,"CZK 30,000",Brick,,,Very good,,G,,,,,,,1.0,1.0,,1.0,
"CZK 32,918","CZK 10,972",731292,Studio,10/28/2022,35 m²,Fully furnished,2,,247.87,258.88,108.69,237.41,65.07,538.8,263.81,273.73,806.33,230.99,"Míšeňská, Prague - Malá Strana",50.0876118,14.4080467,,,,,,,,,,,,,,,,,,
"CZK 51,656","CZK 17,219",728895,2 bedroom,10/6/2022,60 m²,Fully furnished,4,1.0,110.1,392.87,177.02,129.22,79.72,168.29,299.92,497.22,273.67,349.66,"Dlážděná, Prague - Nové Město",50.0865843,14.4323212,,,,,,,,,,,,,,,,,,
"CZK 18,000","CZK 6,000",730186,Studio,10/16/2022,21 m²,Fully furnished,5,1.0,343.73,639.29,118.56,534.69,89.23,275.1,341.07,136.6,194.25,439.23,"Polská, Prague - Vinohrady",50.0783707,14.4448312,,,,,,,,,,,,,,,,,,
"CZK 20,250","CZK 6,750",731156,2+kk,10/24/2022,49 m²,Fully furnished,2,1.0,84.02,732.97,86.86,659.07,276.51,744.0,408.19,306.62,634.43,198.98,"Na Míčánkách, Prague - Vršovice",50.0713305,14.4638794,,,,,,,,,,,,,,,,,,
"CZK 14,000","CZK 3,500",558127,2 bedroom,4/29/2019,52 m²,Partly,3,,153.33,143.32,249.33,323.3,266.94,232.76,330.01,683.98,234.34,530.73,"Patočkova, Prague - Břevnov",50.0846007,14.362892,"CZK 28,000",Brick,,,,Cooperative,,Central,,,,,,,,1.0,,
"CZK 20,000","CZK 4,187",647400,2 bedroom,9/1/2022,75 m²,Fully furnished,2,1.0,226.19,686.14,110.47,401.84,35.04,380.17,451.86,545.45,479.16,141.68,"Betlémská, Prague - Staré Město",50.083764,14.415128,"CZK 25,000",Brick,,,Very good,Personal,D,,,,,,,,,,,
"CZK 26,000","CZK 3,400",731701,3+1,9/1/2022,76 m²,Fully furnished,5,1.0,120.43,428.73,339.27,2034.46,148.91,446.4,546.11,362.42,1324.24,194.2,Prague - Čimice,50.13864,14.42964,"CZK 52,000",Prefab concrete,10 to 30 years,Bathroom unit,Very good,,E,Central,Standard,,,,,1.0,1.0,,,
"CZK 20,000","CZK 4,187",642340,3+1,9/1/2022,75 m²,Fully furnished,2,,226.19,686.14,110.47,401.84,35.04,380.17,451.86,545.45,479.16,141.68,"Betlémská, Prague - Staré Město",50.083764,14.415128,"CZK 25,000",Brick,,,Very good,Personal,D,,,,,,,,,,,
"CZK 17,800","CZK 3,200",662487,2 bedroom,9/1/2022,62 m²,Partly,2,,230.5,1140.69,683.99,849.62,291.59,849.93,1071.43,274.63,780.68,138.49,"Na vysočanských vinicích, Prague - Vysočany",50.11555,14.5086,"CZK 30,000",Brick,,,Very good,Personal,G,,,,,,,,1.0,,1.0,
"CZK 56,475","CZK 18,825",723104,3+kk,9/1/2022,67 m²,Fully furnished,2,1.0,110.1,273.82,156.66,129.22,76.56,142.67,300.13,496.4,282.11,367.31,"Dlážděná, Prague - Nové Město",50.0865843,14.4323212,,,,,,,,,,1.0,1.0,,,,,,,
"CZK 13,000","CZK 2,500",731680,Studio,8/29/2022,30 m²,Fully furnished,2,,150.17,450.49,152.19,372.07,105.52,239.41,304.65,313.37,350.75,233.93,Prague - Karlín,50.09124,14.44269,"CZK 26,000",Other,,,Good,,G,,,,,,,,,,1.0,
"CZK 41,625","CZK 13,875",720848,4+kk,10/2/2022,112 m²,Fully furnished,4,1.0,168.35,737.87,30.76,217.13,7.9,216.51,106.1,336.15,114.49,565.37,"Ostrovní, Prague - Nové Město",50.0806286,14.4175374,,,,,,,,,,1.0,1.0,,,,,,,
"CZK 23,000","CZK 3,570",170555,3+1,10/1/2022,85 m²,Fully furnished,3,1.0,318.77,355.77,102.79,382.71,13.63,136.01,370.98,467.24,515.24,598.09,"Víta Nejedlého, Prague - Žižkov",50.0825316,14.4491416,"CZK 25,000",Brick,,Complete,Very good,Personal,,Gas boiler,Luxurious,,,,,,,,,
"CZK 25,000","CZK 7,000",731665,2+kk,9/1/2022,68 m²,Fully furnished,6,1.0,233.47,437.35,169.28,279.19,158.02,212.34,325.01,370.86,210.14,428.9,Prague - Vršovice,50.0674,14.4519,"CZK 50,000",Brick,,,Very good,,G,,,1.0,,,1.0,,,,,
"CZK 10,000","CZK 4,000",731661,Studio,9/2/2022,33 m²,Partly,,1.0,52.71,885.21,523.81,874.84,30.45,729.9,997.92,464.81,1208.95,324.79,Prague - Strašnice,50.078279,14.5085045,"CZK 20,000",Brick,Up to 10 years,Complete,Very good,,B,Electric boiler,Standard,,,,,,,,,
"CZK 19,500","CZK 1,500",731657,2 bedroom,8/29/2022,57 m²,Fully furnished,3,1.0,138.38,1131.58,239.06,223.26,352.89,307.8,173.66,303.82,309.13,384.69,Prague - Žižkov,50.09114,14.47696,"CZK 20,000",Brick,,,Very good,,G,,,,1.0,,,,,,1.0,
"CZK 15,000","CZK 1,200",731658,2+kk,8/29/2022,44 m²,Partly,11,1.0,394.09,990.9,968.19,1659.4,498.41,1031.36,909.21,1082.06,816.82,752.6,Prague - Horní Měcholupy,50.05125,14.56091,"CZK 30,000",Prefab concrete,,,Good,,G,,,,,,,,,1.0,,
"CZK 15,000","CZK 1,500",559466,2+kk,9/1/2022,45 m²,Fully furnished,4,1.0,15.73,730.24,58.67,443.3,100.86,20.48,352.97,398.94,587.37,509.58,Prague - Nové Město,50.0727402,14.4276339,"CZK 20,000",Brick,,,,Personal,,,,,,,,,,,,
"CZK 18,000","CZK 1,000",380919,2 bedroom,,68 m²,Partly,4,,134.35,703.62,295.83,129.71,179.94,179.33,384.73,268.03,283.24,350.29,"Kouřimská, Prague - Vinohrady",50.0776961,14.4719023,"CZK 18,000",Brick,,,,Cooperative,,Electric boiler,,,1.0,,,,,,1.0,
"CZK 16,000","CZK 3,500",612642,2 bedroom,1/1/2023,56 m²,Partly,3,,237.36,1110.63,155.7,1248.46,259.1,342.61,159.41,583.65,268.8,74.08,"Na Korábě, Prague - Libeň",50.11433,14.467836,"CZK 45,000",Brick,,,Very good,Personal,C,Distance,,,,,,,,,1.0,
"CZK 7,000","CZK 3,000",731641,Studio,9/30/2022,25 m²,Fully furnished,1,,373.67,821.45,917.68,1381.73,368.84,437.95,467.18,1260.2,388.5,390.26,Prague - Řeporyje,50.03704,14.31131,"CZK 10,000",Brick,,,Very good,Personal,B,,,,,,,,,,,
"CZK 13,500","CZK 1,500",685162,Studio,9/23/2021,23 m²,Partly,3,1.0,61.08,682.07,69.34,458.73,197.44,457.07,271.67,227.19,718.1,265.8,"Žitomírská, Prague - Vršovice",50.0723,14.45956,"CZK 27,000",Brick,,,Very good,Personal,G,Central,,,,,,,,,,
"CZK 25,500","CZK 2,500",469980,4+1,9/1/2022,124 m²,Fully furnished,2,1.0,148.29,680.35,165.33,767.14,170.97,148.39,266.19,704.51,682.45,543.4,"Ve Střešovičkách, Prague - Břevnov",50.0883503,14.3680091,"CZK 28,000",Brick,10 to 30 years,,New-build,Personal,D,Gas boiler,Standard,,1.0,1.0,,,,,,
"CZK 18,990","CZK 2,690",731636,2+kk,9/1/2022,45 m²,Unfurnished,2,,390.75,265.34,171.22,306.49,105.7,468.21,315.9,391.17,719.11,219.65,Prague - Vinohrady,50.07997,14.45165,"CZK 20,000",Brick,,,Very good,,G,,,,,,,,,,,
"CZK 17,990","CZK 3,990",710368,Studio,9/30/2022,24 m²,Fully furnished,,1.0,32.41,96.79,82.75,144.26,47.59,343.35,223.51,385.13,581.11,734.33,Prague - Vinohrady,50.0770962,14.4355937,"CZK 10,000",Brick,,Complete,Very good,Personal,G,,Luxurious,,,,,,,,,
"CZK 17,000","CZK 5,500",666580,3+1,9/1/2022,70 m²,Partly,4,,223.93,440.21,127.34,594.23,354.73,535.09,506.22,227.2,639.45,171.86,"Vrátkovská, Prague - Strašnice",50.07767,14.49751,"CZK 22,500",Prefab concrete,,,Good,Cooperative,D,,,,,,,,1.0,,,
"CZK 21,000","CZK 4,000",66982,2+kk,9/1/2022,50 m²,Fully furnished,2,1.0,139.26,908.28,218.34,954.72,203.97,449.46,614.57,420.73,746.17,546.81,"Na Neklance, Prague - Smíchov",50.0605758463,14.3996214867,"CZK 50,000",Brick,Up to 10 years,,,Personal,,,,,1.0,,,1.0,,,1.0,
"CZK 18,000","CZK 2,000",455017,Studio,8/30/2022,22 m²,Fully furnished,4,,17.88,653.67,17.35,26.49,52.66,125.19,195.87,697.1,425.92,423.88,Prague - Nové Město,50.0796951,14.4226227,CZK 0,Brick,,,,Personal,,,,,,,,,,,,
"CZK 19,725","CZK 6,575",731632,2 bedroom,10/15/2022,90 m²,Fully furnished,6,1.0,73.01,281.28,58.33,478.54,20.37,379.07,102.37,138.49,668.56,481.36,"Francouzská, Prague - Vinohrady",50.0739894,14.440101,,,,,,,,,,,,,,,,,,
"CZK 25,000","CZK 1,000",729064,2+kk,8/8/2022,62 m²,Fully furnished,6,1.0,133.89,534.98,98.87,163.12,157.02,73.54,334.02,280.84,454.18,358.34,Prague - Nové Město,50.07173,14.41968,"CZK 25,000",Brick,,,New-build,,A,,,,,1.0,,,,,,
"CZK 20,500","CZK 1,400",729511,2 bedroom,8/11/2022,57 m²,Partly,2,1.0,267.75,1301.32,208.94,1122.02,496.69,676.19,348.18,214.56,1000.15,110.09,Prague - Strašnice,50.07119,14.50355,"CZK 41,000",Brick,,Interior,Very good,,,Central,,,,,,,,,1.0,
"CZK 4,600","CZK 2,600",731618,4+kk,8/29/2022,74 m²,Partly,11,,108.72,684.83,279.79,1450.37,385.21,802.21,510.3,352.89,485.52,205.04,Prague - Chodov,50.03354,14.51078,"CZK 7,200",Prefab concrete,,,Very good,,G,,,,,,,,1.0,,,
"CZK 34,500","CZK 11,500",728709,2+kk,10/8/2022,45 m²,Fully furnished,6,1.0,73.01,281.28,58.33,478.54,20.37,379.07,102.37,138.49,668.56,481.36,"Francouzská, Prague - Vinohrady",50.0739894,14.440101,,,,,,,,,,,,,,,,,,
"CZK 7,000","CZK 2,499",731223,Small studio,8/26/2022,32 m²,Fully furnished,-1,,55.93,1183.25,865.1,1164.8,99.09,1132.03,706.63,821.45,876.06,775.91,Prague - Kyje,50.09897,14.54053,"CZK 7,000",Brick,,,New-build,,A,,,,,,,,,,,
"CZK 9,900","CZK 5,000",704560,Small studio,2/1/2022,24 m²,Fully furnished,,1.0,208.09,1050.02,484.52,1141.14,41.87,1050.17,479.93,690.56,563.24,566.57,"Hornoměcholupská, Prague - Hostivař",50.0522,14.53259,"CZK 15,000",Brick,Up to 10 years,Complete,Very good,Personal,G,Distance,,,,,,,,,1.0,
"CZK 20,000","CZK 4,235",731610,3+1,8/29/2022,71 m²,Partly,1,,328.86,479.68,203.02,293.78,271.38,309.95,37.79,186.73,484.2,615.36,Prague - Břevnov,50.08507,14.36897,"CZK 20,000",Brick,,,Very good,,D,,,,,,,,,,,
"CZK 22,100","CZK 3,180",731611,3+kk,9/1/2022,75 m²,,1,,44.48,466.57,72.1,98.34,138.59,121.89,171.23,695.03,287.69,256.4,"Mrštíkova, Prague - Strašnice",50.0733128,14.490833,"CZK 25,000",Other,,,Good,Personal,,,,,,,,,,,,"CZK 3,313"
"CZK 28,000",CZK 625,731363,3+1,8/26/2022,109 m²,Partly,1,1.0,203.04,245.39,37.35,392.55,124.08,598.53,111.17,672.8,492.88,392.18,Prague - Malá Strana,50.07999,14.40668,"CZK 56,000",Brick,Over 50 years,,Very good,,G,,,,1.0,,,,,,,
"CZK 17,500","CZK 3,900",607379,Studio,9/15/2022,24 m²,Fully furnished,2,1.0,148.83,419.07,71.5,195.07,56.82,331.69,329.58,642.28,911.37,462.1,"Gorazdova, Prague - Nové Město",50.074462,14.414953,"CZK 36,000",Brick,Up to 10 years,Complete,Very good,Personal,E,Central,Standard,,,,,,,,,
"CZK 24,581","CZK 8,194",729938,Studio,9/6/2022,32 m²,Fully furnished,1,,447.58,805.32,396.64,450.11,197.32,945.56,256.47,627.41,458.07,336.59,"Nad Kolčavkou A, Prague - Libeň",50.1080609,14.4828384,,,,,,,,,,,,,,,,,,
"CZK 17,000","CZK 5,000",731527,2 bedroom,8/28/2022,63 m²,Partly,2,,291.33,1391.95,1026.33,1150.81,229.29,1213.85,864.59,1142.79,1548.65,918.39,Prague - Modřany,50.01346,14.407,"CZK 22,000",Brick,,,Good,,G,,,,1.0,,1.0,,,,,
"CZK 18,000","CZK 4,000",731577,2+kk,8/29/2022,50 m²,Fully furnished,3,,244.04,224.17,310.76,2449.74,292.92,357.95,318.66,431.95,1215.19,210.53,Prague - Braník,50.03692,14.40981,"CZK 18,000",Brick,,,Very good,,G,,,,,,,,,,,
"CZK 24,000","CZK 2,000",731597,2 bedroom,8/29/2022,60 m²,Partly,3,,51.98,683.4,174.02,194.09,80.87,229.52,311.38,617.92,867.86,419.79,Prague - Kobylisy,50.12279,14.45331,"CZK 50,000",Brick,,,Very good,,C,,,,,,,,,,1.0,
"CZK 25,000","CZK 5,500",731591,3+1,8/29/2022,80 m²,Partly,4,1.0,300.87,874.78,169.37,280.63,51.78,528.14,649.99,565.19,776.48,568.23,Prague - Žižkov,50.08594,14.43948,"CZK 50,000",Brick,,,Very good,,G,,,,,,1.0,,,,,
"CZK 17,000","CZK 2,900",483401,1 bedroom,8/29/2022,44 m²,Partly,5,,90.13,146.07,71.85,585.37,74.32,196.61,194.7,194.7,256.47,147.08,"Kubánské náměstí, Prague - Vršovice",50.0702172,14.4773264,"CZK 34,000",Brick,,,,Personal,,Central,,,,,,,,,,
"CZK 13,000","CZK 3,000",397778,2+kk,10/1/2022,52 m²,Fully furnished,1,,232.81,1919.86,1082.54,1678.72,449.46,1326.38,774.18,1387.52,1353.0,696.31,"Vorařská, Prague - Modřany",50.0126848,14.4000794,"CZK 20,000",Brick,,,,Personal,,,,,,,,,,,,
"CZK 15,000","CZK 2,663",520762,Studio,10/1/2022,33 m²,Partly,6,1.0,454.04,809.88,434.66,484.42,353.37,771.43,492.68,609.29,683.92,296.54,"Freyova, Prague - Vysočany",50.1053168,14.5019662,"CZK 15,000",Brick,,,,Personal,B,,,,,1.0,,1.0,,,,
"CZK 15,000","CZK 3,000",629291,Studio,9/1/2022,47 m²,Fully furnished,5,1.0,276.61,560.88,139.9,347.82,51.54,374.24,316.63,357.41,694.61,113.09,"Baranova, Prague - Žižkov",50.079706,14.45761,"CZK 30,000",Brick,Over 50 years,Interior,Very good,Cooperative,G,Distance,Standard,1.0,,,,,,,1.0,
"CZK 35,000",CZK 800,731589,5+kk,10/3/2022,180 m²,Partly,3,,33.89,431.8,122.16,356.06,86.56,326.29,82.54,168.63,605.82,710.33,Prague - Vinohrady,50.07509,14.4392,"CZK 70,000",Brick,,,Good,,G,,,,1.0,,,,,,,
"CZK 5,000","CZK 1,000",731583,2 bedroom,8/29/2022,50 m²,Fully furnished,1,1.0,342.7,694.13,230.86,635.72,489.4,1506.4,335.97,897.33,1236.11,508.78,Prague - Záběhlice,50.04675,14.4941,"CZK 3,000",Brick,,,Good,,D,,,,,,,,,,,
"CZK 22,000","CZK 5,000",731515,3+1,8/28/2022,76 m²,Fully furnished,,1.0,224.05,654.34,617.56,732.08,483.4,650.3,790.05,801.9,454.67,256.72,Prague - Záběhlice,50.05437,14.51016,"CZK 22,000",Prefab concrete,,,Very good,,G,,,,,,,,1.0,,1.0,
"CZK 13,500","CZK 4,000",399430,1 bedroom,9/1/2022,45 m²,Partly,1,,224.62,651.71,146.46,149.36,148.75,349.55,679.28,484.53,469.98,373.73,"Jindřicha Plachty, Prague - Smíchov",50.0708313,14.4082987,"CZK 13,500",Brick,,Interior,Very good,Personal,,Gas boiler,Standard,,,,,,,,,
"CZK 57,000","CZK 19,000",724522,3+1,10/2/2022,130 m²,Fully furnished,3,,293.94,358.82,65.34,231.82,29.61,399.45,202.79,623.36,368.2,458.02,"Michalská, Prague - Staré Město",50.0859057,14.4200254,,,,,,,,,,,,,1.0,,,,,
"CZK 45,000","CZK 15,000",723086,2+kk,9/14/2022,70 m²,Fully furnished,4,1.0,285.3,547.87,69.97,206.93,9.84,222.16,245.36,617.77,369.53,523.86,"Ve Smečkách, Prague - Nové Město",50.0795975,14.4273504,,,,,,,,,,,,,,,,,,
"CZK 31,500","CZK 10,500",724600,2+kk,9/21/2022,56 m²,Fully furnished,4,,91.98,204.34,98.75,50.9,42.55,154.76,196.57,433.55,409.29,205.78,"náměstí Bratří Synků, Prague - Nusle",50.0640124,14.439955,,,,,,,,,,,,,,,,,,
"CZK 12,500","CZK 3,500",731571,Studio,8/29/2022,30 m²,Unfurnished,1,,562.25,987.51,289.94,870.27,262.42,899.34,175.11,692.58,371.38,407.15,"Rakovského, Prague - Modřany",50.00972685,14.42628355,"CZK 32,000",Prefab concrete,,,Good,,G,,,,,,,,,,,
"CZK 16,500","CZK 1,500",252068,2+kk,10/1/2022,45 m²,Partly,4,,256.47,535.24,158.56,292.14,125.9,210.89,170.42,308.69,214.05,282.3,Prague - Holešovice,50.0987306,14.4286503,"CZK 16,500",Brick,,,Very good,Personal,,Gas boiler,,,,,,,,,,
"CZK 15,000",CZK 700,596081,2+kk,10/1/2022,54 m²,Partly,3,,39.68,1351.03,381.74,1617.31,349.45,641.22,688.61,214.82,715.25,489.68,"Na Stráži, Prague - Libeň",50.117092,14.474306,"CZK 30,000",Brick,,,Very good,Personal,,Electric boiler,,,,,,1.0,,,1.0,
"CZK 12,500","CZK 5,000",731175,Studio,10/1/2022,42 m²,Fully furnished,3,1.0,145.11,714.1,703.82,698.56,484.4,710.06,817.76,879.38,605.01,262.74,Prague - Záběhlice,50.0534,14.51221,"CZK 12,495",Brick,,,Very good,,G,,,,1.0,,,,,,,
"CZK 37,125","CZK 12,375",731320,3+kk,9/15/2022,78 m²,Fully furnished,5,1.0,122.69,292.83,150.02,222.27,31.53,246.25,406.08,512.95,283.22,254.06,"Křižíkova a, Prague - Karlín",50.0928722,14.4500782,,,,,,,,,,1.0,1.0,,1.0,,,,,
"CZK 9,000","CZK 3,000",731573,3+1,10/16/2022,86 m²,Fully furnished,2,,187.92,540.11,78.52,148.85,119.92,344.81,567.68,372.93,358.39,484.06,"Vrázova, Prague - Smíchov",50.0711107,14.4074285,,,,,,,,,,,,,,,,,,
"CZK 14,900","CZK 3,500",219421,1 bedroom,8/31/2022,55 m²,Partly,2,,184.81,1643.59,178.56,1325.68,325.07,964.92,1135.51,971.01,218.31,274.23,"U Pekařky, Prague - Libeň",50.1138842,14.479848,"CZK 30,000",Brick,10 to 30 years,Complete,,Personal,,,Standard,,,,,1.0,,,,
"CZK 25,000","CZK 7,500",166213,2 bedroom,9/11/2022,72 m²,Fully furnished,3,,43.02,651.84,58.12,105.85,62.56,114.65,182.82,529.84,274.61,537.47,"Spálená, Prague - Nové Město",50.0808055,14.4197518,"CZK 32,500",Brick,Up to 10 years,Complete,Very good,Personal,C,Gas boiler,Standard,,,,,,,,,
"CZK 17,000","CZK 2,900",577315,1 bedroom,10/1/2022,44 m²,Partly,5,1.0,101.5,233.6,160.63,657.65,29.75,212.08,177.41,177.41,167.68,129.6,"Kubánské náměstí, Prague - Vršovice",50.0696675,14.4779908,"CZK 34,000",Brick,,,Very good,Personal,G,Central,,,,,,,,,,
"CZK 18,200","CZK 6,800",704109,2 bedroom,9/1/2022,57 m²,Partly,1,,129.34,232.02,51.65,262.2,32.17,40.16,445.58,454.3,538.61,210.69,"Sokolovská, Prague - Karlín",50.09332,14.44768,"CZK 19,000",Brick,,,Very good,Personal,,Electric boiler,,,,,,,,,,
"CZK 15,000","CZK 3,000",731570,2+kk,9/1/2022,45 m²,Partly,4,1.0,137.38,216.62,111.01,95.6,64.09,51.34,474.78,250.42,519.37,134.63,Prague - Vinohrady,50.0772,14.46096,"CZK 15,000",Brick,,,Very good,,G,,,,1.0,,,,,1.0,1.0,
"CZK 14,000","CZK 2,900",488732,Studio,9/22/2019,38 m²,Fully furnished,2,,185.99,1644.78,177.37,1326.86,326.25,966.1,1134.32,969.81,217.12,273.03,"U Pekařky, Prague - Libeň",50.1138957,14.4798538,"CZK 30,000",Brick,Up to 10 years,Complete,,Personal,,Gas boiler,Standard,,,1.0,,1.0,,,,
"CZK 23,000","CZK 3,869",728906,2+kk,9/1/2022,52 m²,Fully furnished,2,1.0,100.67,552.16,76.41,168.19,45.96,95.08,323.13,505.31,539.03,607.16,Prague - Vinohrady,50.0739,14.43092,"CZK 40,000",Brick,,Complete,Very good,Personal,B,,Standard,,,,,,,,,
"CZK 42,075","CZK 14,025",726062,2 bedroom,10/2/2022,80 m²,Fully furnished,6,1.0,73.01,281.28,58.33,478.54,20.37,379.07,102.37,138.49,668.56,481.36,"Francouzská, Prague - Vinohrady",50.0739894,14.440101,,,,,,,,,,,,,,,,,,
"CZK 24,000","CZK 6,000",731081,2 bedroom,8/24/2022,100 m²,Partly,5,1.0,235.55,493.01,200.15,848.96,210.37,578.39,187.76,372.32,530.67,339.18,Prague - Smíchov,50.06561,14.39664,"CZK 60,000",Brick,,,Very good,,B,,,,,,,,,1.0,,
"CZK 35,000","CZK 2,500",731561,3+kk,8/29/2022,84 m²,Fully furnished,1,,172.33,591.68,145.8,184.34,72.85,80.56,257.4,331.94,145.71,238.03,Prague - Nové Město,50.07638,14.42886,"CZK 20,000",Brick,,,Very good,,G,,,,,,,,,,,
"CZK 18,900","CZK 4,000",731562,2+kk,8/29/2022,52 m²,Partly,2,1.0,229.9,947.02,205.09,713.91,247.68,447.39,154.37,412.65,1095.26,196.69,Prague - Modřany,50.0061,14.40679,"CZK 22,900",Other,,,New-build,,B,,,,1.0,1.0,,,,,,
"CZK 17,400","CZK 1,200",634161,3+kk,9/12/2022,82 m²,Partly,1,,668.11,1132.02,617.56,1283.62,600.92,813.32,905.77,1076.68,530.89,497.59,Prague - Strašnice,50.066691,14.486618,"CZK 25,000",Brick,,,Very good,Personal,G,,,,1.0,,,,,,,
"CZK 48,645","CZK 16,215",726073,3+1,9/15/2022,55 m²,Fully furnished,2,,158.42,248.82,154.82,246.13,112.68,264.3,390.21,408.3,154.53,114.55,"Řásnovka, Prague - Staré Město",50.0918754,14.4250902,,,,,,,,,,,,,,,,,,
"CZK 19,999","CZK 4,500",334624,Studio,9/1/2022,39 m²,Fully furnished,1,1.0,136.9,692.37,157.63,178.53,127.34,470.74,745.48,852.52,452.5,218.58,"Kališnická, Prague - Žižkov",50.089749,14.462776,"CZK 24,500",Brick,,,New-build,Personal,,Central,Luxurious,,,1.0,1.0,,,,1.0,
"CZK 40,000",CZK 0,24335,3+kk,10/1/2022,95 m²,Fully furnished,4,1.0,177.64,664.92,172.37,77.54,38.15,125.87,36.04,110.57,370.0,231.91,"Ječná , Prague - Nové Město",50.0755456,14.426963,"CZK 40,000",Brick,Over 50 years,Complete,Very good,Personal,C,Gas boiler,Luxurious,,,,,,,,,
"CZK 29,800","CZK 5,000",685115,2+kk,9/26/2022,50 m²,Fully furnished,4,1.0,165.09,980.83,116.92,149.04,162.49,108.73,492.07,669.13,487.28,408.51,"Horská, Prague - Nové Město",50.06636,14.42333,"CZK 34,800",Brick,,,New-build,Personal,B,,,,,,1.0,1.0,1.0,,,
"CZK 22,500","CZK 4,000",685106,Studio,10/1/2022,33 m²,Fully furnished,5,,114.38,989.04,22.52,9.61,23.07,30.73,352.74,549.13,398.64,398.33,"Horská, Prague - Nové Město",50.06662,14.42307,"CZK 26,500",Brick,,,New-build,Personal,B,,,,1.0,,,,,,,
"CZK 5,400","CZK 1,400",459134,5+1,10/1/2022,11 m²,Partly,2,,179.24,794.86,831.93,2034.95,759.17,1086.66,906.45,1582.67,1215.38,105.73,"U Schodů, Prague - Hrdlořezy",50.0971097,14.512153,"CZK 5,400",Brick,,,Very good,Personal,,,,1.0,,,,,,,1.0,
"CZK 17,499","CZK 2,500",722445,2+kk,9/1/2022,37 m²,Partly,8,1.0,144.7,754.34,662.45,1990.84,216.86,1268.73,1076.56,1172.95,1192.68,596.3,Prague - Lhotka,50.01389,14.45457,"CZK 40,000",Prefab concrete,10 to 30 years,Complete,New-build,,D,Central,Standard,,1.0,1.0,1.0,1.0,,,1.0,
"CZK 14,000","CZK 4,863",572540,3+kk,8/29/2022,56 m²,Fully furnished,3,,111.54,1022.54,296.99,346.2,267.25,829.32,620.14,540.52,967.87,213.74,"Šárecká, Prague - Dejvice",50.1010067,14.3849538,"CZK 14,000",Brick,,,,Personal,C,Central,,,,,,,,,1.0,
"CZK 15,900","CZK 2,500",545224,Studio,9/1/2022,38 m²,Partly,4,1.0,109.24,1039.06,442.08,846.12,540.6,637.35,35.01,1310.4,767.89,296.17,Prague - Holešovice,50.11065,14.449746,"CZK 20,000",Brick,Up to 10 years,,New-build,Personal,B,Central,Luxurious,,,1.0,,,,,,
"CZK 14,900","CZK 3,500",730755,2+kk,8/22/2022,43 m²,Partly,4,,198.02,1003.12,215.83,1191.11,171.61,335.89,625.08,714.44,1142.37,275.55,Prague - Košíře,50.07016,14.38685,"CZK 14,900",Brick,,Complete,New-build,,G,Central,Standard,1.0,,,,,,,,
"CZK 34,500","CZK 11,500",724514,2 bedroom,9/24/2022,76 m²,Fully furnished,5,1.0,173.24,237.07,170.98,194.52,84.53,150.25,482.36,158.74,537.92,88.5,"Slezská, Prague - Vinohrady",50.076837,14.4602531,,,,,,,,,,,,,,,,,,
"CZK 28,000","CZK 3,500",599575,3+kk,8/30/2022,46 m²,Fully furnished,5,1.0,113.32,289.04,83.63,400.83,17.87,95.23,270.35,279.06,374.06,331.63,"Sokolovská, Prague - Karlín",50.092552,14.44379,"CZK 30,000",Brick,Up to 10 years,Complete,Very good,Cooperative,B,Electric boiler,Luxurious,,,,,,,,,
"CZK 36,450","CZK 12,150",726075,3+kk,10/10/2022,82 m²,Fully furnished,6,1.0,101.2,551.63,76.94,167.66,45.43,94.55,322.6,504.78,539.56,607.69,"Rumunská, Prague - Vinohrady",50.0739629,14.4309041,,,,,,,,,,,,,,,,,,
"CZK 25,500","CZK 8,500",727015,1 bedroom,9/21/2022,35 m²,Fully furnished,3,1.0,97.26,259.91,105.72,291.36,79.07,194.41,340.41,525.24,106.28,298.87,"Koněvova, Prague - Žižkov",50.088447,14.458108,,,,,,,,,,,,,1.0,,,,,
"CZK 15,000","CZK 2,000",566698,Studio,9/1/2022,30 m²,Fully furnished,10,1.0,104.42,1177.9,93.54,1019.9,48.15,771.46,441.52,776.73,918.61,151.89,"Molákova, Prague - Karlín",50.0969546,14.4652086,"CZK 17,000",Brick,,,,Personal,,Distance,,1.0,,,,,,,,
"CZK 12,000","CZK 5,000",630923,2+kk,10/19/2020,42 m²,Fully furnished,,,148.86,341.13,53.86,117.78,72.14,116.12,202.72,183.6,421.74,190.4,"Holandská, Prague - Vršovice",50.06985,14.456053,"CZK 30,000",Brick,,,Good,Personal,E,Electric boiler,,,,,,,,,,
"CZK 63,750","CZK 21,250",729471,3+1,10/10/2022,120 m²,Fully furnished,3,1.0,73.01,281.28,58.33,478.54,20.37,379.07,102.37,138.49,668.56,481.36,"Francouzská, Prague - Vinohrady",50.0739894,14.440101,,,,,,,,,,,,,,,,,,
"CZK 20,000","CZK 4,500",731539,2+kk,8/29/2022,55 m²,Partly,3,1.0,379.03,601.9,459.73,906.83,703.12,822.08,516.85,596.63,646.89,471.36,Prague - Horní Měcholupy,50.04235,14.54955,"CZK 24,000",Low-energy,,,Very good,,A,,,,1.0,,1.0,1.0,,,,
"CZK 38,040","CZK 12,680",724143,2 bedroom,9/1/2022,70 m²,Fully furnished,5,,92.39,704.33,6.31,418.26,11.89,396.59,447.42,561.87,517.82,191.93,"Karoliny Světlé, Prague - Staré Město",50.0841726,14.4139535,,,,,,,,,,,,,,,,,,
"CZK 48,435","CZK 16,145",730649,3+1,10/20/2022,108 m²,Fully furnished,3,1.0,170.36,424.31,260.04,428.7,73.65,305.75,38.65,29.43,439.38,720.46,"Balbínova, Prague - Vinohrady",50.0795643,14.4361068,,,,,,,,,,,,,,,,,,
"CZK 29,250","CZK 9,750",725020,2 bedroom,9/19/2022,65 m²,Fully furnished,3,1.0,163.79,319.88,110.55,226.38,103.86,407.78,227.16,243.22,785.75,360.1,"Na Zbořenci, Prague - Nové Město",50.0769346,14.4169603,,,,,,,,,,,,,,,,,,
"CZK 18,852","CZK 5,148",497125,2+kk,1/24/2021,55 m²,Fully furnished,1,1.0,289.31,1030.71,185.29,875.56,580.15,1000.2,374.44,2240.15,1249.45,201.42,"Sazovická, Prague - Zličín",50.0570157,14.2807456,"CZK 24,000",Brick,Up to 10 years,,New-build,Personal,,Central,,,1.0,1.0,,1.0,,,,
"CZK 63,413","CZK 21,137",730189,3+kk,10/16/2022,62 m²,Fully furnished,3,1.0,2.22,191.43,20.53,48.07,1.19,48.35,128.16,305.9,208.92,259.31,"Dlouhá, Prague - Staré Město",50.0907943,14.427063,,,,,,,,,,,,,,,,,,
"CZK 56,250","CZK 18,750",730578,2+kk,10/19/2022,47 m²,Fully furnished,3,1.0,145.3,409.63,254.35,292.12,59.28,309.45,136.5,419.43,177.03,511.6,"Elišky Krásnohorské, Prague - Josefov",50.0906304,14.4198248,,,,,,,,,,,,,,,,,,
"CZK 28,050","CZK 9,350",730647,Studio,10/20/2022,40 m²,Fully furnished,2,,87.49,353.69,89.13,198.59,58.79,391.02,424.91,274.28,259.74,601.22,"Zborovská, Prague - Smíchov",50.0730353,14.4083714,,,,,,,,,,1.0,1.0,,,,,,,
"CZK 24,608","CZK 8,202",730328,2+kk,10/17/2022,67 m²,Fully furnished,2,1.0,190.62,1447.15,484.7,1260.45,182.11,737.34,559.67,596.72,660.13,404.95,"V Zahradách, Prague - Libeň",50.1148427,14.4750191,,,,,,,,,,1.0,1.0,,1.0,,,,,
"CZK 26,250","CZK 8,750",731290,2+kk,10/25/2022,46 m²,Fully furnished,3,,91.53,437.84,79.6,137.33,1.11,181.86,414.36,266.21,251.67,662.32,"Lidická, Prague - Smíchov",50.0723918,14.4059555,,,,,,,,,,,,,,,,,,
"CZK 36,338","CZK 12,112",728972,5+kk,9/20/2022,180 m²,Fully furnished,1,,710.63,2420.81,2011.34,2281.37,826.06,2150.45,2487.2,2253.5,2584.79,783.97,"Ibišková, Prague - Křeslice",50.0183023,14.5625656,,,,,,,,,,1.0,1.0,,1.0,,,,,
"CZK 24,728","CZK 8,242",731157,Studio,10/24/2022,30 m²,Fully furnished,3,1.0,99.26,361.63,490.78,556.87,427.65,345.52,452.0,519.02,404.9,293.38,"Olšanská, Prague - Žižkov",50.0830187,14.4654473,,,,,,,,,,,,,1.0,,,,,
"CZK 9,000",CZK 390,731103,3+1,8/24/2022,76 m²,Fully furnished,5,1.0,79.74,770.57,132.58,1368.56,281.73,214.96,533.26,309.42,828.07,181.57,Prague - Kamýk,50.01571,14.4436,"CZK 10,000",Prefab concrete,,,Very good,,B,,,,1.0,,,,,,1.0,
"CZK 10,500","CZK 4,500",711409,2+kk,3/23/2022,46 m²,Partly,3,,521.42,2077.13,532.02,1649.82,569.85,1824.82,1820.22,2998.2,603.67,243.31,"Travná, Prague - Kyje",50.08319,14.5551,"CZK 29,000",Prefab concrete,,,Very good,Personal,G,,,,,,,,,,1.0,
"CZK 16,000","CZK 1,000",731534,1 bedroom,9/15/2022,46 m²,Partly,4,1.0,322.68,961.45,241.53,635.99,345.47,659.58,372.47,616.98,945.84,448.11,Prague - Vysočany,50.10386,14.50184,"CZK 32,000",Brick,,,Very good,,G,,,,,,,,,,1.0,
"CZK 42,120","CZK 14,040",724853,2+kk,9/12/2022,45 m²,Fully furnished,4,1.0,336.41,302.29,48.66,211.39,57.6,35.65,274.52,787.09,193.2,587.05,"Opletalova, Prague - Nové Město",50.0812219,14.4297716,,,,,,,,,,,,,,,,,,
"CZK 23,000","CZK 4,800",731524,2+kk,10/31/2022,50 m²,Fully furnished,4,1.0,175.62,1229.93,607.72,1211.48,880.36,1156.77,1160.04,1191.59,1059.99,422.63,Prague - Hloubětín,50.10861,14.52706,"CZK 40,000",Brick,,,New-build,,G,,,,1.0,1.0,1.0,,,1.0,1.0,
"CZK 15,500","CZK 3,000",443751,3+1,8/26/2022,62 m²,Partly,2,,362.35,947.34,303.22,885.71,543.91,563.58,160.66,206.03,203.73,112.77,"Litvínovská, Prague - Prosek",50.1223913,14.4872322,"CZK 15,500",Prefab concrete,,,,Cooperative,,Distance,,,1.0,,,,,,1.0,
"CZK 33,750","CZK 11,250",726019,2+kk,10/1/2022,75 m²,Fully furnished,6,1.0,163.79,319.88,110.55,226.38,103.86,407.78,227.16,243.22,785.75,360.1,"Na Zbořenci, Prague - Nové Město",50.0769346,14.4169603,,,,,,,,,,1.0,1.0,,,,,,,
"CZK 29,000","CZK 5,500",718097,3+kk,5/10/2022,93 m²,Unfurnished,2,1.0,162.21,1473.55,504.27,1766.39,507.7,763.75,846.86,337.34,864.33,638.75,"Čertův vršek, Prague - Libeň",50.1178403,14.4735782,"CZK 50,000",Brick,,,New-build,Personal,B,,,1.0,,,1.0,,,,1.0,
"CZK 13,000","CZK 3,000",693063,2+kk,9/1/2022,42 m²,Partly,2,,258.31,1479.45,993.31,1238.31,294.05,1301.35,929.35,1196.52,1353.63,930.92,"K Vyhlídce, Prague - Modřany",50.01468,14.4076,"CZK 20,000",Brick,,,Good,Personal,,,,,1.0,,,,,,,
"CZK 15,900","CZK 4,100",575066,2+kk,9/1/2022,39 m²,Partly,2,,294.15,1090.88,1361.47,2008.89,273.84,2133.53,1506.12,2642.51,2083.45,916.82,"Želetická, Prague - Sobín",50.0641756,14.27305515,"CZK 20,000",Brick,Up to 10 years,,New-build,Personal,C,Gas boiler,Luxurious,,1.0,1.0,1.0,,,,,
"CZK 24,000","CZK 7,000",731517,3+kk,8/28/2022,86 m²,Unfurnished,3,1.0,509.21,1017.76,339.64,984.05,686.64,1108.7,480.93,2346.64,1355.94,246.66,Prague - Zličín,50.05875,14.28025,"CZK 30,000",Brick,,,New-build,,G,,,1.0,,1.0,1.0,1.0,,,,
"CZK 16,000","CZK 1,500",730986,3+1,8/23/2022,70 m²,Fully furnished,5,,506.34,876.91,392.91,811.74,806.41,696.49,646.62,295.96,2042.79,195.9,Prague - Troja,50.12536,14.41058,"CZK 32,000",Prefab concrete,,Exterior,Good,,G,Central,Standard,,,,,,1.0,,,
"CZK 25,000","CZK 5,000",650442,2+kk,3/15/2021,75 m²,Fully furnished,6,1.0,439.43,329.93,177.27,299.2,234.8,530.92,164.73,508.99,866.38,246.87,Prague - Vinohrady,50.079607,14.453788,"CZK 25,000",Brick,,,New-build,Personal,A,,,1.0,,,,,,,,
"CZK 13,500","CZK 1,500",201220,1 bedroom,9/1/2022,38 m²,Fully furnished,6,,67.95,830.94,102.94,276.31,52.52,728.6,361.23,452.26,798.86,213.81,"Nuselská, Prague - Nusle",50.060184859629,14.449060015392,"CZK 20,000",Brick,,,Very good,Personal,,Electric boiler,,1.0,,,,,,,1.0,
"CZK 32,925","CZK 10,975",728156,2+kk,10/1/2022,50 m²,Fully furnished,3,1.0,75.01,890.63,40.68,622.44,47.2,145.83,371.43,242.4,512.42,352.71,"Kubelíkova, Prague - Žižkov",50.0815843,14.4461973,,,,,,,,,,,,,,,,,,
"CZK 15,000","CZK 4,500",483606,Studio,10/1/2022,42 m²,Partly,3,,59.17,832.58,69.81,317.47,265.17,136.69,236.43,732.66,112.87,308.78,Prague - Libeň,50.1080371,14.4724508,"CZK 19,500",Brick,,,New-build,Personal,A,,,,,,,,,,,
"CZK 16,000","CZK 2,000",727658,Studio,7/28/2022,34 m²,Fully furnished,1,1.0,739.75,1224.14,1101.34,2535.62,847.06,1131.9,1049.47,1987.95,1793.56,1084.56,Prague - Libuš,50.01514,14.46293,"CZK 36,000",Brick,Up to 10 years,,New-build,,B,Central,Luxurious,,1.0,1.0,,1.0,,,,
"CZK 8,000","CZK 2,500",354692,Other,6/27/2022,20 m²,Fully furnished,1,,47.34,1364.56,146.9,862.47,60.54,597.08,709.83,707.89,933.65,594.52,"Klapkova, Prague - Kobylisy",50.1295387,14.4551659,"CZK 10,500",Brick,,,,Personal,G,,,,,,,,,,,
CZK 1,CZK 1,413102,Studio,8/31/2022,24 m²,Fully furnished,2,,253.56,1033.66,372.0,990.89,263.04,417.24,805.51,823.05,313.14,77.75,Prague - Malešice,50.0842092,14.5135598,CZK 1,Prefab concrete,,,,Personal,,,,,1.0,,,,,,,
"CZK 25,000","CZK 4,000",731508,2 bedroom,10/1/2022,85 m²,Unfurnished,1,,223.5,588.45,113.57,276.92,0.0,88.29,193.47,741.77,211.16,180.39,Prague - Dejvice,50.09862,14.40305,"CZK 60,000",Brick,,,Very good,,G,,,,,,1.0,,,,,
"CZK 20,000","CZK 4,000",731506,2 bedroom,9/1/2022,68 m²,Unfurnished,2,1.0,305.62,694.43,288.34,374.11,261.86,266.88,457.5,212.4,412.68,424.6,Prague - Smíchov,50.07161,14.36977,"CZK 40,000",Prefab concrete,,,Good,,B,,,,,,,,1.0,,1.0,
"CZK 23,000","CZK 7,000",731507,3+1,8/28/2022,66 m²,Fully furnished,3,,199.34,1023.1,265.48,256.51,226.86,211.17,301.03,632.44,786.26,415.63,Prague - Kobylisy,50.12522,14.45319,"CZK 60,000",Brick,,,Very good,,G,,,,1.0,,,,,,,
"CZK 21,500","CZK 4,000",725359,2 bedroom,8/28/2022,80 m²,Partly,1,,379.01,2220.31,438.76,1628.78,367.87,1674.19,2055.82,2977.16,401.69,189.22,Prague - Hostavice,50.08462,14.55603,"CZK 43,000",Brick,10 to 30 years,,Very good,Personal,,,Luxurious,1.0,1.0,,,1.0,,,,
"CZK 19,500","CZK 4,000",731500,2+kk,8/28/2022,56 m²,Fully furnished,3,,209.2,203.62,121.84,164.25,117.73,226.53,317.15,606.56,494.08,264.58,Prague - Dejvice,50.09802,14.39842,"CZK 20,000",Brick,,,Good,,G,,,,,,,,,,1.0,
"CZK 14,000","CZK 4,000",678488,2 bedroom,9/1/2022,53 m²,Fully furnished,2,,78.03,383.9,92.18,175.57,466.9,245.42,117.37,209.6,941.96,59.8,"Na Okraji, Prague - Veleslavín",50.09024,14.34522,"CZK 28,000",Brick,,,Good,Personal,G,Distance,,,,,,,,,1.0,
"CZK 19,500","CZK 3,940",731437,2 bedroom,9/1/2022,54 m²,Partly,3,,65.28,370.35,165.49,192.24,245.23,107.2,449.59,579.16,1092.76,101.85,Prague - Malešice,50.08066,14.50205,"CZK 39,000",Prefab concrete,,,Very good,,D,,,,,,,,1.0,,1.0,
"CZK 28,000","CZK 3,000",681871,2+kk,10/1/2022,50 m²,Fully furnished,2,1.0,181.84,271.59,65.24,146.03,134.72,180.18,306.17,594.3,353.1,492.87,"Dobrovského, Prague - Holešovice",50.09897,14.42431,"CZK 28,000",Brick,,,New-build,Personal,G,,,,,,,,,,,
"CZK 16,000","CZK 3,595",731479,2+kk,8/28/2022,40 m²,Fully furnished,4,1.0,459.8,1110.86,502.7,1501.69,570.24,539.31,601.66,1224.16,499.64,481.65,Prague - Záběhlice,50.05668,14.48888,"CZK 32,000",Other,Up to 10 years,,Very good,,G,,Standard,,1.0,,,,,,,
"CZK 21,000","CZK 5,800",731495,3+kk,9/1/2022,75 m²,Partly,2,,266.82,2166.01,301.87,348.17,45.67,396.73,2057.76,475.39,3963.6,1126.14,Prague - Zbraslav,49.97863,14.39433,"CZK 42,000",Brick,,,Very good,,G,,,,,,,1.0,,,1.0,
"CZK 23,000","CZK 6,000",727258,2+kk,8/1/2022,70 m²,Partly,1,,88.95,789.5,107.34,385.25,116.2,179.24,235.81,308.48,462.3,315.43,"Na Pěšinách, Prague - Kobylisy",50.1250528,14.4573336,"CZK 23,000",Brick,,,New-build,,C,,Luxurious,1.0,,1.0,,,,,1.0,
"CZK 18,000","CZK 5,000",683172,2+kk,8/16/2022,55 m²,Partly,5,,300.02,346.31,242.92,505.85,74.44,510.98,211.05,158.51,186.03,232.81,"Písecká, Prague - Vinohrady",50.0763515,14.4651577,"CZK 36,000",Brick,Over 50 years,Complete,Very good,Personal,G,Gas boiler,Standard,,,,,,,,1.0,
"CZK 15,500","CZK 1,500",407973,1 bedroom,10/1/2022,42 m²,Fully furnished,4,,267.72,411.12,158.25,820.92,224.92,282.86,548.34,423.55,621.23,195.96,"V Olšinách, Prague - Vršovice",50.0712949,14.4820543,"CZK 17,000",Brick,,Interior,,Personal,,Electric boiler,,1.0,,,,,,,,
"CZK 26,000","CZK 4,000",730957,3+1,10/1/2022,78 m²,Fully furnished,4,1.0,229.29,267.2,191.71,497.58,0.14,344.3,161.61,153.41,836.91,649.72,Prague - Vinohrady,50.07265,14.43826,"CZK 26,000",Brick,,,Good,,E,,,,,,,,,,,
"CZK 13,500","CZK 2,826",730746,Studio,9/1/2022,29 m²,Fully furnished,3,1.0,207.73,569.54,301.26,370.44,171.38,378.02,505.22,643.85,770.01,187.08,Prague - Libeň,50.1252,14.46909,"CZK 27,000",Brick,,,Very good,,G,,,,,1.0,,,,,1.0,
"CZK 24,000","CZK 2,500",658687,2+kk,9/1/2022,59 m²,Fully furnished,5,1.0,360.18,307.48,138.21,231.62,151.3,290.16,315.54,832.17,205.65,218.51,"U Studánky, Prague - Bubeneč",50.10168,14.4242,"CZK 48,000",Brick,,,Very good,Personal,,Gas boiler,Luxurious,,,,,,,,,
"CZK 16,000","CZK 3,500",632492,2+kk,9/1/2022,45 m²,Fully furnished,3,,180.84,1467.25,271.5,852.64,399.48,346.38,711.86,504.96,620.18,331.51,"Šestidomí, Prague - Bubeneč",50.111335,14.39601,"CZK 19,500",Brick,,Complete,Very good,Personal,G,Distance,Standard,,,,1.0,,,,1.0,
"CZK 13,300","CZK 2,700",558315,Studio,10/1/2022,27 m²,Fully furnished,1,1.0,235.42,1472.13,168.49,1354.89,681.99,789.99,410.75,252.5,565.0,240.54,"Hasova, Prague - Modřany",50.0133907,14.4273209,"CZK 18,000",Prefab concrete,,Complete,,Cooperative,,,Luxurious,,,,,1.0,1.0,,1.0,
"CZK 13,000","CZK 3,900",731477,2+kk,8/28/2022,78 m²,Partly,4,,204.8,446.28,449.22,3187.79,516.45,828.55,506.87,1257.98,723.05,107.66,Prague - Čakovice,50.14869,14.52334,"CZK 26,000",Brick,,,Very good,,D,,,,,,,1.0,,,,
"CZK 18,500","CZK 3,500",730591,2+kk,8/20/2022,42 m²,Partly,11,1.0,225.25,509.23,210.61,197.57,313.05,374.5,333.7,365.29,434.6,205.29,Prague - Háje,50.0292,14.53153,"CZK 37,000",Prefab concrete,,,Very good,,A,,,,,,,,,,1.0,
"CZK 21,490",CZK 600,731474,2+kk,10/1/2022,42 m²,Partly,3,,190.75,151.92,127.06,31.18,19.84,193.59,305.45,576.56,542.95,620.99,Prague - Vinohrady,50.07554,14.4342,"CZK 35,000",Brick,,,Very good,,A,,,,,,,,,,1.0,
"CZK 17,000","CZK 2,900",730677,2+kk,9/1/2022,48 m²,Partly,3,1.0,127.28,833.45,0.95,1967.51,86.67,787.29,490.85,1036.75,847.71,404.51,Prague - Kyje,50.10906,14.55753,"CZK 40,000",Brick,,,Very good,,C,,,,1.0,,1.0,,,,1.0,
"CZK 15,000","CZK 3,800",731465,2 bedroom,9/1/2022,54 m²,Unfurnished,2,1.0,86.72,476.76,163.13,237.8,133.73,255.57,249.04,86.34,615.01,90.18,Prague - Břevnov,50.08706,14.34518,"CZK 30,000",Prefab concrete,,,Good,,G,,,,,,,,1.0,1.0,1.0,
"CZK 13,000","CZK 3,000",731470,Studio,8/28/2022,42 m²,Partly,4,,210.8,379.3,213.56,309.17,288.89,375.83,443.2,610.78,1498.02,164.09,Prague - Bohnice,50.12909,14.41563,"CZK 15,000",Prefab concrete,,Complete,Very good,,G,Central,Standard,,,,,,1.0,,,
"CZK 20,000","CZK 4,900",486388,2+kk,10/1/2022,70 m²,Fully furnished,2,,121.36,784.7,346.8,960.08,589.09,899.5,373.04,268.68,423.1,127.11,"Na Vršku, Prague - Smíchov",50.0745045,14.3736779,"CZK 24,900",Brick,,Interior,Very good,Personal,,Central,Luxurious,,,,,,,,,
"CZK 10,000","CZK 4,000",485483,Studio,1/1/2021,24 m²,Partly,1,,238.79,1182.2,322.05,1037.62,0.13,694.74,895.99,537.45,1022.62,376.81,"Mašínova, Prague - Kobylisy",50.130805,14.45657,CZK 2,Brick,,,,Personal,,,,,,,,,,,,
"CZK 15,000",CZK 0,619337,Studio,10/1/2022,30 m²,Fully furnished,10,1.0,474.8,735.23,455.41,409.77,278.71,696.77,513.44,390.75,684.01,221.88,"Freyova, Prague - Vysočany",50.105327,14.50215,"CZK 15,000",Prefab concrete,Up to 10 years,,Very good,Personal,A,Central,Standard,,,,,,,,,
"CZK 13,500","CZK 4,000",727571,2 bedroom,9/1/2022,54 m²,Partly,4,,163.71,536.01,341.23,457.12,274.45,408.39,674.65,441.76,1026.37,118.68,Prague - Malešice,50.08159,14.5055,"CZK 20,000",Prefab concrete,,,Good,Cooperative,G,,,,,,,,,,1.0,
"CZK 22,900","CZK 4,900",693228,3+1,9/2/2022,85 m²,Fully furnished,2,1.0,323.9,275.24,213.18,913.28,302.9,398.76,768.26,322.45,576.93,141.01,"Vackova, Prague - Stodůlky",50.04527,14.31046,"CZK 40,000",Prefab concrete,,Complete,Very good,Personal,B,Central,,,,,,1.0,1.0,,1.0,
"CZK 19,000","CZK 3,500",731463,2+kk,8/28/2022,51 m²,Partly,1,1.0,195.46,2011.74,403.23,413.65,552.57,498.18,520.3,1787.48,734.11,161.58,Prague - Třebonice,50.05605,14.29156,"CZK 30,000",Brick,,,New-build,,B,,,,1.0,1.0,,1.0,,,1.0,
"CZK 25,000","CZK 4,000",389695,3+1,10/1/2022,103 m²,Partly,4,1.0,213.95,640.16,267.15,268.06,207.81,187.11,185.54,362.22,1395.5,129.39,"Nušlova, Prague - Stodůlky",50.0529616,14.3490188,"CZK 29,000",Prefab concrete,,,,Personal,C,Central,,,1.0,,,,1.0,,,
"CZK 17,000","CZK 3,000",623792,Studio,9/1/2020,44 m²,Fully furnished,3,,164.84,409.94,161.23,292.86,159.42,240.26,385.46,455.03,185.97,161.28,"Anežská, Prague - Staré Město",50.091925,14.423863,"CZK 30,000",Brick,,Complete,Very good,Personal,B,Gas boiler,Luxurious,,,,,,,,,
"CZK 15,000","CZK 3,000",644784,Studio,10/30/2022,38 m²,Fully furnished,2,1.0,36.85,193.63,41.55,92.16,45.28,4.26,159.78,261.92,185.7,236.1,"Dlouhá, Prague - Staré Město",50.090309,14.426676,"CZK 25,000",Brick,,,Very good,Personal,B,Distance,,,,,,,,,,
"CZK 28,800","CZK 5,800",566375,2 bedroom,9/1/2022,65 m²,Fully furnished,1,1.0,124.79,451.96,157.36,293.51,128.12,183.56,213.19,293.47,135.81,471.93,"Mánesova, Prague - Vinohrady",50.0779063,14.4417343,"CZK 45,000",Brick,,,,Personal,G,Gas boiler,,,1.0,,,,,,,
"CZK 39,600","CZK 13,200",717648,2+kk,9/23/2022,46 m²,Fully furnished,2,,249.05,258.88,108.69,237.41,65.07,536.83,294.74,273.73,806.33,231.2,"Míšeňská, Prague - Malá Strana",50.0876118,14.4080467,,,,,,,,,,,,,,,,,,
"CZK 25,808","CZK 8,602",725069,2 bedroom,9/23/2022,54 m²,Fully furnished,5,,221.57,827.75,176.34,604.4,98.94,602.74,417.35,332.18,571.22,245.6,"Bulharská, Prague - Vršovice",50.0720218,14.4618189,,,,,,,,,,,,,,,,,,
"CZK 20,000","CZK 7,000",730773,2 bedroom,9/1/2022,55 m²,Partly,2,,142.89,368.6,396.96,381.66,287.22,1332.25,334.52,695.43,956.12,622.84,Prague - Záběhlice,50.04715,14.48291,"CZK 45,000",Brick,30 - 50 years,Exterior,Very good,Personal,G,Central,,,1.0,,,,,1.0,,
"CZK 17,000","CZK 4,800",726503,2 bedroom,7/19/2022,64 m²,Fully furnished,3,,77.26,1194.19,749.99,1186.85,601.55,675.04,515.47,826.4,1235.44,627.62,Prague - Braník,50.02706,14.41658,"CZK 17,000",Brick,,,Very good,Cooperative,,,Standard,,1.0,,,1.0,,,,
"CZK 45,000","CZK 5,000",625132,3+kk,10/15/2022,120 m²,Partly,5,1.0,298.02,582.29,118.5,369.23,72.95,352.83,295.23,336.0,673.21,91.68,"Baranova, Prague - Žižkov",50.079934,14.457769,"CZK 45,000",Brick,,,Very good,Personal,G,,Luxurious,1.0,1.0,,,,,,,
"CZK 16,900","CZK 4,000",731452,1 bedroom,8/28/2022,35 m²,Fully furnished,2,,75.69,451.17,311.88,104.64,127.64,1147.59,213.25,644.26,475.61,293.22,Prague - Michle,50.05724,14.45039,"CZK 34,000",Brick,,Complete,Very good,Personal,,,Luxurious,,,,,,,,,
"CZK 10,500","CZK 4,300",662259,Studio,9/1/2022,25 m²,Partly,7,1.0,232.42,254.11,185.2,324.23,117.95,268.47,784.91,947.31,1288.52,396.11,"Hnězdenská, Prague - Troja",50.12639,14.42051,"CZK 15,000",Brick,,,New-build,Personal,C,,,,,,,,,,,
"CZK 18,800","CZK 4,900",731453,Studio,8/28/2022,30 m²,Fully furnished,2,,354.21,737.34,455.75,355.35,376.01,575.19,1043.45,328.66,1016.27,67.61,Prague - Střešovice,50.09684,14.38976,"CZK 8,000",Brick,,,Very good,,B,,,,1.0,,,,,,,
"CZK 14,000","CZK 1,650",712897,Studio,10/1/2022,21 m²,Partly,,1.0,152.93,806.07,163.65,319.49,65.27,93.5,536.3,915.84,488.21,814.71,"Šimáčkova, Prague - Holešovice",50.10308,14.43375,"CZK 16,000",Brick,Up to 10 years,Complete,Very good,Personal,G,Electric boiler,Standard,,,,,,,,1.0,
"CZK 15,750","CZK 5,250",730902,1 bedroom,9/25/2022,30 m²,Fully furnished,3,,217.38,2062.48,1281.33,4705.18,629.6,1074.91,597.5,3134.16,2915.46,646.77,"Švihovská, Prague - Písnice",49.9954018,14.4704771,,,,,,,,,,,,,,,,,,
"CZK 18,000","CZK 5,000",425185,2+kk,8/28/2022,56 m²,Fully furnished,1,,85.3,212.78,59.97,163.18,127.61,304.28,276.4,561.91,304.53,301.03,"Za Poštou, Prague - Strašnice",50.0761964,14.4905813,"CZK 22,000",Brick,Up to 10 years,,,Personal,C,Other,Luxurious,,,,,,,,1.0,
"CZK 14,500",CZK 682,727527,Studio,9/23/2022,32 m²,Unfurnished,2,1.0,134.1,1231.17,484.46,487.91,0.66,491.14,797.02,376.04,364.68,547.87,"5. května, Prague - Nusle",50.05624815,14.43716165,"CZK 30,400",Brick,,Interior,Good,Personal,E,,Standard,,,,,,,,1.0,
"CZK 31,875","CZK 10,625",725887,2 bedroom,9/13/2022,65 m²,Fully furnished,2,,181.41,298.0,1.34,322.55,4.35,512.55,359.47,791.01,446.67,323.95,"Karlova, Prague - Staré Město",50.0859967,14.4175762,,,,,,,,,,,,,,,,,,
"CZK 37,125","CZK 12,375",726070,2 bedroom,10/3/2022,90 m²,Fully furnished,2,1.0,73.01,281.28,58.33,478.54,20.37,379.07,102.37,138.49,668.56,481.36,"Francouzská, Prague - Vinohrady",50.0739894,14.440101,,,,,,,,,,,,,,,,,,
"CZK 20,000","CZK 3,000",70257,2+kk,8/23/2022,40 m²,Partly,,,168.82,290.16,47.69,357.38,67.06,409.98,147.03,133.92,520.36,665.19,Prague - Vinohrady,50.0757383,14.440774,"CZK 30,000",Brick,,Complete,,Personal,,Electric boiler,,,,,,,,,,
"CZK 34,650","CZK 11,550",726077,2 bedroom,9/15/2022,100 m²,Fully furnished,3,1.0,47.36,89.7,50.91,353.17,50.36,559.15,144.5,503.29,323.37,346.2,"Plaská, Prague - Malá Strana",50.0806597,14.4049697,,,,,,,,,,,,,,,,,,
"CZK 21,750","CZK 7,250",728426,Studio,10/2/2022,25 m²,Fully furnished,12,1.0,228.88,257.2,204.55,166.76,173.2,262.96,328.04,408.55,436.47,292.09,"Freyova, Prague - Vysočany",50.108944,14.501028,,,,,,,,,,,,,,,,,,
"CZK 60,000","CZK 20,000",717694,2+kk,9/1/2022,,Fully furnished,3,,177.2,646.63,182.16,39.81,37.58,122.34,27.5,101.85,349.84,194.18,"Ječná, Prague - Nové Město",50.0757302,14.4269087,,,,,,,,,,,,,,,,,,
"CZK 20,625","CZK 6,875",728424,2 bedroom,10/2/2022,45 m²,Fully furnished,10,1.0,256.77,316.9,138.95,255.27,129.78,146.97,532.26,445.84,886.9,24.33,"Jablonecká, Prague - Střížkov",50.1245336,14.4947443,,,,,,,,,,,,,,,,,,
"CZK 9,200","CZK 1,050",731390,,8/27/2022,23 m²,,,,115.09,1032.67,80.25,311.2,75.8,134.11,370.43,418.92,410.08,300.64,Prague - Žižkov,50.09084,14.47161,"CZK 10,000",,,,,,,,,,,,,,,,,
"CZK 41,438","CZK 13,812",728262,Studio,9/11/2022,26 m²,Fully furnished,2,,229.1,530.05,122.61,223.26,36.43,222.12,280.75,471.08,466.92,408.11,"Příčná, Prague - Nové Město",50.077834,14.422878,,,,,,,,,,,,,,,,,,
"CZK 60,000","CZK 20,000",717693,2+kk,9/1/2022,,Fully furnished,3,,177.2,646.63,182.16,39.81,37.58,122.34,27.5,101.85,349.84,194.18,"Ječná, Prague - Nové Město",50.0757302,14.4269087,,,,,,,,,,,,,,,,,,
"CZK 39,000","CZK 13,000",728062,2 bedroom,9/25/2022,92 m²,Fully furnished,7,1.0,73.01,281.28,58.33,478.54,20.37,379.07,102.37,138.49,668.56,481.36,"Francouzská, Prague - Vinohrady",50.0739894,14.440101,,,,,,,,,,1.0,1.0,,,,,,,
"CZK 33,750","CZK 11,250",730188,1 bedroom,10/16/2022,45 m²,Fully furnished,3,1.0,153.03,376.72,146.99,646.6,45.07,502.75,147.12,62.23,673.09,485.89,"Jana Masaryka, Prague - Vinohrady",50.0723321,14.4399493,,,,,,,,,,,,,,,,,,
"CZK 17,250","CZK 5,750",731385,3+1,10/26/2022,90 m²,Fully furnished,5,1.0,82.8,397.93,96.94,404.98,135.48,353.78,131.46,217.55,654.74,661.34,"Blanická, Prague - Vinohrady",50.0746503,14.439294,,,,,,,,,,,,,,,,,,
"CZK 47,340","CZK 15,780",717682,2+kk,9/1/2022,69 m²,Fully furnished,6,1.0,104.56,349.59,143.75,145.93,108.83,150.53,431.56,393.96,289.53,329.01,"Na Maninách, Prague - Holešovice",50.1025661,14.4522431,,,,,,,,,,1.0,1.0,,,,,,,
"CZK 36,675","CZK 12,225",731158,2+kk,10/24/2022,55 m²,Fully furnished,2,1.0,170.48,421.6,257.32,426.75,52.86,339.7,54.65,63.39,473.33,754.41,"Balbínova, Prague - Vinohrady",50.0795659,14.4357789,,,,,,,,,,,,,,,,,,
"CZK 29,900","CZK 4,000",731449,2+kk,8/28/2022,58 m²,Unfurnished,3,1.0,140.56,577.97,113.5,130.14,152.77,131.11,432.29,632.55,509.18,241.35,Prague - Libeň,50.1046,14.47194,"CZK 29,900",Brick,,,New-build,,B,,,1.0,,1.0,,1.0,,,1.0,
"CZK 31,590","CZK 10,530",722787,1 bedroom,9/5/2022,52 m²,Fully furnished,3,1.0,194.81,408.3,97.23,765.36,41.67,716.59,415.49,296.07,511.26,224.74,"Rybalkova, Prague - Vinohrady",50.0719171,14.4429188,,,,,,,,,,,,,,,,,,
"CZK 31,050","CZK 10,350",730431,3+1,9/3/2022,111 m²,Fully furnished,1,,208.61,131.46,936.81,2564.81,336.74,613.32,243.84,2102.93,1889.94,338.05,"K Zámku, Prague - Dolní Počernice",50.0890765,14.5799076,,,,,,,,,,1.0,1.0,,,,,,,
"CZK 29,900",CZK 740,238692,4+kk,7/22/2022,146 m²,Partly,3,,109.74,980.99,386.17,954.65,148.18,1005.58,631.08,500.51,373.2,376.53,"Hornoměcholupská, Prague - Hostivař",50.0521645,14.5301399,"CZK 59,800",Brick,,Complete,Good,Personal,C,,Standard,,,,,,,,1.0,
"CZK 8,000","CZK 3,500",715124,Studio,9/1/2022,20 m²,Partly,6,1.0,175.39,1211.28,233.95,3602.9,307.06,263.5,203.61,2322.75,1901.97,753.55,"Na Okruhu, Prague - Písnice",50.00103,14.46431,"CZK 15,000",Prefab concrete,,,Good,Personal,D,Central,,,,,,1.0,,,,
"CZK 12,000","CZK 3,274",616070,Studio,11/1/2022,44 m²,Partly,7,1.0,51.04,180.78,74.12,511.43,115.31,243.44,203.44,83.74,251.32,241.0,"Sabinova, Prague - Žižkov",50.085832,14.455695,"CZK 15,500",Other,,Interior,Very good,Personal,G,Central,,,1.0,,,,,,1.0,
"CZK 19,800","CZK 6,600",726085,3+1,10/4/2022,90 m²,Fully furnished,5,1.0,82.8,397.93,96.94,404.98,135.48,353.78,131.46,217.55,654.74,661.34,"Blanická, Prague - Vinohrady",50.0746503,14.439294,,,,,,,,,,,,,,,,,,
"CZK 13,900","CZK 3,000",86915,2+kk,9/2/2022,48 m²,Fully furnished,3,1.0,212.9,699.7,163.89,65.56,30.73,313.69,616.42,611.95,557.41,214.92,"Hájkova, Prague - Žižkov",50.0892301,14.4649476,"CZK 15,000",Brick,,,Very good,,,,,,,,,,,,1.0,
"CZK 24,800","CZK 5,000",730883,2+kk,10/3/2022,57 m²,Fully furnished,5,1.0,137.12,489.32,75.46,171.04,0.13,363.78,516.89,322.14,307.6,687.91,Prague - Smíchov,50.07184,14.40625,"CZK 25,000",Brick,,,Very good,Personal,G,,,,,,,,,1.0,1.0,
"CZK 50,000",CZK 0,719964,3+kk,7/31/2022,100 m²,Fully furnished,2,1.0,115.76,112.29,71.33,121.74,25.59,235.38,203.84,185.81,291.49,271.4,"Benediktská, Prague - Staré Město",50.08995,14.42693,CZK 0,Brick,,Complete,Very good,Personal,G,Gas boiler,Luxurious,,,,,,1.0,,,
"CZK 10,500","CZK 2,500",558580,Studio,9/1/2022,31 m²,Partly,2,,373.21,1008.33,345.05,695.97,340.31,423.14,423.27,736.47,111.65,176.35,Prague - Libeň,50.1102035,14.4760865,"CZK 20,000",Brick,,,,,,Central,,,,,,,,,,
"CZK 12,000","CZK 3,500",731436,1 bedroom,8/27/2022,42 m²,Partly,2,,348.54,738.42,222.29,554.64,408.38,465.67,435.65,549.18,304.84,412.6,Prague - Košíře,50.06732,14.3686,"CZK 12,000",Brick,,,Very good,,E,,,,,,,,,,,
"CZK 17,500","CZK 4,200",731440,1 bedroom,8/27/2022,34 m²,Partly,1,,309.93,1324.95,228.84,710.35,257.19,425.17,569.56,583.75,698.96,307.13,Prague - Bubeneč,50.11009,14.39572,"CZK 36,000",Brick,,,Good,Personal,D,,,,,,,,,1.0,1.0,
"CZK 41,100","CZK 13,700",730539,2+kk,9/19/2022,68 m²,Fully furnished,2,1.0,170.48,421.6,257.32,426.75,52.86,339.7,54.65,63.39,473.33,754.41,"Balbínova, Prague - Vinohrady",50.0795659,14.4357789,,,,,,,,,,,,,,,,,,
"CZK 20,900","CZK 2,800",731435,Studio,8/27/2022,36 m²,Unfurnished,2,1.0,140.56,577.97,113.5,130.14,152.77,131.11,432.29,632.55,509.18,241.35,Prague - Libeň,50.1046,14.47194,"CZK 20,900",Brick,,,New-build,,B,,,1.0,,1.0,,1.0,,,1.0,
"CZK 16,000","CZK 1,744",628460,Studio,9/1/2022,43 m²,Unfurnished,1,1.0,327.31,584.04,205.09,356.41,172.42,367.7,158.25,176.48,373.62,150.08,"Kamenická, Prague - Holešovice",50.0976,14.427997,"CZK 16,000",Brick,,,Good,Personal,G,Distance,,,,,,,,,,
"CZK 31,680","CZK 10,560",731433,2 bedroom,9/1/2022,52 m²,Fully furnished,2,1.0,101.2,551.63,76.94,167.66,45.43,94.55,322.6,504.78,539.56,607.69,"Rumunská, Prague - Vinohrady",50.0739629,14.4309041,,,,,,,,,,,,,,,,,,
"CZK 30,000","CZK 10,000",718922,Studio,9/11/2022,45 m²,Fully furnished,5,1.0,241.61,542.2,98.71,270.79,176.01,313.55,455.64,821.55,633.96,593.3,"Mečislavova, Prague - Nusle",50.0633237,14.4440058,,,,,,,,,,,,,,,,,,
"CZK 8,000","CZK 4,000",731432,1 bedroom,8/27/2022,25 m²,Fully furnished,3,,225.84,998.78,156.94,498.46,315.81,461.06,478.73,438.76,758.62,198.52,Prague - Prosek,50.11597,14.49889,"CZK 12,000",Brick,,,Good,,C,,,,1.0,,,,,,,
"CZK 12,000","CZK 4,000",731430,2+kk,8/27/2022,43 m²,Fully furnished,11,1.0,489.24,1034.37,631.38,1131.4,174.27,1012.6,255.64,332.1,843.47,121.89,Prague - Horní Měcholupy,50.04789,14.5613,"CZK 12,000",Prefab concrete,,,Good,,G,,,,,,,1.0,,,,
"CZK 18,500","CZK 1,500",501933,2+kk,8/28/2022,52 m²,Fully furnished,3,1.0,147.19,236.94,131.18,98.74,64.88,145.53,351.54,660.68,472.17,473.71,"Jirečkova, Prague - Holešovice",50.0992787,14.4239293,"CZK 20,000",Brick,,,,Cooperative,G,,,,,,,,,,,
"CZK 19,000","CZK 4,000",514627,2+kk,9/1/2022,53 m²,Partly,8,1.0,436.45,482.38,355.27,2168.88,451.43,585.29,902.55,311.64,478.12,124.82,"Kytínská, Prague - Hostivař",50.0529798,14.5443391,"CZK 19,000",Other,Up to 10 years,,New-build,Personal,,Distance,Standard,,1.0,1.0,1.0,,,,1.0,
"CZK 14,900","CZK 3,600",731416,Studio,9/1/2022,45 m²,Partly,1,,130.19,920.68,265.95,859.06,491.81,519.79,180.24,489.43,700.02,156.93,Prague - Prosek,50.11869,14.48924,"CZK 25,000",Brick,,,Very good,,C,Distance,,1.0,,,,,,,,
"CZK 30,000","CZK 10,000",730836,2+kk,9/22/2022,40 m²,Fully furnished,1,,29.42,633.78,151.61,536.89,130.46,316.51,391.7,900.17,984.89,128.97,"Šporkova, Prague - Malá Strana",50.0876289,14.3978335,,,,,,,,,,,,,,,,,,
"CZK 24,999","CZK 4,900",731412,2+kk,8/27/2022,57 m²,Fully furnished,1,1.0,181.87,1408.66,55.3,979.08,153.0,539.26,274.37,720.09,348.91,137.94,Prague - Libeň,50.1132,14.47331,"CZK 24,999",Brick,,,New-build,,A,,,,,1.0,,1.0,,1.0,1.0,
"CZK 40,000","CZK 5,500",730824,3+1,8/22/2022,170 m²,Partly,4,,330.89,661.36,322.57,513.77,359.29,650.66,459.34,819.46,239.7,329.09,Prague - Podolí,50.05526,14.42152,"CZK 91,000",Brick,,,Very good,,G,,,1.0,1.0,,,1.0,,,1.0,
"CZK 19,000","CZK 2,000",605812,Studio,9/7/2022,42 m²,Partly,5,1.0,165.64,741.92,52.41,96.6,104.88,171.12,251.74,483.54,150.69,593.26,"Veverkova, Prague - Holešovice",50.100125,14.431629,"CZK 38,000",Brick,,,Very good,Personal,,Central,,1.0,,,,,,,,
"CZK 16,000","CZK 2,500",730259,Studio,8/17/2022,32 m²,Fully furnished,2,,110.17,1151.62,486.69,1390.49,516.43,1141.26,906.6,797.73,1015.03,331.85,Prague - Braník,50.0358252,14.4138519,"CZK 37,000",Brick,,,New-build,,B,,,1.0,,,,,,,,
"CZK 33,000","CZK 6,200",731411,4+kk,9/1/2022,120 m²,Fully furnished,2,1.0,148.21,1029.77,249.9,738.37,229.77,616.22,937.79,501.32,250.45,282.83,Prague - Strašnice,50.0818,14.48523,"CZK 50,000",Low-energy,,,Very good,,B,,,,,,,1.0,1.0,,1.0,
"CZK 24,581","CZK 8,194",731408,Studio,9/1/2022,28 m²,Fully furnished,1,,194.2,798.76,138.2,283.7,89.62,474.09,247.17,335.61,500.98,81.99,"U Zeměpisného ústavu, Prague - Bubeneč",50.1033901,14.4020568,,,,,,,,,,,,,,,,,,
"CZK 28,500","CZK 3,000",716384,3+kk,8/15/2022,77 m²,Partly,7,1.0,333.31,299.19,45.56,214.52,54.5,38.78,271.42,790.21,190.1,583.95,"Opletalova, Prague - Nové Město",50.08123,14.42982,"CZK 31,500",Brick,Up to 10 years,Interior,Very good,Personal,G,Distance,Luxurious,,1.0,,,1.0,1.0,,,
"CZK 16,800",CZK 800,518150,3+kk,9/1/2022,62 m²,Unfurnished,1,,136.52,161.2,174.39,571.31,228.96,210.25,838.28,528.14,827.24,593.25,"Zenklova, Prague - Libeň",50.1193528,14.4614637,"CZK 33,600",Brick,,,,Personal,,,,,,,,,,,,
"CZK 14,200",CZK 800,518153,2 bedroom,9/1/2022,53 m²,Unfurnished,-1,,136.52,161.2,174.39,571.31,228.96,210.25,838.28,528.14,827.24,593.25,Prague - Libeň,50.1193528,14.4614637,"CZK 28,400",Brick,,,,Personal,,,,,,,,,,,,
"CZK 11,000",CZK 730,43967,1 bedroom,8/30/2022,29 m²,Fully furnished,1,,147.75,856.85,252.64,493.2,99.8,557.31,391.63,366.22,734.94,339.63,"U Družstev, Prague - Nusle",50.0540439,14.441087,"CZK 12,000",Brick,,,Good,Personal,G,,,,1.0,,,,,,,
"CZK 17,900","CZK 3,900",641182,Studio,8/31/2022,25 m²,Fully furnished,3,,356.6,734.94,453.36,352.96,373.61,572.79,1041.05,326.27,1013.88,65.21,"Buštěhradská, Prague - Střešovice",50.096835,14.389714,"CZK 4,000",Brick,,Bathroom unit,Good,Personal,B,Central,Standard,,,,,,,,,
"CZK 12,000",CZK 0,731407,Studio,9/1/2022,26 m²,Partly,1,,162.27,207.98,82.45,179.03,67.54,172.94,262.52,414.76,310.06,369.39,Prague - Vršovice,50.06795,14.45627,"CZK 12,000",Brick,,,New-build,,G,,,,,,,,,,,
"CZK 13,500",CZK 500,729944,Studio,10/1/2022,38 m²,Fully furnished,5,1.0,233.84,1275.59,229.74,1315.56,318.64,307.71,443.89,133.99,1126.09,128.62,Prague - Hostivař,50.04662,14.51884,"CZK 15,000",Prefab concrete,10 to 30 years,Interior,Very good,,B,,Standard,,,,,,,,1.0,
"CZK 34,920","CZK 11,640",728102,2 bedroom,9/1/2022,52 m²,Fully furnished,5,1.0,99.55,314.58,150.34,67.01,34.6,412.05,133.24,331.05,397.28,726.22,"Vinohradská, Prague - Vinohrady",50.0779159,14.4375296,,,,,,,,,,,,,,,,,,
"CZK 30,675","CZK 10,225",731228,Studio,9/1/2022,30 m²,Fully furnished,2,1.0,210.86,390.29,319.5,985.86,301.65,338.01,858.33,290.45,385.77,539.9,"Strakonická, Prague - Smíchov",50.0643299,14.4102127,,,,,,,,,,,,,,,,,,
"CZK 31,425","CZK 10,475",729524,Studio,9/27/2022,30 m²,Fully furnished,3,1.0,210.86,390.29,319.5,985.86,301.65,338.01,858.33,290.45,385.77,539.9,"Strakonická, Prague - Smíchov",50.0643299,14.4102127,,,,,,,,,,,,,,,,,,
"CZK 22,000","CZK 4,500",728893,Studio,9/12/2022,39 m²,Partly,5,1.0,292.74,597.07,273.19,266.0,167.75,409.2,830.45,1028.64,565.09,367.73,Prague - Karlín,50.09629,14.45175,"CZK 50,000",Low-energy,,,New-build,,B,,,1.0,,1.0,1.0,1.0,1.0,,1.0,
"CZK 16,000",CZK 0,583578,,8/30/2022,15 m²,Fully furnished,1,1.0,205.33,658.07,330.79,666.41,147.84,610.89,238.11,457.49,14.87,566.93,"Krouzova, Prague - Modřany",50.012335913975,14.418793902307,"CZK 16,000",Brick,10 to 30 years,Complete,Good,Cooperative,C,Gas boiler,Standard,,,,,,1.0,,1.0,
"CZK 18,000","CZK 2,500",392925,2+kk,9/1/2022,50 m²,Partly,5,1.0,487.64,1059.79,268.72,1038.86,696.6,637.22,559.36,510.6,1320.66,97.89,Prague - Střížkov,50.1308869,14.4954099,"CZK 36,000",Brick,Up to 10 years,,New-build,Personal,B,Distance,Luxurious,,1.0,,,1.0,,,,
"CZK 41,250","CZK 13,750",719999,2+kk,10/16/2022,55 m²,Fully furnished,1,1.0,76.78,951.56,41.94,296.91,109.07,229.41,371.34,325.8,517.82,388.28,"Rečkova, Prague - Žižkov",50.0904334,14.4705869,,,,,,,,,,,,,,,,,,
"CZK 18,750","CZK 6,250",729015,3+1,10/22/2022,90 m²,Fully furnished,2,1.0,82.8,397.93,96.94,404.98,135.48,353.78,131.46,217.55,654.74,661.34,"Blanická, Prague - Vinohrady",50.0746503,14.439294,,,,,,,,,,,,,,,,,,
"CZK 33,000","CZK 11,000",719175,2 bedroom,9/1/2022,50 m²,Fully furnished,-1,1.0,210.86,382.06,250.08,989.18,169.53,744.75,811.66,1049.67,387.48,543.22,"Strakonická, Prague - Smíchov",50.0643299,14.4102127,,,,,,,,,,,,,,,,,,
"CZK 18,500","CZK 4,600",462793,Studio,10/1/2022,58 m²,Fully furnished,4,1.0,243.2,1045.68,420.92,402.29,343.22,869.46,807.11,190.63,1167.33,436.4,"Velvarská, Prague - Dejvice",50.0992603,14.3830536,"CZK 37,000",Brick,,Complete,,Personal,,Central,,,,,,,,,,
"CZK 17,500","CZK 1,500",633837,2 bedroom,8/31/2022,62 m²,Partly,2,1.0,591.2,1250.25,624.98,1615.96,878.74,847.81,910.16,1532.66,611.56,669.97,"Jesenická, Prague - Záběhlice",50.057702,14.485969,"CZK 20,000",Prefab concrete,,Complete,Very good,Personal,G,Distance,,,,,,,1.0,,1.0,
"CZK 21,900","CZK 3,000",686568,Studio,9/1/2022,26 m²,Fully furnished,2,1.0,98.4,430.77,193.81,210.42,67.47,366.05,461.93,467.64,787.48,452.05,"Gorazdova, Prague - Nové Město",50.07386,14.41527,"CZK 44,000",Brick,Up to 10 years,Complete,New-build,Personal,E,,,,,,,,,,,
"CZK 23,000","CZK 4,000",730804,3+1,10/1/2022,77 m²,Partly,2,,473.84,1388.43,450.65,1215.14,466.26,729.37,635.55,575.59,435.22,232.77,Prague - Vokovice,50.10084,14.34982,"CZK 27,000",Brick,,,Very good,,G,,,,,,,1.0,,1.0,1.0,
"CZK 29,175","CZK 9,725",730588,Studio,9/23/2022,30 m²,Fully furnished,2,1.0,210.86,390.29,319.5,985.86,301.65,338.01,858.33,290.45,385.77,539.9,"Strakonická, Prague - Smíchov",50.0643299,14.4102127,,,,,,,,,,,,,,,,,,
"CZK 25,920","CZK 8,640",730786,2+kk,10/16/2022,50 m²,Fully furnished,2,1.0,256.88,230.57,115.16,212.72,190.01,251.36,415.49,530.5,578.5,441.78,"Čajkovského, Prague - Žižkov",50.0830128,14.4521943,,,,,,,,,,,,,,,,,,
"CZK 37,500","CZK 12,500",718920,2+kk,9/8/2022,60 m²,Fully furnished,3,1.0,241.61,542.2,98.71,270.79,176.01,313.55,455.64,821.55,633.96,593.3,"Mečislavova, Prague - Nusle",50.0633237,14.4440058,,,,,,,,,,1.0,1.0,,,,,,,
"CZK 33,750","CZK 11,250",718218,2+kk,9/6/2022,45 m²,Fully furnished,2,1.0,210.86,382.06,250.08,989.18,169.53,744.75,811.66,1049.67,387.48,543.22,"Strakonická, Prague - Smíchov",50.0643299,14.4102127,,,,,,,,,,,,,,,,,,
"CZK 14,000","CZK 2,700",730130,Studio,9/1/2022,36 m²,Partly,4,1.0,145.11,714.1,703.82,698.56,484.4,710.06,817.76,879.38,605.01,262.74,Prague - Záběhlice,50.0534,14.51221,"CZK 28,000",Other,,,New-build,,C,Distance,Standard,,1.0,1.0,,1.0,,,1.0,
"CZK 14,800","CZK 4,200",639490,2 bedroom,9/1/2022,50 m²,,3,1.0,190.02,695.62,146.38,680.94,140.07,284.32,263.57,1048.27,441.84,199.8,"Malá Plynární, Prague - Holešovice",50.108759,14.4457,"CZK 20,000",Brick,,Complete,Very good,Personal,E,Central,,,1.0,,,,,,1.0,
"CZK 21,900","CZK 5,800",657015,1 bedroom,8/29/2022,40 m²,Fully furnished,1,,354.21,737.34,455.75,355.35,376.01,575.19,1043.45,328.66,1016.27,67.61,"Buštěhradská, Prague - Střešovice",50.09684,14.38976,"CZK 8,000",Brick,,Exterior,Very good,Personal,B,Central,Standard,,,,,1.0,,,,
"CZK 22,000","CZK 6,000",730789,3+kk,10/1/2022,81 m²,Partly,1,1.0,378.58,1911.94,502.31,1586.49,1240.39,708.11,1040.33,1321.24,1024.76,33.51,Prague - Vysočany,50.10509,14.51541,"CZK 22,000",Prefab concrete,,,Very good,,G,,,1.0,,,1.0,1.0,,1.0,1.0,
"CZK 19,000","CZK 1,800",496824,2 bedroom,9/1/2022,69 m²,Partly,2,,191.28,442.28,71.73,199.8,77.02,134.35,347.72,484.05,479.89,421.08,"Žitná, Prague - Nové Město",50.0777397,14.4219854,"CZK 38,000",Brick,Over 50 years,Interior,,Personal,,Gas boiler,,,,,,,,,,
"CZK 37,500","CZK 12,500",717602,2+kk,9/1/2022,56 m²,Fully furnished,5,1.0,242.69,541.12,99.79,271.87,177.08,314.62,456.71,820.48,635.04,594.38,"Mečislavova, Prague - Nusle",50.0633339,14.4440155,,,,,,,,,,,,,,,,,,
"CZK 53,510","CZK 17,836",725486,4+1,10/8/2022,110 m²,Fully furnished,7,1.0,348.55,940.69,207.03,294.37,97.8,272.7,322.85,445.04,400.99,361.6,"Divadelní, Prague - Staré Město",50.0824664,14.4140344,,,,,,,,,,1.0,1.0,,,,,,,
"CZK 4,900","CZK 1,000",686626,2 bedroom,9/1/2022,50 m²,Fully furnished,4,,180.5,668.29,52.54,601.09,271.63,449.0,151.53,1025.29,424.12,87.77,"Ortenovo náměstí, Prague - Holešovice",50.10915,14.44742,CZK 0,Brick,,,Very good,Personal,G,Central,,,,,,,,,,
"CZK 21,000","CZK 2,800",731006,2+kk,8/23/2022,52 m²,Partly,4,1.0,323.29,1377.6,728.37,1332.13,1089.0,1228.83,1090.87,1024.81,1020.05,729.53,Prague - Hloubětín,50.10854,14.52547,"CZK 25,000",Low-energy,,,New-build,Personal,B,Central,,,1.0,1.0,1.0,,,1.0,1.0,
"CZK 11,000","CZK 4,500",521063,Studio,9/15/2022,30 m²,Fully furnished,2,,97.12,733.05,21.71,64.86,76.1,92.87,395.6,480.64,426.09,357.46,Prague - Žižkov,50.0893775,14.46752,"CZK 15,000",Brick,,,Good,Personal,,,,,,,,,,,,
"CZK 60,000","CZK 6,000",731171,4+kk,8/25/2022,130 m²,Partly,5,,264.54,188.83,342.77,281.35,223.32,522.66,177.43,189.95,990.47,464.35,Prague - Malá Strana,50.08904,14.40703,"CZK 120,000",Brick,,Complete,Very good,,G,,,1.0,1.0,,,,,,1.0,
"CZK 31,000","CZK 8,000",472794,4+kk,10/1/2022,105 m²,Partly,2,,144.2,197.38,28.0,235.07,11.48,250.9,340.48,492.72,328.98,306.07,Prague - Vršovice,50.0674451,14.4566149,"CZK 50,000",Brick,,Complete,Very good,Personal,,,,,1.0,,,,,,,
"CZK 19,000","CZK 4,000",249879,2+kk,10/1/2022,66 m²,Fully furnished,2,1.0,372.23,943.38,625.63,1057.02,355.45,903.11,637.89,793.73,557.5,136.86,"Švejcarovo náměstí, Prague - Stodůlky",50.0361776,14.3299157,"CZK 46,000",Brick,,,Very good,Personal,,Electric boiler,,,,,,1.0,1.0,,,
"CZK 25,380","CZK 8,460",723857,2 bedroom,9/5/2022,35 m²,Fully furnished,5,,220.05,826.22,174.81,602.88,97.41,601.22,415.82,330.65,569.7,247.12,"Bulharská, Prague - Vršovice",50.0719625,14.461813,,,,,,,,,,,,,,,,,,
"CZK 25,988","CZK 8,662",728259,2 bedroom,10/4/2022,60 m²,Fully furnished,1,,250.51,417.46,211.46,417.21,207.64,462.73,364.17,360.99,525.54,550.17,"Lublaňská, Prague - Vinohrady",50.0710848,14.4324122,,,,,,,,,,,,,,,,,,
"CZK 33,750","CZK 11,250",727478,1 bedroom,9/25/2022,43 m²,Fully furnished,4,1.0,276.64,299.92,82.85,597.17,63.3,447.09,45.77,62.13,794.8,565.99,"Americká, Prague - Vinohrady",50.0718291,14.4385892,,,,,,,,,,,,,,,,,,
"CZK 46,530","CZK 15,510",726063,2 bedroom,9/8/2022,48 m²,Fully furnished,2,,158.42,248.82,154.82,246.13,112.68,264.3,390.21,408.3,154.53,114.55,"Řásnovka, Prague - Staré Město",50.0918754,14.4250902,,,,,,,,,,,,,,,,,,
"CZK 37,500","CZK 12,500",725775,2+kk,9/11/2022,60 m²,Fully furnished,4,1.0,239.73,541.75,45.52,270.79,35.61,285.18,465.63,625.46,639.52,581.38,"Mečislavova, Prague - Nusle",50.0633237,14.4440058,,,,,,,,,,,,,,,,,,
"CZK 24,000","CZK 4,000",729219,2+kk,10/1/2022,62 m²,Fully furnished,8,1.0,174.3,970.54,39.31,895.64,476.02,323.89,470.1,346.69,1007.32,78.8,Prague - Střížkov,50.12917,14.49331,"CZK 48,000",Brick,Up to 10 years,,New-build,Personal,B,Central,Luxurious,,1.0,1.0,1.0,1.0,,,,
"CZK 16,000","CZK 3,000",731388,2+kk,9/1/2022,58 m²,Partly,3,1.0,239.32,721.27,303.79,535.82,218.67,196.36,205.9,255.22,502.0,327.73,Prague - Břevnov,50.08527,14.37305,"CZK 32,000",Brick,,,Very good,,C,Central,,,1.0,,,,,,,
"CZK 17,400","CZK 2,500",531248,2+kk,8/29/2022,40 m²,Fully furnished,3,,232.35,639.23,694.32,275.43,313.44,544.84,723.66,511.93,1205.5,201.79,"Vostrovská, Prague - Dejvice",50.1001838,14.3671741,"CZK 17,400",Brick,,Complete,Very good,Personal,A,Central,Standard,,,,,,,,,
"CZK 44,000","CZK 5,000",616335,4+1,8/30/2022,150 m²,Partly,2,,187.19,1435.35,170.17,1071.56,167.78,148.85,445.52,578.95,458.41,194.93,Prague - Dejvice,50.104941,14.371193,"CZK 50,000",Brick,,Complete,Very good,Personal,A,Central,Luxurious,1.0,1.0,,,,,,,
"CZK 41,756","CZK 13,919",728695,4+1,10/4/2022,102 m²,Fully furnished,2,,183.27,1023.84,165.5,746.11,195.16,730.27,819.74,259.7,600.66,303.35,"Xaveriova, Prague - Smíchov",50.0626569,14.3913498,,,,,,,,,,,,,,,,,,
"CZK 37,620","CZK 12,540",728258,2 bedroom,10/1/2022,54 m²,Fully furnished,7,1.0,379.66,564.73,5.21,191.31,38.84,242.1,65.9,705.75,343.76,422.75,"Michalská, Prague - Staré Město",50.0846396,14.4202484,,,,,,,,,,,,,,,,,,
"CZK 51,840","CZK 17,280",728059,3+1,9/30/2022,85 m²,Fully furnished,2,1.0,278.51,602.82,173.91,301.83,0.93,288.1,225.94,440.55,233.82,416.1,"Bílkova, Prague - Staré Město",50.0912254,14.4209612,,,,,,,,,,,,,,,,,,
"CZK 28,425","CZK 9,475",728696,2+kk,10/4/2022,45 m²,Fully furnished,5,,120.02,538.45,85.43,335.62,47.85,333.62,182.79,195.16,543.36,341.26,"Lípová, Prague - Nové Město",50.0747395,14.424046,,,,,,,,,,,,,,,,,,
"CZK 59,250","CZK 19,750",717599,4+kk,9/1/2022,90 m²,Fully furnished,2,1.0,140.09,527.92,223.64,125.85,37.89,66.77,510.79,1001.31,1180.94,559.23,"Stroupežnického, Prague - Smíchov",50.0710929,14.4032595,,,,,,,,,,,,,,,,,,
"CZK 22,500","CZK 7,500",728694,2 bedroom,10/4/2022,53 m²,Fully furnished,9,1.0,125.93,351.52,458.39,239.89,349.44,469.18,335.68,124.41,1424.09,330.78,"Arabská, Prague - Vokovice",50.0992269,14.3632307,,,,,,,,,,,,,,,,,,
"CZK 32,400","CZK 10,800",728253,2 bedroom,10/1/2022,65 m²,Fully furnished,5,1.0,163.79,319.88,110.55,226.38,103.86,407.78,227.16,243.22,785.75,360.1,"Na Zbořenci, Prague - Nové Město",50.0769346,14.4169603,,,,,,,,,,,,,,,,,,
"CZK 32,250","CZK 10,750",727477,Studio,9/25/2022,27 m²,Fully furnished,4,1.0,275.28,321.52,72.5,617.26,60.27,467.19,25.57,60.76,793.43,562.96,"Americká, Prague - Vinohrady",50.0717643,14.4385436,,,,,,,,,,,,,,,,,,
"CZK 37,500","CZK 12,500",720700,2+kk,9/12/2022,60 m²,Fully furnished,2,1.0,241.61,542.2,98.71,270.79,176.01,313.55,455.64,821.55,633.96,593.3,"Mečislavova, Prague - Nusle",50.0633237,14.4440058,,,,,,,,,,,,,,,,,,
"CZK 48,000","CZK 16,000",717684,3+1,9/18/2022,72 m²,Fully furnished,5,1.0,273.55,299.9,80.57,586.7,68.95,312.33,103.27,252.88,792.89,567.68,"Americká, Prague - Vinohrady",50.0718291,14.4385892,,,,,,,,,,,,,,,,,,
"CZK 27,195","CZK 9,065",730051,2+kk,10/15/2022,50 m²,Fully furnished,1,,255.31,501.77,459.42,715.23,218.51,523.94,431.76,479.05,374.11,261.13,"Na Balkáně, Prague - Žižkov",50.095259,14.4941569,,,,,,,,,,1.0,1.0,,,,,,,
"CZK 33,000","CZK 11,000",728257,3+kk,10/1/2022,80 m²,Fully furnished,2,,156.94,402.05,153.34,284.97,151.52,248.16,393.35,447.14,193.37,153.39,"Anežská, Prague - Staré Město",50.0920126,14.4239059,,,,,,,,,,,,,,,,,,
"CZK 43,500","CZK 14,500",730187,2 bedroom,10/16/2022,82 m²,Fully furnished,3,1.0,153.03,376.72,146.99,646.6,45.07,502.75,147.12,62.23,673.09,485.89,"Jana Masaryka, Prague - Vinohrady",50.0723321,14.4399493,,,,,,,,,,,,,,,,,,
"CZK 20,000","CZK 5,000",731383,3+kk,8/29/2022,68 m²,Partly,4,1.0,188.87,571.91,441.15,1615.09,114.43,1040.11,728.55,1013.12,597.88,292.79,Prague - Krč,50.02256,14.45293,"CZK 40,000",Prefab concrete,,,Very good,,G,Central,Standard,,,,,,1.0,,,
"CZK 15,000","CZK 3,000",147926,2+kk,11/1/2022,45 m²,Partly,3,,140.36,1538.25,310.84,1816.92,368.3,357.37,945.26,368.13,1082.06,17.82,"Bratislavská, Prague - Hostivař",50.0437706,14.5156536,"CZK 30,000",Brick,,,Very good,Personal,B,Central,Standard,,1.0,,,,,,,
"CZK 19,000","CZK 3,200",730739,2 bedroom,8/21/2022,58 m²,Partly,2,1.0,275.75,84.74,111.47,326.1,28.63,172.83,35.66,239.04,835.07,811.97,Prague - Vinohrady,50.07328,14.4362,"CZK 38,000",Brick,,,Very good,,D,,,,,,,1.0,,,,
"CZK 15,000","CZK 1,894",731375,1 bedroom,8/26/2022,36 m²,Partly,6,1.0,6.49,356.41,27.89,129.08,91.81,10.88,242.62,201.73,432.24,186.38,Prague - Holešovice,50.10237,14.45019,"CZK 16,894",Brick,,,Very good,,C,,,,,,,,,,,
"CZK 38,000","CZK 6,140",714349,3+1,9/1/2022,125 m²,Partly,4,1.0,169.6,512.43,178.1,306.01,36.59,299.49,192.69,443.73,233.23,420.28,"Bílkova, Prague - Staré Město",50.09099,14.42074,"CZK 60,000",Brick,,Interior,Very good,Personal,G,,,,,,,,,,1.0,
"CZK 17,500","CZK 4,000",616020,1 bedroom,9/4/2022,65 m²,Partly,2,,247.1,630.68,127.65,253.18,101.33,211.07,303.13,194.24,531.44,302.09,"Sudoměřská, Prague - Žižkov",50.080729,14.4582,"CZK 30,000",Brick,,,Very good,Personal,E,Other,,,,,,,1.0,,1.0,
"CZK 14,000","CZK 2,500",730724,Studio,8/21/2022,42 m²,Fully furnished,1,,1478.51,2152.1,1779.95,2050.57,1884.71,2089.31,1389.09,1749.38,2849.26,1483.91,Prague - Uhříněves,50.04535,14.59727,"CZK 28,000",Brick,10 to 30 years,,New-build,,G,,Standard,,1.0,1.0,,1.0,,1.0,,
"CZK 7,000","CZK 3,000",731366,Studio,9/8/2022,30 m²,Fully furnished,1,,473.13,1927.82,412.01,2234.74,517.28,1651.24,435.03,1290.93,1025.58,581.62,Prague - Ruzyně,50.08148,14.31969,"CZK 5,000",Brick,,,Very good,,A,,,,1.0,,,,,,1.0,
"CZK 13,000","CZK 5,000",720668,2+kk,8/29/2022,45 m²,Partly,,,119.95,431.06,322.14,677.14,64.36,453.23,325.03,553.24,462.77,192.45,Prague - Žižkov,50.09483,14.49518,"CZK 27,000",Brick,,,Good,Personal,D,,,,,,,,,,,
"CZK 27,500","CZK 7,200",584777,3+1,9/1/2022,110 m²,Fully furnished,6,1.0,286.67,574.75,38.34,342.06,12.03,299.95,392.01,283.12,620.33,292.11,"Sudoměřská, Prague - Žižkov",50.079945,14.458475,"CZK 55,000",Brick,,Complete,Very good,Personal,G,,Standard,1.0,,,,,,,,
"CZK 18,000","CZK 3,500",731347,2+kk,9/1/2022,55 m²,Fully furnished,2,1.0,299.06,447.73,942.69,1026.69,418.21,563.91,853.15,911.69,315.13,230.56,Prague - Letňany,50.13989,14.51874,"CZK 35,000",Brick,,,New-build,,C,,,,1.0,1.0,,,,,1.0,
"CZK 11,800","CZK 3,700",174167,1 bedroom,9/1/2022,47 m²,Fully furnished,1,,269.91,482.78,119.66,1225.34,219.91,809.9,389.5,379.4,327.15,23.4,"Za Pohořelcem, Prague - Střešovice",50.0864318,14.3834355,"CZK 11,800",Brick,,Complete,Very good,Personal,,Gas boiler,Standard,,,,,,,,,
"CZK 19,000","CZK 4,500",731358,2 bedroom,8/26/2022,55 m²,Partly,4,1.0,150.25,683.3,33.7,536.14,225.12,553.91,246.79,271.95,393.04,186.2,Prague - Břevnov,50.08457,14.34674,"CZK 38,000",Brick,,,Very good,,G,,,,,,,,1.0,1.0,,
"CZK 21,500","CZK 3,058",386583,2+kk,9/5/2022,66 m²,Partly,6,1.0,200.44,899.67,116.64,347.09,27.75,327.12,327.09,562.48,353.21,44.52,"Kurta Konráda, Prague - Libeň",50.1050691,14.4879729,"CZK 32,250",Prefab concrete,Up to 10 years,,New-build,Personal,,Central,Standard,,1.0,1.0,1.0,,,,1.0,
"CZK 33,000","CZK 10,000",729540,3+kk,9/1/2022,136 m²,Fully furnished,5,1.0,414.08,771.69,477.5,878.68,3.32,463.98,336.19,409.67,481.2,613.02,"Na Výsledku II, Prague - Nusle",50.05555665,14.44677365,"CZK 33,000",Other,,,Very good,,G,,,1.0,,,,,,,1.0,
"CZK 23,000","CZK 5,730",731351,3+1,8/26/2022,73 m²,Fully furnished,2,,195.03,167.22,83.77,41.96,99.88,440.81,270.05,289.72,1038.17,276.75,Prague - Vinohrady,50.07799,14.45415,"CZK 23,000",Brick,,,Very good,,G,,,,,,,,,1.0,,
"CZK 21,000","CZK 4,000",731348,2+kk,1/3/2023,61 m²,Unfurnished,11,1.0,242.34,1352.77,303.49,1027.31,364.56,863.04,303.66,1008.3,1292.55,839.42,Prague - Vysočany,50.10109,14.5057,"CZK 42,000",Brick,Up to 10 years,,New-build,Personal,B,Distance,Standard,,1.0,1.0,1.0,1.0,,,1.0,
"CZK 23,900","CZK 3,900",577288,2+kk,9/1/2022,60 m²,Fully furnished,6,1.0,183.97,1118.9,5.8,558.34,121.65,425.24,124.13,356.18,285.18,98.76,"Drahobejlova, Prague - Libeň",50.1060756,14.4904958,"CZK 35,000",Brick,,,Very good,Personal,C,Gas boiler,,,1.0,,,1.0,,,1.0,
"CZK 15,000","CZK 4,000",730681,2 bedroom,9/5/2022,49 m²,Partly,1,,72.47,323.21,123.04,161.16,83.35,257.83,190.96,677.42,400.74,244.94,Prague - Strašnice,50.07551,14.48872,"CZK 30,000",Brick,,Complete,Very good,Personal,G,,Standard,,,,,1.0,,,,
"CZK 12,500","CZK 1,000",598559,Studio,9/15/2022,25 m²,Partly,3,,91.39,310.67,92.06,91.12,15.07,54.1,374.99,679.58,586.87,437.09,"Čestmírova, Prague - Nusle",50.064342,14.442252,"CZK 13,500",Brick,Up to 10 years,Complete,New-build,Personal,B,,Luxurious,,1.0,,,1.0,,,1.0,
"CZK 19,500","CZK 4,300",730680,2+kk,11/1/2022,51 m²,Fully furnished,3,1.0,77.89,806.6,238.19,510.21,346.43,332.17,116.14,372.1,179.0,189.14,Prague - Letňany,50.13414,14.50913,"CZK 45,000",Prefab concrete,,,Very good,Personal,D,,,,,,,,1.0,,1.0,
"CZK 23,000","CZK 2,256",727374,2+kk,10/1/2022,50 m²,Partly,5,1.0,229.92,458.16,132.37,16.18,66.74,348.3,271.86,425.85,412.95,347.61,"Smolenská, Prague - Vršovice",50.0694328,14.45145165,"CZK 50,512",Brick,,Complete,Very good,Personal,E,,,,,,,,,,1.0,
"CZK 26,000","CZK 3,200",727402,2 bedroom,10/1/2022,70 m²,Partly,4,,294.31,695.6,57.95,472.25,12.23,470.59,243.7,242.01,491.49,211.15,"Ruská, Prague - Vršovice",50.07222495,14.45512555,"CZK 58,400",Brick,,Complete,Very good,Personal,E,,,,1.0,,,,,,,
"CZK 19,485",CZK 949,731337,2+kk,8/15/2022,40 m²,,1,,133.2,734.92,342.02,599.67,131.95,302.7,365.01,319.07,608.33,405.73,"Nad Kajetánkou, Prague - Břevnov",50.0861501,14.3723843,"CZK 20,500",Other,,,Good,Personal,,,,,,,,,,,,"CZK 2,923"
"CZK 16,876","CZK 3,178",731334,2+kk,8/15/2022,49 m²,,1,,130.79,1185.1,562.88,1144.95,835.53,1111.94,1115.21,1146.75,1036.86,377.8,"Granitova, Prague - Hloubětín",50.1082751,14.5273385,"CZK 20,100",Other,,,Good,Personal,,,,,,,,,,,,"CZK 2,531"
"CZK 14,000","CZK 3,600",505470,2+kk,10/1/2022,43 m²,Partly,7,1.0,97.07,518.62,175.18,614.86,171.34,492.91,345.02,334.45,1585.25,88.37,"Famfulíkova, Prague - Kobylisy",50.1318409,14.4711883,"CZK 14,000",Prefab concrete,,Bathroom unit,Very good,Personal,D,Distance,,,,,,,,,,
"CZK 19,800","CZK 2,000",606361,2 bedroom,9/1/2022,67 m²,Partly,1,,131.48,515.69,253.55,394.7,118.91,600.85,270.67,1270.4,155.34,163.32,"Jana Zajíce, Prague - Bubeneč",50.100818,14.417075,"CZK 24,000",Brick,,Complete,Very good,Personal,B,Electric boiler,Standard,,,,,,,,,
"CZK 12,500","CZK 3,000",494175,Studio,10/1/2022,37 m²,Partly,2,,47.67,1568.73,316.33,6476.7,1240.54,1317.99,1068.01,1008.14,1397.71,1080.16,"Rosická, Prague - Vinoř",50.1531832,14.5860847,"CZK 25,000",Brick,Up to 10 years,,,Personal,C,Gas boiler,,,1.0,,,,,,,
"CZK 19,500","CZK 4,500",731322,2 bedroom,9/1/2022,56 m²,Fully furnished,4,1.0,188.1,194.17,38.22,206.86,69.14,61.65,394.66,543.39,153.34,384.84,Prague - Holešovice,50.10488,14.44655,"CZK 39,000",Brick,,,Very good,,G,,,,1.0,,,,,,1.0,
"CZK 20,000","CZK 4,500",461130,3+kk,9/12/2022,62 m²,Fully furnished,1,1.0,245.07,1603.95,923.29,2129.19,697.88,1650.4,1292.07,1787.3,1232.57,710.16,"Farkašova, Prague - Kyje",50.1158365,14.5628399,"CZK 40,000",Brick,Up to 10 years,,,Personal,C,,,1.0,,,,1.0,,,,
"CZK 27,000","CZK 6,000",462223,3+kk,9/1/2022,106 m²,Fully furnished,8,1.0,212.08,812.91,162.18,1052.96,441.38,396.18,445.25,146.72,1065.71,247.83,"Otradovická, Prague - Kamýk",50.0198176,14.4448089,"CZK 33,000",Brick,Up to 10 years,,New-build,Personal,B,Central,Luxurious,1.0,,1.0,1.0,,,,,
"CZK 14,000","CZK 4,300",731314,Studio,9/8/2022,31 m²,Unfurnished,,,91.54,820.46,1038.67,2473.66,459.96,709.18,1822.92,652.03,467.42,170.28,Prague - Ďáblice,50.14495,14.47491,"CZK 42,000",Brick,,,New-build,Personal,G,,,1.0,,1.0,,,,,1.0,
"CZK 14,900","CZK 2,750",731312,Studio,9/1/2022,30 m²,Fully furnished,1,1.0,176.41,649.83,330.27,562.13,263.45,522.46,374.06,579.0,711.15,324.72,Prague - Michle,50.05069,14.45507,"CZK 20,000",Brick,,Complete,New-build,,G,,,,,,,,,,,
"CZK 25,000","CZK 4,900",197587,2 bedroom,9/1/2022,61 m²,Unfurnished,3,1.0,280.18,564.46,136.33,351.39,55.11,370.66,313.06,353.83,691.04,109.51,"Baranova, Prague - Žižkov",50.0797815,14.4578475,"CZK 25,000",Brick,,,,Personal,,,,,,,,,,,,
"CZK 18,000","CZK 3,300",731302,2+kk,8/29/2022,54 m²,Fully furnished,3,,31.51,318.45,10.06,91.13,129.35,27.18,280.16,239.27,458.26,223.91,Prague - Holešovice,50.10271,14.45017,"CZK 18,000",Brick,,,New-build,,G,,,,,,,1.0,,,,
"CZK 14,500","CZK 2,500",612251,Studio,9/1/2022,25 m²,,1,,211.15,237.15,355.34,868.62,194.77,283.9,145.14,177.97,611.03,466.53,"Omská, Prague - Vršovice",50.072914,14.478114,"CZK 25,000",Brick,,,New-build,Personal,B,,,,,,,,,,,
"CZK 22,000","CZK 5,000",539856,2+kk,9/15/2021,55 m²,Fully furnished,1,1.0,223.43,981.59,819.74,1191.68,381.56,450.67,479.9,1171.22,401.22,333.31,"Radouňova, Prague - Řeporyje",50.0379471,14.3129703,"CZK 25,000",Brick,,Complete,,Personal,,Electric boiler,,,,1.0,1.0,,1.0,,1.0,
"CZK 17,000","CZK 4,500",731225,2+kk,8/25/2022,63 m²,Fully furnished,2,1.0,153.7,333.61,320.29,4087.24,225.91,3065.42,236.07,387.04,474.19,187.51,Prague - Běchovice,50.08199,14.6153,"CZK 34,000",Brick,,,New-build,,B,,,,1.0,1.0,,,,,,
"CZK 14,700",CZK 0,319784,2+kk,9/1/2022,52 m²,Fully furnished,3,1.0,183.18,395.09,68.94,148.73,17.96,292.33,263.93,505.32,342.96,196.0,"Valerije Pavloviče Čkalova, Prague - Bubeneč",50.0993313,14.3998311,"CZK 20,000",Brick,,,,Personal,,Electric boiler,,,,,,,,,,
"CZK 15,990","CZK 1,844",731293,2+kk,8/30/2022,50 m²,Fully furnished,4,1.0,328.11,541.24,230.81,511.57,319.84,502.15,255.36,302.28,241.45,168.56,"Láskova, Prague - Chodov",50.02436944444,14.49418916666,"CZK 17,834",Prefab concrete,,,Very good,Personal,C,,,,1.0,,,,,,1.0,"CZK 17,834"
"CZK 14,900","CZK 2,500",731232,Studio,8/31/2022,36 m²,Fully furnished,2,,364.05,757.9,653.66,777.57,800.85,858.14,498.49,941.65,1026.09,639.18,Prague - Košíře,50.06445,14.37514,"CZK 20,000",Brick,,,Very good,,G,,,1.0,,,,,,,1.0,
"CZK 37,500","CZK 3,000",710123,5+kk,9/1/2022,130 m²,Unfurnished,3,1.0,363.36,234.94,118.19,197.82,177.62,456.08,270.14,407.61,938.65,192.26,"Velehradská, Prague - Vinohrady",50.07888,14.45376,CZK 0,Brick,,,Very good,,F,,,,,,,,,,,
"CZK 25,000","CZK 2,500",731209,3+1,9/1/2022,119 m²,Unfurnished,1,1.0,272.1,1369.08,701.74,979.35,495.04,998.56,210.47,580.68,831.59,106.18,Prague - Bubeneč,50.10441,14.40947,"CZK 75,000",Brick,,,Good,,G,,,,,,,,,,,
"CZK 26,000","CZK 7,900",548506,2+kk,8/21/2022,54 m²,Fully furnished,4,1.0,196.54,708.6,185.89,175.43,33.46,257.8,76.89,276.1,130.26,252.34,"Vyšehradská, Prague - Nové Město",50.0694781,14.418098,"CZK 50,000",Brick,Up to 10 years,Complete,,Personal,B,,Luxurious,,,,,,,,1.0,
"CZK 13,000","CZK 2,100",652345,1 bedroom,9/1/2022,40 m²,Partly,,,14.76,532.06,110.16,126.78,31.89,417.58,621.51,459.08,764.16,368.41,"Palackého Náměstí, Prague - Nové Město",50.073482,14.414506,"CZK 13,000",Brick,,,Good,Personal,G,,,,,,,,,,,
"CZK 13,200","CZK 1,500",731276,2+kk,8/25/2022,41 m²,Partly,5,,243.82,463.1,244.48,243.55,167.49,206.53,527.42,832.01,739.3,589.52,Prague - Nusle,50.06536,14.44259,"CZK 13,200",Brick,,,Very good,,D,,,,,,,1.0,,,,
"CZK 26,000","CZK 5,000",661356,3+1,11/1/2022,85 m²,Partly,2,,151.93,919.59,152.74,271.19,117.07,205.89,341.82,555.9,1112.85,364.44,"Pod Kynclovkou, Prague - Kobylisy",50.12279,14.45007,"CZK 50,000",Brick,,,Very good,Cooperative,A,Distance,,,1.0,,,,,,1.0,
"CZK 22,000","CZK 4,000",731269,2+kk,9/15/2022,60 m²,Unfurnished,6,1.0,147.68,1130.21,207.48,950.91,592.24,852.41,487.07,64.17,842.73,74.21,Prague - Strašnice,50.07235,14.5026,"CZK 44,000",Prefab concrete,,,New-build,,G,,,,,1.0,1.0,,1.0,,1.0,
"CZK 11,500","CZK 2,700",731264,Studio,10/1/2022,30 m²,Partly,2,,91.83,807.35,52.77,443.32,82.54,376.43,473.94,213.65,219.21,253.28,Prague - Žižkov,50.09156,14.48126,"CZK 23,000",Brick,,,Very good,,G,,,,,,,,,,,
"CZK 5,400","CZK 1,600",393988,3+1,7/16/2022,16 m²,Fully furnished,2,,133.69,682.09,242.76,711.76,158.18,686.43,657.06,716.87,219.08,404.75,"Na Rovnosti, Prague - Žižkov",50.0877481,14.4893743,CZK 0,Prefab concrete,,,,Cooperative,,,,,1.0,,,,,,,
"CZK 15,000","CZK 3,000",726701,Small studio,7/20/2022,30 m²,Partly,2,,252.15,174.67,201.91,195.35,157.71,187.08,81.76,421.52,87.59,299.91,Prague - Strašnice,50.07473,14.49243,"CZK 15,000",Brick,,,Very good,,G,,,,,,,,,,1.0,
"CZK 11,500","CZK 3,500",498710,Studio,9/1/2022,33 m²,Fully furnished,5,1.0,364.88,651.13,290.15,777.35,153.31,417.5,421.99,617.13,102.69,182.72,"Na Folimance, Prague - Vinohrady",50.066905652166,14.431690307952,"CZK 15,000",Brick,Up to 10 years,Complete,,Personal,,,Standard,,,,,,,,1.0,
"CZK 17,000","CZK 7,500",730280,2 bedroom,8/17/2022,51 m²,Partly,5,1.0,174.57,1207.36,174.27,505.0,209.71,126.79,445.15,418.56,527.51,385.81,Prague - Dejvice,50.1077,14.39349,"CZK 34,000",Brick,,,Very good,,G,,,,,,,,,,1.0,
"CZK 24,990","CZK 3,388",731246,3+kk,8/30/2022,74 m²,Fully furnished,2,1.0,146.07,1733.58,871.94,1739.22,710.76,1359.51,1622.85,1351.31,1109.11,193.83,"Škvorecká, Prague - Stodůlky",50.06,14.33,"CZK 28,378",Brick,,,New-build,Personal,B,,,,1.0,1.0,,,,,1.0,"CZK 28,378"
"CZK 13,000","CZK 5,500",486379,2+kk,9/12/2022,36 m²,Partly,2,1.0,218.79,264.72,214.37,2051.37,180.86,343.29,800.01,189.83,529.94,287.22,"Horolezecká, Prague - Hostivař",50.0517645,14.5438766,"CZK 20,000",Prefab concrete,,Complete,Very good,Personal,,,,,1.0,,,1.0,,,1.0,
"CZK 23,990","CZK 4,378",731237,2+kk,8/30/2022,49 m²,Fully furnished,4,1.0,267.67,187.24,39.3,41.26,78.77,106.88,417.33,590.18,371.06,221.83,"Kyjevská, Prague - Dejvice",50.09886527777,14.39817361111,"CZK 56,736",Brick,,,Very good,Personal,G,,,,1.0,,,,,,1.0,"CZK 28,368"
"CZK 9,000","CZK 1,250",728872,2 bedroom,10/1/2022,70 m²,Partly,3,,191.02,1134.02,193.0,571.22,318.41,213.69,362.28,887.88,233.66,181.75,Prague - Libeň,50.11029,14.473,"CZK 9,000",Brick,,,Very good,,G,,,,,,,1.0,,,,
"CZK 22,000","CZK 5,000",682392,3+1,9/3/2022,75 m²,Unfurnished,4,1.0,185.73,568.17,158.58,350.06,210.16,318.32,415.22,779.92,428.0,386.65,"Svatoslavova, Prague - Nusle",50.0617576,14.4436839,"CZK 25,000",Brick,Over 50 years,Complete,Very good,Personal,G,,Standard,,,,,,,,,
"CZK 20,000","CZK 8,733",730067,Studio,9/12/2022,56 m²,Fully furnished,3,1.0,189.18,160.11,178.24,180.32,20.05,230.44,266.64,745.59,557.09,388.8,Prague - Holešovice,50.09921,14.42274,"CZK 20,000",Brick,,,Very good,,G,,,,,,,,,,1.0,
